     3.03           OBSERVATION DATA    M: Mixed            RINEX VERSION / TYPE
RTKCONV demo5 b33c                      20210524 111844 UTC PGM / RUN BY / DATE 
log: C:\Users\Ivan_PolyU_Dktp\Dropbox\HUAWEI Exp\20210521_  COMMENT             
format: RINEX                                               COMMENT             
Geo++                                                       MARKER NAME         
                                                            MARKER NUMBER       
                                                            MARKER TYPE         
                                                            OBSERVER / AGENCY   
unknown             Google              Pixel 4             REC # / TYPE / VERS 
unknown             Pixel 4                                 ANT # / TYPE        
 -2419232.1640  5385472.0689  2405345.2269                  APPROX POSITION XYZ 
        0.0000        0.0000        0.0000                  ANTENNA: DELTA H/E/N
G    8 C1C L1C D1C S1C C5Q L5Q D5Q S5Q                      SYS / # / OBS TYPES 
R    4 C1C L1C D1C S1C                                      SYS / # / OBS TYPES 
E    8 C1C L1C D1C S1C C5Q L5Q D5Q S5Q                      SYS / # / OBS TYPES 
J    8 C1C L1C D1C S1C C5Q L5Q D5Q S5Q                      SYS / # / OBS TYPES 
  2021     5    21     6    29    6.4322080     GPS         TIME OF FIRST OBS   
  2021     5    21     6    54   39.4321459     GPS         TIME OF LAST OBS    
G                                                           SYS / PHASE SHIFT   
R                                                           SYS / PHASE SHIFT   
E                                                           SYS / PHASE SHIFT   
J                                                           SYS / PHASE SHIFT   
  3 R01  1 R09 -2 R17  4                                    GLONASS SLOT / FRQ #
 C1C    0.000 C1P    0.000 C2C    0.000 C2P    0.000        GLONASS COD/PHS/BIS 
                                                            END OF HEADER       
> 2021  5 21  6 29  6.4322080  0 21                     
E 1  25233922.098 1 132605143.11311      1661.130          31.000    25231796.270 1  99014989.484 1      1240.292          31.500  
E13  25336068.883 1 133141929.500 1     -1729.265          40.750    25333950.550 1  99415843.736 1     -1291.274          25.500  
E21  23611232.762 1 124077661.169 1      -895.575          35.750    23609110.831 1  92647212.789 1      -668.876          31.000  
E26  23653309.833 1 124298985.949 1      -288.943          32.000    23651185.804 1  92812334.076 1      -215.958          33.000  
G 2  24253389.107 1 127452232.972 1      1807.104          33.750                                                                  
G 3  22220485.357 1 116769513.543 1     -1780.468          36.750                                                                  
G 6  21635177.457 1 113693698.907 1      1026.144          34.500                                                                  
G 9  25204719.914 1 132451610.49511      1586.401          27.500                                                                  
G14  20180388.986 1 106048771.439 1      -521.962          36.250                                                                  
G17  21736098.691 1 114223995.974 1       615.876          31.750                                                                  
G19  22057659.079 1 115913822.934 1      1381.795          38.750                                                                  
G30  23632130.395 1 124187610.960 1     -2736.075          33.500                                                                  
J 1  37415404.333 1 196619141.936 1       -30.410          29.250    37413039.870 1                       -23.250          16.500  
J 2  35953230.475 1 188935548.197 1       152.802          34.750    35950895.092 1                       112.200          26.500  
J 3  39704291.869 1 208647332.424 1       296.981          40.750    39701951.690 1                       221.400          20.250  
R 2  21836897.609 1                      2359.700          20.750  
R 3  23707644.518 1                      3503.050          22.000  
R14  20540318.012 1 109491359.33311     -3251.769          28.500  
R15  20082078.045 1 107312485.776 1       533.306          32.000  
R17  21007816.470 1 112417118.593 1      -738.884          40.500  
R18  22357994.461 1                       786.050          24.500  
> 2021  5 21  6 29  7.4322079  0 21                     
E 1  25233570.382 1                      1664.650          28.000    25231449.650 1  99013631.148 1      1241.025          34.000  
E13  25336368.317 1 133143500.882 1     -1729.158          40.250    25334245.786 1  99417017.167 1     -1290.988          27.000  
E21  23611374.205 1 124078398.976 1      -895.269          35.750    23609251.675 1  92647763.757 1      -668.329          29.750  
E26  23653332.258 1 124299116.485 1      -287.460          31.500    23651210.028 1  92812431.578 1      -214.637          34.750  
G 2  24253026.599 1 127450267.490 1      1808.824          34.500                                                                  
G 3  22220788.987 1 116771136.602 1     -1781.158          34.750                                                                  
G 4  25592734.038 1                      1345.250          27.000                                                                  
G 6  21634966.644 1 113692514.453 1      1027.602          35.750                                                                  
G 9  25204374.794 1 132449865.61111      1586.610          27.000                                                                  
G14  20180455.781 1 106049135.820 1      -521.979          35.500                                                                  
G17  21735955.631 1 114223221.976 1       616.744          32.250                                                                  
G19  22057366.422 1 115912282.869 1      1383.124          38.000                                                                  
G30  23632693.646 1 124190642.86711     -2734.533          34.750                                                                  
J 1  37415356.607 1 196619015.28411       -31.502          26.500                                                                  
J 2  35953185.447 1 188935237.563 1       152.960          35.750    35950834.475 1 141078795.49411       114.199          30.000  
J 3  39704206.969 1 208646877.622 1       297.194          39.750                                                                  
R 2  21836342.334 1                      2368.000          23.500  
R14  20540892.655 1 109494451.049 1     -3251.474          34.000  
R15  20081949.075 1 107311791.93011       533.978          28.500  
R17  21007922.238 1 112417696.459 1      -737.826          39.750  
R18  22357851.701 1                       790.000          24.250  
> 2021  5 21  6 29  8.4322079  0 21                     
E 1  25233260.327 1                      1662.550          27.250    25231134.798 1  99012389.043 1      1242.824          38.250  
E13  25336694.121 1 133145229.349 1     -1728.846          37.000    25334573.989 1  99418307.649 1     -1290.434          30.000  
E21  23611541.119 1 124079293.279 1      -894.085          32.750    23609421.587 1  92648431.584 1      -667.487          29.750  
E26  23653387.350 1                      -285.800          22.500    23651265.119 1  92812645.256 1      -213.137          38.000  
G 2  24252690.161 1 127448746.45111      1811.868          33.000                                                                  
G 3  22221129.182 1 116772917.65711     -1782.656          27.750                                                                  
G 6  21634761.216 1 113691485.285 1      1029.976          34.000                                                                  
G 9  25204068.935 1 132448278.51611      1587.425          26.250                                                                  
G14  20180565.135 1 106049657.062 1      -521.250          35.000                                                                  
G17  21735822.752 1 114222603.46811       618.044          29.000                                                                  
G19  22057095.640 1 115910898.349 1      1385.134          37.750                                                                  
G30  23633246.093 1 124193375.88011     -2732.716          31.000                                                                  
J 1  37415367.030 1 196619045.74611       -30.574          26.500                                                                  
J 2  35953156.297 1 188935083.77411       154.207          30.500    35950808.023 1 141078680.560 1       115.244          30.250  
J 3  39704148.739 1 208646579.810 1       297.694          35.750    39701806.461 1                       221.500          30.250  
R 2  21835939.343 1 116520755.84311      2365.401          27.500  
R 3  23706212.880 1                      3502.950          21.500  
R14  20541499.965 1 109497701.467 1     -3249.935          36.000  
R15  20081842.879 1                       535.350          24.250  
R17  21008067.567 1 112418433.114 1      -736.260          37.000  
R18  22357678.950 1                       791.850          24.000  
> 2021  5 21  6 29  9.4322078  0 21                     
E 1  25232911.465 1 132599845.19511      1662.677          32.000    25230787.735 1  99011029.459 1      1242.097          37.750  
E13  25336996.708 1 133146801.977 1     -1731.054          35.750    25334873.878 1  99419481.876 1     -1292.293          31.000  
E21  23611690.513 1 124080030.87711      -895.935          32.000    23609561.087 1  92648982.214 1      -668.870          30.250  
E26  23653428.818 1                      -289.950          23.000    23651290.098 1  92812741.315 1      -213.646          38.500  
G 2  24252322.412 1 127446777.58711      1810.857          29.500                                                                  
G 3  22221438.664 1 116774544.412 1     -1785.273          35.750                                                                  
G 6  21634542.164 1 113690298.250 1      1029.295          37.500                                                                  
G 9  25203726.069 1 132446535.31011      1584.280          27.750                                                                  
G14  20180635.083 1 106050022.251 1      -523.855          36.750                                                                  
G17  21735683.745 1 114221829.361 1       616.059          38.250                                                                  
G19  22056810.334 1 115909356.333 1      1384.315          40.000                                                                  
G30  23633735.451 1 124195952.61211     -2734.631          33.750                                                                  
J 1  37415367.426 1                       -39.100          22.250    37412996.068 1                       -21.400          19.000  
J 2  35953079.947 1 188934773.32611       151.707          27.250    35950748.461 1 141078448.731 1       113.460          29.500  
J 3  39704062.495 1 208646125.50611       295.804          29.250    39701720.816 1 155798079.25911       220.614          36.500  
R 2  21835489.451 1 116518230.25911      2365.801          28.500  
R 3  23705617.888 1                      3506.550          22.500  
R14  20542069.667 1 109500792.632 1     -3251.884          36.000  
R15  20081700.874 1                       528.400          24.500  
R17  21008155.802 1 112419010.047 1      -737.712          36.000  
R18  22357530.949 1                       797.950          23.000  
> 2021  5 21  6 29 10.4322078  0 20                     
E 1  25232594.470 1 132598182.277 1      1662.597          34.250    25230471.340 1  99009787.636 1      1241.479          37.500  
E13  25337325.467 1 133148533.287 1     -1731.789          34.250    25335203.236 1  99420774.681 1     -1293.387          31.750  
E21  23611854.385 1 124080927.88511      -898.684          30.500    23609731.255 1  92649652.08511      -671.258          31.250  
E26  23653453.287 1                      -283.300          24.750    23651344.247 1  92812955.307 1      -214.672          37.500  
G 2  24251961.648 1 127444966.832 1      1810.164          34.000                                                                  
G 3  22221778.515 1 116776330.980 1     -1787.694          39.250                                                                  
G 6  21634345.386 1 113689269.372 1      1027.977          38.000                                                                  
G 9  25203468.434 1 132444952.71411      1580.143          26.500                                                                  
G14  20180735.999 1 106050547.186 1      -526.538          39.000                                                                  
G17  21735568.511 1 114221213.342 1       615.933          41.000                                                                  
G19  22056542.505 1 115907971.644 1      1384.731          41.500                                                                  
G30  23634240.488 1 124198687.813 1     -2736.265          35.250                                                                  
J 1  37415367.012 1 196619080.52511       -36.636          26.750    37413004.348 1                       -26.700          21.500  
J 2  35953060.346 1 188934623.168 1       147.992          29.000    35950719.567 1 141078336.469 1       110.612          28.250  
J 3  39704007.220 1 208645829.84211       294.811          30.000    39701664.042 1 155797859.103 1       219.519          36.750  
R 2  21834969.497 1                      2359.700          25.500  
R 3  23704968.424 1                      3511.850          23.750  
R14  20542687.425 1 109504045.820 1     -3255.396          37.250  
R15  20081610.223 1 107310036.16011       532.690          30.500  
R17  21008311.281 1 112419747.511 1      -737.267          37.500  
> 2021  5 21  6 29 11.4322078  0 20                     
E 1  25232276.415 1 132596517.54111      1663.662          30.000    25230154.783 1  99008544.562 1      1241.956          37.250  
E13  25337653.164 1 133150262.272 1     -1728.887          39.250    25335532.732 1  99422065.998 1     -1292.092          30.750  
E21  23612027.989 1 124081825.833 1      -900.125          34.000    23609903.060 1  92650322.747 1      -672.636          31.750  
E26  23653524.662 1                      -284.550          28.000    23651399.133 1  92813168.267 1      -214.011          37.500  
G 2  24251623.506 1 127443155.52911      1808.209          32.500                                                                  
G 3  22222120.302 1 116778116.64211     -1786.242          31.750                                                                  
G 6  21634153.243 1 113688240.774 1      1026.180          37.000                                                                  
G 9  25203143.183 1                      1582.500          22.500                                                                  
G14  20180829.558 1 106051073.081 1      -527.881          38.000                                                                  
G17  21735447.119 1 114220594.921 1       618.290          35.500                                                                  
G19  22056283.509 1 115906584.522 1      1386.677          41.250                                                                  
G30  23634799.625 1 124201709.73011     -2736.636          30.250                                                                  
J 1  37415365.537 1 196619117.56111       -39.322          28.500    37413010.668 1 146816689.65611       -19.955          23.000  
J 2  35953033.389 1 188934475.094 1       145.270          32.500    35950692.909 1 141078226.008 1       108.416          30.250  
J 3  39703950.583 1 208645533.629 1       295.766          37.250    39701607.705 1 155797638.12811       220.836          33.000  
R 2  21834492.252 1                      2359.300          24.000  
R14  20543302.923 1 109507301.792 1     -3259.222          36.750  
R15  20081512.214 1 107309503.58311       530.655          27.500  
R17  21008444.113 1 112420482.122 1      -734.749          37.250  
R18  22357191.794 1                       790.600          22.000  
> 2021  5 21  6 29 12.4322077  0 20                     
E 1  25231930.563 1 132594696.669 1      1664.857          35.250    25229807.732 1  99007184.671 1      1243.184          36.000  
E13  25337953.664 1 133151832.194 1     -1725.095          38.750    25335830.234 1  99423238.570 1     -1287.801          34.750  
E21  23612166.302 1 124082569.309 1      -899.780          34.500    23610043.472 1  92650877.930 1      -671.895          27.250  
E26  23653546.055 1 124300389.74511      -283.481          31.000    23651423.525 1  92813264.548 1      -212.813          35.250  
G 2  24251239.581 1 127441192.492 1      1806.129          33.000                                                                  
G 3  22222430.996 1 116779745.444 1     -1782.932          35.500                                                                  
G 6  21633930.906 1 113687057.965 1      1026.289          35.750                                                                  
G 9  25202852.193 1                      1591.100          22.500                                                                  
G14  20180901.917 1 106051443.825 1      -526.692          36.250                                                                  
G17  21735306.925 1 114219818.544 1       621.165          37.250                                                                  
G19  22055986.523 1 115905040.068 1      1388.485          39.000                                                                  
G30  23635334.563 1 124204288.79411     -2736.546          35.750                                                                  
J 1  37415329.071 1                       -36.000          24.250    37412985.294 1                       -28.250          25.000  
J 2  35952975.338 1 188934172.65411       146.422          30.000    35950631.260 1 141078000.39511       109.139          31.500  
J 3  39703869.448 1 208645080.016 1       299.222          37.500    39701521.773 1 155797297.44611       223.432          30.750  
R 3  23703634.180 1                      3502.500          22.500  
R14  20543896.021 1 109510403.09011     -3260.052          27.500  
R15  20081369.322 1 107308812.688 1       531.972          34.500  
R17  21008543.752 1 112421055.745 1      -731.654          37.250  
R18  22357048.902 1                       786.950          23.000  
> 2021  5 21  6 29 13.4322077  0 20                     
E 1  25231610.486 1 132593029.298 1      1666.754          36.500    25229490.953 1  99005939.539 1      1244.836          36.500  
E13  25338282.039 1 133153554.049 1     -1722.560          36.000    25336158.309 1  99424524.569 1     -1286.331          38.500  
E21  23612338.484 1 124083466.66511      -897.890          31.250    23610217.153 1  92651548.067 1      -670.220          28.000  
E26  23653597.421 1 124300671.839 1      -282.922          36.500    23651476.690 1  92813475.371 1      -210.925          35.000  
G 2  24250894.321 1 127439384.095 1      1808.052          33.500                                                                  
G 3  22222767.464 1 116781525.778 1     -1781.294          35.750                                                                  
G 6  21633729.247 1 113686029.426 1      1028.067          36.500                                                                  
G14  20181003.648 1 106051968.216 1      -525.209          37.500                                                                  
G17  21735179.614 1 114219194.534 1       623.608          36.000                                                                  
G19  22055714.413 1 115903648.723 1      1390.974          36.750                                                                  
G30  23635873.991 1 124207356.130 1     -2729.017          36.750                                                                  
J 1  37415351.058 1 196618996.87411       -32.238          26.750    37412993.790 1                       -25.900          27.750  
J 2  35952982.634 1                       148.150          24.500    35950603.181 1 141077889.263 1       110.871          33.000  
J 3  39703815.287 1 208644777.74811       301.256          30.500    39701463.715 1 155797072.204 1       225.006          35.500  
R 2  21833646.747 1                      2361.200          23.250  
R 3  23702879.404 1                      3506.750          23.000  
R14  20544508.899 1 109513660.13311     -3257.333          28.250  
R15  20081274.689 1 107308278.486 1       533.314          30.750  
R17  21008694.350 1 112421784.899 1      -729.806          39.250  
R18  22356925.789 1                       787.900          24.000  
> 2021  5 21  6 29 14.4322077  0 21                     
E 1  25231296.163 1 132591366.213 1      1664.354          38.000    25229174.531 1  99004697.734 1      1242.888          37.250  
E13  25338609.571 1 133155280.225 1     -1724.605          35.000    25336487.041 1  99425813.611 1     -1287.849          39.500  
E21  23612515.221 1 124084368.599 1      -901.048          31.000    23610386.695 1  92652221.596 1      -672.748          28.000  
E26  23653653.642 1 124300958.344 1      -285.363          37.750    23651531.411 1  92813689.289 1      -212.660          36.000  
G 2  24250551.818 1 127437579.870 1      1805.202          33.000                                                                  
G 3  22223111.186 1 116783311.165 1     -1784.317          35.750                                                                  
G 6  21633521.350 1 113685005.192 1      1025.413          32.750                                                                  
G 9  25202294.840 1                      1592.050          20.500                                                                  
G14  20181104.238 1 106052497.386 1      -528.273          37.750                                                                  
G17  21735055.660 1 114218574.673 1       621.284          34.500                                                                  
G19  22055460.048 1 115902261.381 1      1388.760          38.500                                                                  
G30  23636383.498 1 124210088.92911     -2731.921          36.750                                                                  
J 1  37415408.177 1                       -31.700          24.500    37413002.043 1                       -31.400          29.000  
J 2  35952933.927 1 188933942.80111       146.661          27.000    35950576.659 1 141077781.252 1       108.810          33.250  
J 3  39703742.297 1 208644479.74911       299.236          27.750    39701407.813 1 155796849.891 1       223.372          35.750  
R 2  21833030.533 1                      2355.850          23.000  
R 3  23702339.937 1                      3501.700          23.750  
R14  20545111.041 1 109516922.45911     -3261.064          29.750  
R15  20081178.615 1 107307749.379 1       530.029          34.000  
R17  21008822.520 1 112422518.361 1      -731.936          38.250  
R18  22356713.095 1 119341652.75211       794.552          26.750  
> 2021  5 21  6 29 15.4322076  0 21                     
E 1  25230951.430 1 132589543.769 1      1663.553          41.750    25228828.300 1  99003336.829 1      1242.259          35.000  
E13  25338908.793 1 133156846.525 1     -1725.104          35.750    25336784.764 1  99426983.264 1     -1288.576          38.500  
E21  23612651.656 1 124085111.469 1      -902.171          35.500    23610528.526 1                      -668.100          22.500  
E26  23653674.956 1 124301085.127 1      -285.653          38.500    23651556.323 1  92813783.992 1      -213.191          34.500  
G 2  24250184.901 1 127435616.49111      1804.424          33.500                                                                  
G 3  22223412.206 1 116784937.521 1     -1785.601          36.250                                                                  
G 6  21633307.328 1 113683821.763 1      1024.520          34.000                                                                  
G 9  25201984.884 1                      1592.200          22.500                                                                  
G14  20181176.217 1 106052867.713 1      -529.699          39.500                                                                  
G17  21734919.883 1 114217795.090 1       620.991          33.250                                                                  
G19  22055162.683 1 115900714.138 1      1388.634          40.250                                                                  
G30  23636856.300 1 124212664.87011     -2735.547          37.500                                                                  
J 1                                                                  37412977.789 1 146816560.27011       -29.168          28.000  
J 2  35952879.094 1 188933639.75511       143.570          29.500    35950516.430 1 141077554.509 1       107.798          27.250  
J 3  39703654.786 1 208644022.374 1       298.473          29.000    39701321.202 1 155796508.343 1       222.932          33.500  
R 2  21832596.762 1                      2356.650          22.500  
R 3  23701648.045 1                      3511.150          26.250  
R14  20545692.368 1 109520022.92211     -3262.706          31.000  
R15  20081044.037 1 107307058.761 1       528.805          35.000  
R17  21008935.871 1 112423088.945 1      -732.040          35.500  
R18  22356572.522 1 119340698.53611       792.625          29.750  
> 2021  5 21  6 29 16.4322076  0 20                     
E 1  25230633.669 1 132587879.279 1      1665.754          40.750    25228510.839 1  99002093.821 1      1244.240          35.500  
E13  25339235.286 1 133158570.926 1     -1723.178          37.500    25337112.756 1  99428270.901 1     -1286.773          40.500  
E21  23612823.456 1 124086014.453 1      -903.213          35.250    23610699.427 1                      -676.700          23.000  
E26  23653732.835 1 124301370.112 1      -283.867          39.000    23651610.005 1  92813996.793 1      -212.032          36.000  
G 2  24249840.159 1 127433812.43411      1804.018          32.750                                                                  
G 3  22223760.884 1 116786723.451 1     -1785.625          31.750                                                                  
G 6  21633115.480 1 113682797.241 1      1025.010          34.000                                                                  
G14  20181278.465 1 106053398.134 1      -530.640          40.000                                                                  
G17  21734797.586 1 114217173.14811       623.610          30.500                                                                  
G19  22054898.285 1 115899324.246 1      1391.679          40.250                                                                  
G30  23637354.574 1 124215136.52411     -2741.620          34.750                                                                  
J 1  37415435.207 1                       -35.300          20.750    37412986.502 1 146816590.564 1       -31.008          30.000  
J 2  35952846.436 1 188933496.67911       143.028          27.750    35950490.967 1                       106.250          29.250  
J 3  39703596.946 1 208643723.585 1       299.438          32.250    39701264.860 1 155796285.266 1       223.613          35.750  
R 2  21832127.906 1                      2349.300          25.250  
R 3  23700971.133 1                      3511.100          25.500  
R14  20546297.368 1 109523287.68111     -3265.633          30.250  
R15  20080945.125 1 107306529.840 1       529.679          34.500  
R17  21009072.595 1 112423819.694 1      -728.654          34.500  
R18  22356372.879 1 119339905.78711       794.654          28.500  
> 2021  5 21  6 29 17.4322076  0 21                     
E 1  25230316.177 1 132586213.122 1      1668.732          41.250    25228193.646 1  99000849.644 1      1246.115          33.750  
E13  25339565.945 1 133160293.726 1     -1720.181          37.000    25337441.016 1  99429557.472 1     -1284.754          39.500  
E21  23612996.424 1 124086919.347 1      -903.940          37.000                                                                  
E26  23653784.687 1 124301653.865 1      -281.312          39.250    23651663.955 1  92814208.656 1      -209.992          34.500  
G 2  24249487.890 1 127432008.89011      1804.463          34.000                                                                  
G 3  22224097.538 1 116788509.61211     -1782.009          26.500                                                                  
G 6  21632918.503 1 113681773.203 1      1025.855          33.000                                                                  
G 9  25201402.093 1                      1599.000          22.000                                                                  
G14  20181377.084 1 106053930.447 1      -531.292          40.250                                                                  
G17  21734676.757 1 114216549.41311       626.642          27.000                                                                  
G19  22054632.956 1 115897931.847 1      1395.486          40.500                                                                  
G30  23637810.246 1 124217530.88211     -2748.199          34.750                                                                  
J 1  37415355.449 1                       -37.750          22.750    37412994.884 1 146816623.520 1       -32.879          28.750  
J 2  35952817.044 1 188933356.769 1       139.548          28.750    35950466.071 1 141077350.13311       104.079          29.000  
J 3  39703551.664 1 208643424.668 1       300.895          35.000    39701206.987 1 155796062.053 1       224.771          34.000  
R 2  21831707.584 1                      2346.000          24.750  
R 3  23700241.126 1                      3501.950          24.500  
R14  20546917.326 1 109526555.58111     -3267.986          28.750  
R15  20080838.086 1 107306000.949 1       530.850          33.250  
R17  21009202.992 1 112424547.926 1      -724.941          34.500  
R18  22356285.926 1                       793.950          26.000  
> 2021  5 21  6 29 18.4322075  0 22                     
E 1  25229966.149 1 132584383.315 1      1670.906          39.250    25227846.017 1  98999483.213 1      1247.424          33.500  
E13  25339859.272 1 133161852.958 1     -1717.902          35.250    25337737.941 1  99430721.845 1     -1282.734          39.500  
E21  23613136.557 1 124087664.152 1      -905.083          38.000    23611017.624 1                      -677.100          21.500  
E26  23653808.501 1 124301774.382 1      -279.493          38.750    23651686.270 1  92814298.637 1      -208.981          34.750  
G 2  24249117.777 1 127430045.370 1      1804.199          34.750                                                                  
G 3  22224410.053 1 116790129.53711     -1780.892          26.250                                                                  
G 4  25589629.260 1                      1329.250          24.250                                                                  
G 6  21632701.884 1 113680587.428 1      1026.292          34.500                                                                  
G 9  25201065.257 1                      1602.250          24.250                                                                  
G14  20181448.565 1 106054302.538 1      -532.091          40.000                                                                  
G17  21734570.162 1 114215762.74711       628.024          26.000                                                                  
G19  22054342.888 1 115896374.981 1      1398.537          40.250                                                                  
G30  23638335.013 1 124220121.192 1     -2750.570          32.750                                                                  
J 1  37415333.995 1                       -43.100          26.250    37412971.330 1 146816538.21911       -34.621          29.250  
J 2  35952746.123 1 188933059.08611       137.062          27.500    35950409.841 1 141077127.767 1       102.364          31.500  
J 3  39703462.756 1 208642963.949 1       302.213          36.000    39701118.979 1 155795717.646 1       225.631          35.500  
R 2  21831250.231 1                      2354.000          24.500  
R 3  23699636.275 1                      3519.400          24.500  
R14  20547530.532 1 109529662.79711     -3270.139          27.750  
R15  20080728.792 1 107305307.32311       531.696          30.500  
R17  21009308.950 1 112425108.709 1      -721.764          33.750  
R18  22356084.896 1 119338299.31611       800.525          29.000  
> 2021  5 21  6 29 19.4322075  0 22                     
E 1  25229650.068 1 132582712.003 1      1672.738          39.500    25227527.238 1  98998235.130 1      1249.066          32.500  
E13  25340189.243 1 133163570.714 1     -1716.159          34.000    25338064.914 1  99432004.666 1     -1281.501          39.500  
E21  23613308.838 1 124088570.115 1      -905.575          38.500    23611186.607 1                      -679.100          21.750  
E26  23653860.564 1 124302053.582 1      -277.789          39.250    23651739.533 1  92814507.126 1      -207.276          35.250  
G 2  24248790.903 1 127428241.44011      1804.725          28.500                                                                  
G 3  22224741.523 1 116791912.28011     -1782.411          26.500                                                                  
G 4  25589354.850 1                      1330.000          21.500                                                                  
G 6  21632501.522 1 113679561.576 1      1026.978          35.500                                                                  
G 9  25200751.274 1                      1598.700          22.500                                                                  
G14  20181552.493 1 106054835.759 1      -532.806          41.000                                                                  
G17  21734408.473 1 114215132.61011       631.440          27.000                                                                  
G19  22054070.876 1 115894975.848 1      1400.955          39.750                                                                  
G30  23638853.254 1                     -2740.500          34.750                                                                  
J 1  37415336.293 1                       -43.950          27.750    37412981.423 1 146816574.065 1       -35.883          31.500  
J 2  35952727.736 1 188932924.13011       134.998          27.500    35950383.059 1 141077026.705 1       101.173          30.750  
J 3  39703404.496 1 208642662.192 1       302.967          36.500    39701061.918 1 155795492.309 1       226.182          35.500  
R 2  21830952.737 1 116494146.20211      2350.395          27.250  
R 3  23699032.692 1                      3514.200          26.250  
R14  20548110.530 1 109532934.93511     -3269.814          27.000  
R15  20080627.362 1 107304776.20511       532.206          30.500  
R17  21009446.454 1 112425829.976 1      -719.477          34.250  
R18  22355924.407 1 119337498.90711       801.753          30.000  
> 2021  5 21  6 29 20.4322075  0 22                     
E 1  25229331.318 1 132581040.005 1      1673.988          38.000    25227209.686 1  98996986.581 1      1250.013          33.250  
E13  25340513.548 1 133165287.93211     -1715.347          33.500    25338391.617 1  99433286.978 1     -1281.091          40.500  
E21  23613482.646 1 124089477.690 1      -906.628          36.250    23611356.818 1                      -675.250          25.250  
E26  23653914.756 1 124302332.302 1      -276.712          38.750    23651793.125 1  92814715.313 1      -206.804          35.000  
G 2  24248496.136 1                      1809.750          23.000                                                                  
G 3  22225085.014 1 116793695.79611     -1783.807          31.500                                                                  
G 4  25589122.739 1                      1328.600          24.000                                                                  
G 6  21632299.091 1 113678536.304 1      1026.964          33.250                                                                  
G 9  25200344.385 1                      1562.750          22.500                                                                  
G14  20181651.953 1 106055370.758 1      -533.995          39.500                                                                  
G17  21734301.077 1 114214501.57111       633.674          25.750                                                                  
G19  22053807.287 1 115893575.492 1      1402.870          39.750                                                                  
G30  23639459.663 1                     -2722.600          36.000                                                                  
J 1  37415343.417 1                       -47.300          25.500    37412991.245 1 146816611.917 1       -37.424          31.500  
J 2  35952717.472 1 188932791.33311       133.781          26.750    35950358.105 1 141076927.533 1        99.404          32.250  
J 3  39703351.962 1 208642360.624 1       303.209          34.500    39701003.987 1 155795267.163 1       226.483          35.500  
R 2  21830568.932 1 116492098.13111      2367.379          29.000  
R 3  23698231.576 1                      3479.600          26.250  
R14  20548770.003 1                     -3265.200          26.000  
R15  20080516.968 1 107304245.66211       532.253          30.000  
R17  21009562.703 1 112426550.057 1      -717.341          34.250  
R18  22355775.939 1 119336698.437 1       803.393          29.500  
> 2021  5 21  6 29 21.4322074  0 20                     
E 1  25228984.460 1 132579207.414 1      1675.722          38.250    25226860.431 1  98995618.081 1      1251.799          34.000  
E13  25340812.443 1 133166844.82211     -1714.462          32.500    25338687.814 1  99434449.475 1     -1279.424          37.750  
E21  23613622.652 1 124090227.298 1      -907.496          36.000    23611504.018 1  92656612.60011      -677.497          25.000  
E26  23653938.442 1 124302450.687 1      -275.166          38.750    23651815.312 1  92814803.673 1      -205.398          35.750  
G 3  22225398.300 1 116795323.00911     -1785.130          30.250                                                                  
G 6  21632076.947 1 113677351.530 1      1027.651          32.250                                                                  
G 9  25200151.321 1                      1615.000          22.250                                                                  
G14  20181724.805 1 106055747.704 1      -534.796          39.500                                                                  
G17  21734119.405 1                       634.900          22.000                                                                  
G19  22053506.298 1 115892013.879 1      1405.280          39.500                                                                  
G30  23639844.599 1 124228221.47711     -2735.158          34.500                                                                  
J 1  37415325.132 1                       -47.350          25.000    37412970.862 1 146816532.581 1       -38.950          31.000  
J 2  35952656.916 1 188932500.43011       132.602          25.750    35950303.845 1 141076711.063 1        98.089          32.500  
J 3  39703261.127 1 208641899.636 1       303.875          33.250    39700916.450 1 155794922.900 1       226.938          35.500  
R 2  21829913.888 1                      2340.150          25.000  
R 3  23697546.552 1                      3481.100          26.250  
R14  20549312.629 1                     -3274.850          23.250  
R15  20080380.864 1 107303553.08811       532.755          28.750  
R17  21009691.016 1 112427105.935 1      -714.943          33.000  
R18  22355566.686 1 119335733.68711       805.263          28.250  
> 2021  5 21  6 29 22.4322074  0 21                     
E 1  25228661.992 1 132577527.416 1      1678.672          38.500    25226540.660 1  98994363.547 1      1253.884          34.000  
E13  25341139.925 1                     -1707.550          23.250    25339015.296 1                     -1280.350          24.500  
E21  23613797.539 1 124091131.918 1      -906.941          35.750    23611675.608 1  92657288.282 1      -676.904          23.250  
E26  23653987.117 1 124302721.911 1      -272.573          38.250    23651866.984 1  92815006.208 1      -203.218          35.250  
G 2  24247857.988 1                      1805.400          23.000                                                                  
G 3  22225739.572 1 116797105.15211     -1784.179          34.500                                                                  
G 4  25588594.915 1                      1330.600          19.750                                                                  
G 6  21631886.088 1 113676320.54611      1029.124          32.000                                                                  
G14  20181827.143 1 106056279.855 1      -534.127          39.250                                                                  
G17  21734022.380 1 114213057.55411       637.579          27.000                                                                  
G19  22053237.492 1 115890604.260 1      1408.790          39.250                                                                  
G30  23640371.742 1                     -2738.650          32.250                                                                  
J 1  37415350.723 1                       -44.400          22.250    37412979.664 1 146816570.009 1       -39.269          30.250  
J 2  35952639.936 1                       133.300          25.250    35950276.972 1 141076611.176 1        98.107          32.250  
J 3  39703197.379 1 208641592.355 1       305.917          33.500    39700857.799 1 155794693.446 1       228.420          34.750  
R 2  21829421.137 1                      2340.550          25.750  
R 3  23696878.124 1 126851243.25411      3477.866          27.500  
R14  20549941.403 1                     -3267.100          24.000  
R15  20080286.838 1 107303016.934 1       534.601          31.000  
R17  21009816.738 1 112427816.707 1      -711.589          34.000  
R18  22355436.684 1 119334924.05411       808.660          28.500  
> 2021  5 21  6 29 23.4322074  0 20                     
E 1  25228344.578 1 132575848.025 1      1679.803          38.750    25226222.348 1  98993109.427 1      1254.934          34.750  
E21  23613969.687 1 124092038.986 1      -907.314          36.750                                                                  
E26  23654041.146 1 124302993.767 1      -271.446          38.250    23651918.915 1  92815209.242 1      -202.260          35.250  
G 2  24247484.214 1                      1809.600          21.250                                                                  
G 3  22226091.895 1 116798886.83211     -1775.658          28.000                                                                  
G 6  21631691.290 1 113675291.50011      1029.727          31.000                                                                  
G 9  25199450.282 1                      1608.050          20.500                                                                  
G14  20181924.043 1 106056814.567 1      -534.935          39.250                                                                  
G17  21733895.036 1 114212419.15211       639.183          29.000                                                                  
G19  22052970.744 1 115889194.679 1      1410.324          39.500                                                                  
G30  23640909.937 1                     -2750.600          31.750                                                                  
J 1  37415406.851 1                       -19.400          23.000    37412989.324 1 146816609.884 1       -40.219          29.500  
J 2  35952610.923 1 188932245.15611       130.326          26.000    35950253.355 1 141076513.660 1        97.305          32.250  
J 3  39703150.079 1 208641286.459 1       306.173          32.500    39700800.306 1 155794465.007 1       228.546          34.500  
R 2  21829009.289 1                      2339.400          26.000  
R 3  23696246.228 1 126847766.25211      3476.496          28.250  
R14  20550540.455 1                     -3268.550          24.250  
R15  20080191.271 1 107302482.413 1       534.673          33.000  
R17  21009940.919 1 112428527.627 1      -710.198          36.000  
R18  22355267.968 1 119334114.90811       809.637          28.500  
> 2021  5 21  6 29 24.4322073  0 20                     
E 1  25227993.649 1 132574013.054 1      1675.896          39.000    25225872.917 1  98991739.167 1      1251.387          34.250  
E21  23614114.015 1 124092791.423 1      -911.454          37.000    23611995.381 1                      -678.200          20.000  
E26  23654063.458 1 124303110.029 1      -275.232          39.000    23651941.227 1  92815296.082 1      -205.884          35.250  
G 3  22226383.420 1                     -1788.300          36.500                                                                  
G 4  25588038.095 1                      1327.150          19.500                                                                  
G 6  21631456.979 1 113674107.420 1      1025.452          32.500                                                                  
G 9  25199204.879 1                      1598.600          23.500                                                                  
G14  20181997.919 1 106057194.821 1      -539.376          40.000                                                                  
G17  21733748.565 1 114211624.81611       634.165          29.500                                                                  
G19  22052672.878 1 115887629.095 1      1406.569          40.750                                                                  
G30  23641455.686 1                     -2730.950          35.500                                                                  
J 1  37415321.537 1                       -47.700          23.500    37412971.165 1 146816534.375 1       -42.849          29.250  
J 2  35952543.298 1 188931960.08011       126.183          27.250    35950198.321 1 141076300.793 1        94.438          31.750  
J 3  39703056.072 1 208640825.131 1       302.539          32.000    39700711.995 1 155794120.525 1       225.849          33.000  
R 2  21828590.007 1                      2335.250          24.000  
R 3  23695585.613 1                      3476.900          26.000  
R14  20551150.660 1 109549196.82411     -3281.510          27.000  
R15  20080052.894 1 107301790.474 1       529.801          33.750  
R17  21010054.667 1 112429079.774 1      -714.176          37.000  
R18  22355093.017 1 119333147.79411       806.631          29.000  
> 2021  5 21  6 29 25.4322073  0 20                     
E 1  25227676.537 1 132572340.777 1      1673.668          38.750    25225554.306 1  98990490.401 1      1249.586          34.500  
E21  23614286.464 1 124093706.027 1      -913.026          37.000    23612169.330 1                      -680.050          22.000  
E26  23654113.592 1 124303388.662 1      -277.233          39.000    23651994.060 1  92815504.175 1      -207.127          36.000  
G 3  22226732.747 1 116802268.76911     -1790.426          33.250                                                                  
G 4  25587790.835 1                      1320.700          21.250                                                                  
G 6  21631269.078 1 113673085.242 1      1023.530          32.750                                                                  
G 9  25198864.384 1                      1597.550          21.500                                                                  
G14  20182097.819 1 106057737.363 1      -540.974          39.500                                                                  
G17  21733629.915 1 114210993.745 1       633.299          29.000                                                                  
G19  22052405.831 1 115886225.988 1      1404.562          40.750                                                                  
G30  23641909.341 1                     -2750.150          31.500                                                                  
J 1  37415318.308 1                       -39.050          23.250    37412982.925 1 146816579.217 1       -43.157          29.000  
J 2  35952515.186 1 188931836.46611       124.501          26.500    35950174.107 1 141076208.429 1        93.834          32.750  
J 3  39703000.379 1 208640525.488 1       301.469          31.500    39700654.803 1 155793896.769 1       225.147          33.500  
R 2  21828117.903 1                      2334.950          23.000  
R 3  23694955.818 1                      3477.700          23.750  
R14  20551760.806 1 109552480.76511     -3282.160          28.000  
R15  20079960.327 1 107301264.420 1       527.226          34.000  
R17  21010198.936 1 112429797.265 1      -715.826          35.250  
R18  22354933.596 1 119332344.52311       803.566          27.500  
> 2021  5 21  6 29 26.4322073  0 21                     
E 1  25227358.011 1 132570664.770 1      1674.154          38.250    25225236.080 1  98989238.788 1      1250.640          34.500  
E21  23614460.497 1 124094616.175 1      -911.863          36.750    23612343.662 1                      -679.150          21.750  
E26  23654166.209 1 124303663.120 1      -276.190          39.000    23652046.676 1  92815709.163 1      -206.333          35.500  
G 2  24246451.778 1                      1810.500          20.250                                                                  
G 3  22227042.886 1                     -1781.500          21.750                                                                  
G 4  25587546.658 1                      1322.150          21.750                                                                  
G 6  21631069.869 1 113672058.37111      1025.081          32.500                                                                  
G 9  25198509.882 1                      1583.400          24.500                                                                  
G14  20182204.398 1 106058275.606 1      -539.738          40.000                                                                  
G17  21733513.449 1 114210357.31111       634.125          26.000                                                                  
G19  22052141.268 1 115884818.735 1      1405.651          41.250                                                                  
G30  23642442.825 1                     -2738.400          34.000                                                                  
J 1  37415358.634 1                       -50.650          26.500    37412992.672 1 146816619.971 1       -41.362          29.750  
J 2  35952507.245 1 188931708.50711       127.915          28.000    35950149.677 1 141076112.126 1        95.647          34.000  
J 3  39702948.069 1 208640220.978 1       303.326          32.000    39700597.096 1 155793669.401 1       226.412          33.250  
R 2  21827701.644 1                      2334.550          26.000  
R 3  23694288.933 1 126837383.15311      3477.328          27.250  
R14  20552356.048 1 109555761.38611     -3282.506          29.500  
R15  20079851.356 1 107300734.736 1       527.781          33.250  
R17  21010330.698 1 112430510.45111      -714.888          30.000  
R18  22354773.660 1                       805.950          26.250  
> 2021  5 21  6 29 27.4322072  0 19                     
E 1  25227010.189 1 132568832.484 1      1673.816          38.750    25224886.759 1  98987870.615 1      1250.335          35.000  
E21  23614603.136 1 124095369.422 1      -911.472          36.250    23612483.303 1                      -684.450          23.000  
E26  23654190.430 1 124303781.070 1      -276.267          38.500    23652068.799 1  92815797.167 1      -205.922          35.250  
G 4  25587256.096 1                      1324.350          22.500                                                                  
G 6  21630848.860 1 113670875.47611      1025.542          29.500                                                                  
G 9  25198244.204 1                      1587.350          23.750                                                                  
G14  20182273.888 1 106058657.260 1      -539.870          40.000                                                                  
G17  21733368.287 1                       625.750          23.750                                                                  
G19  22051843.512 1 115883255.176 1      1405.211          37.500                                                                  
G30  23642965.601 1 124244622.14711     -2737.194          33.750                                                                  
J 1  37415434.119 1 196619432.73011       -38.878          27.500    37412973.722 1 146816543.088 1       -40.993          29.500  
J 2  35952437.930 1 188931422.01511       129.025          28.000    35950096.251 1 141075898.149 1        96.225          33.000  
J 3  39702846.077 1 208639759.03611       303.321          31.500    39700507.995 1 155793324.848 1       226.533          33.000  
R 2  21827236.904 1                      2334.500          23.500  
R 3  23693602.645 1 126833745.07011      3478.016          27.000  
R14  20552957.369 1 109558881.76511     -3281.088          29.000  
R15  20079734.075 1 107300046.506 1       527.047          34.250  
R17  21010469.740 1                      -731.700          21.750  
R18  22354647.385 1                       805.600          25.250  
> 2021  5 21  6 29 28.4322072  0 17                     
E 1  25226688.556 1 132567159.429 1      1672.847          38.250    25224568.424 1  98986621.250 1      1249.264          36.250  
E21  23614773.761 1 124096281.285 1      -911.828          36.750    23612659.325 1                      -675.950          22.250  
E26  23654245.636 1 124304057.839 1      -276.910          38.500    23652121.906 1  92816003.903 1      -206.680          34.500  
G 6  21630665.731 1 113669849.94411      1025.233          29.250                                                                  
G 9  25197963.342 1                      1591.750          24.000                                                                  
G14  20182377.960 1 106059197.930 1      -540.826          39.500                                                                  
G17  21733236.423 1                       630.850          24.500                                                                  
G19  22051574.942 1 115881850.790 1      1404.410          33.500                                                                  
G30  23643464.799 1                     -2742.700          32.500                                                                  
J 1  37415337.030 1                       -50.450          25.000    37412985.159 1 146816584.322 1       -41.158          26.250  
J 2  35952420.586 1 188931291.70411       136.017          29.000    35950070.813 1 141075802.150 1        96.430          30.500  
J 3  39702789.760 1 208639456.806 1       301.830          31.250    39700451.079 1 155793099.082 1       225.368          33.250  
R 3  23692957.236 1 126830265.51111      3479.361          28.750  
R14  20553558.797 1                     -3271.350          29.250  
R15  20079632.489 1 107299520.306 1       526.245          35.500  
R17  21010638.267 1                      -729.800          21.000  
R18  22354465.455 1                       804.800          25.250  
> 2021  5 21  6 29 29.4322071  0 17                     
E 1  25226341.092 1 132565329.543 1      1672.100          36.500    25224219.761 1  98985254.706 1      1248.804          36.500  
E21  23614920.655 1 124097035.428 1      -911.325          35.500    23612797.825 1                      -678.950          22.250  
E26  23654264.818 1 124304177.275 1      -276.955          35.250    23652144.086 1  92816093.056 1      -206.549          33.500  
G 6  21630430.989 1 113668667.25411      1026.864          35.500                                                                  
G 9  25197616.478 1                      1607.550          21.750                                                                  
G14  20182456.501 1 106059581.744 1      -541.418          39.000                                                                  
G17  21733085.922 1 114208136.89111       629.042          26.000                                                                  
G19  22051271.847 1 115880289.645 1      1403.073          30.000                                                                  
G30  23643987.033 1 124249990.14211     -2725.692          34.750                                                                  
J 1  37415285.162 1                       -56.900          22.500    37412965.967 1                       -45.050          27.500  
J 2  35952366.019 1 188930994.97711       137.899          29.000    35950015.347 1 141075587.89411        97.188          29.500  
J 3  39702706.713 1 208639000.03011       298.089          30.750    39700364.134 1 155792756.982 1       223.572          34.750  
R 2  21826259.320 1                      2335.900          19.750  
R 3  23692258.415 1                      3484.950          26.250  
R14  20554160.176 1 109565239.65611     -3267.591          30.500  
R15  20079511.968 1 107298834.292 1       526.135          34.250  
R18  22354306.260 1                       807.300          23.750  
> 2021  5 21  6 29 30.4322071  0 16                     
E 1  25226024.970 1 132563658.231 1      1671.784          35.500    25223902.439 1  98984006.608 1      1248.369          37.250  
E21  23615095.293 1 124097946.426 1      -909.291          33.500    23612968.865 1  92662360.90411      -678.792          24.250  
E26  23654322.237 1                      -275.850          25.500    23652197.008 1  92816300.305 1      -206.530          33.250  
G 6  21630237.782 1 113667639.544 1      1029.736          35.000                                                                  
G 9  25197251.789 1                      1576.300          22.500                                                                  
G14  20182555.891 1 106060123.886 1      -541.187          39.000                                                                  
G17  21733002.739 1                       623.400          22.750                                                                  
G19  22051016.882 1 115878887.661 1      1401.993          33.000                                                                  
G30  23644505.533 1 124252719.51511     -2731.425          33.250                                                                  
J 1  37415276.327 1                       -49.400          21.500    37412977.518 1 146816550.71911       -41.259          24.000  
J 2  35952345.793 1 188930859.54511       135.348          27.000    35949990.023 1 141075490.26511        99.412          28.750  
J 3  39702666.400 1 208638702.50611       296.730          27.500    39700308.532 1 155792535.11111       220.903          29.500  
R 3  23691591.536 1                      3487.500          26.250  
R14  20554796.494 1 109568506.21711     -3262.164          27.500  
R15  20079402.103 1 107298308.619 1       526.682          34.750  
R18  22354103.460 1                       802.700          21.250  
> 2021  5 21  6 29 31.4322071  0 14                     
E 1  25225706.032 1 132561987.119 1      1670.416          32.250    25223583.801 1  98982758.861 1      1247.606          34.000  
E21  23615263.518 1 124098854.823 1      -907.590          33.500    23613143.386 1  92663039.182 1      -677.341          29.500  
E26  23654373.842 1 124304444.38911      -280.021          30.250    23652248.913 1  92816507.198 1      -206.556          33.500  
G 6  21630027.368 1 113666608.691 1      1032.224          34.500                                                                  
G 9  25196955.335 1 132410893.13111      1567.080          29.500                                                                  
G14  20182658.461 1 106060664.752 1      -540.264          37.000                                                                  
G19  22050742.313 1 115877486.916 1      1399.443          39.750                                                                  
G30  23645009.825 1 124255455.72711     -2737.795          35.000                                                                  
J 1  37415339.024 1 196618932.78011       -55.138          25.750                                                                  
J 2  35952318.852 1 188930724.26911       137.012          32.250    35949966.681 1 141075389.782 1       102.267          29.000  
J 3  39702590.593 1 208638407.39411       296.244          28.250                                                                  
R 3  23690965.610 1 126819593.25911      3492.157          31.000  
R14  20555379.931 1 109571769.84511     -3267.035          32.750  
R15  20079285.525 1 107297781.863 1       526.825          31.750  
> 2021  5 21  6 29 32.4322070  0 16                     
E 1  25225357.463 1 132560159.867 1      1666.577          31.500    25223235.232 1  98981394.376 1      1244.646          35.000  
E21  23615406.009 1 124099602.66411      -906.022          31.500    23613284.977 1  92663597.494 1      -676.191          27.500  
E26  23654387.123 1                      -281.500          23.000    23652272.087 1  92816596.735 1      -208.772          36.000  
G 6  21629807.111 1 113665417.486 1      1032.894          38.500                                                                  
G 9  25196629.251 1 132409164.683 1      1572.543          32.500                                                                  
G14  20182732.899 1 106061046.389 1      -540.073          38.500                                                                  
G19  22050448.007 1 115875931.135 1      1395.185          40.750                                                                  
G30  23645514.166 1                     -2732.650          30.000                                                                  
J 1  37415304.338 1 196618826.45411       -52.297          26.750                                                                  
J 2  35952257.484 1 188930427.45011       138.116          27.750    35949912.508 1 141075167.497 1       105.443          26.750  
J 3  39702500.146 1                       294.350          24.500    39700168.660 1                       216.350          22.750  
R 2  21824950.116 1                      2330.650          20.750  
R 3  23690295.964 1 126815936.64311      3498.632          28.000  
R14  20555947.828 1 109574875.753 1     -3264.150          35.750  
R15  20079170.494 1                       524.900          24.750  
R18  22353772.320 1                       808.000          21.250  
> 2021  5 21  6 29 33.4322070  0 19                     
E 1  25225042.441 1 132558494.299 1      1665.444          39.250    25222919.311 1  98980150.483 1      1244.021          35.500  
E21  23615580.548 1                      -901.350          25.250    23613459.516 1  92664272.949 1      -673.645          27.000  
E26  23654445.642 1 124304787.55911      -279.802          32.000    23652325.510 1  92816806.055 1      -209.011          35.750  
G 6  21629612.905 1 113664384.416 1      1034.295          38.000                                                                  
G 9  25196328.919 1 132407588.945 1      1579.300          31.000                                                                  
G14  20182833.989 1 106061585.750 1      -537.777          37.750                                                                  
G17  21732625.191 1                       628.550          17.500                                                                  
G19  22050182.451 1 115874537.572 1      1393.063          38.250                                                                  
G22  24752027.802 1                     -3075.000          18.750                                                                  
G30  23646000.489 1 124260571.12211     -2725.521          36.250                                                                  
J 1  37415333.178 1 196618876.38811       -45.668          29.250    37412976.510 1                       -37.200          21.500  
J 2  35952242.555 1 188930286.79311       145.967          29.750    35949884.687 1                       107.250          27.750  
J 3  39702440.247 1 208637731.62211       292.690          29.500    39700110.260 1                       217.250          28.500  
R 1  23140604.367 1                     -1047.950          20.500  
R 3  23689734.213 1                      3514.400          24.500  
R14  20556551.970 1 109578136.97011     -3258.538          32.500  
R15  20079086.912 1 107296552.39711       524.703          27.250  
R17  21011281.667 1                      -729.800          17.000  
R18  22353629.079 1                       806.000          25.250  
> 2021  5 21  6 29 34.4322070  0 19                     
E 1  25224722.571 1 132556830.59111      1660.880          35.000    25222603.339 1  98978908.227 1      1240.149          34.000  
E21  23615754.737 1                      -904.850          23.250    23613630.407 1  92664946.484 1      -674.276          29.250  
E26  23654505.010 1                      -281.750          26.000    23652379.182 1  92817016.165 1      -212.165          33.750  
G 6  21629411.753 1 113663350.437 1      1032.006          34.000                                                                  
G 9  25196057.316 1                      1590.750          23.750                                                                  
G14  20182939.225 1 106062123.557 1      -538.961          35.750                                                                  
G17  21732549.652 1 114205319.01911       636.020          26.500                                                                  
G19  22049920.741 1 115873146.533 1      1387.824          38.000                                                                  
G30  23646533.529 1 124263293.40011     -2721.290          34.000                                                                  
J 1  37415339.483 1 196618921.41811       -44.794          29.000                                                                  
J 2  35952196.995 1 188930137.882 1       148.952          36.500    35949855.616 1 141074955.06211       111.524          27.500  
J 3  39702406.080 1 208637440.074 1       289.485          32.750    39700055.407 1 155791544.51011       216.376          32.250  
R 1  23140801.340 1 123700845.03611     -1051.772          26.750  
R 2  21824102.072 1                      2341.700          22.000  
R 3  23689020.116 1                      3526.350          25.500  
R14  20557199.231 1 109581394.59311     -3256.435          29.750  
R15  20079008.375 1                       517.150          23.000  
R17  21011318.251 1 112435807.94811      -738.791          33.500  
R18  22353524.760 1                       802.450          24.500  
> 2021  5 21  6 29 35.4322069  0 20                     
E 1  25224380.370 1 132555015.84411      1654.664          31.250    25222257.840 1  98977553.092 1      1234.811          35.000  
E21  23615892.204 1 124102187.81611      -906.663          33.250    23613772.971 1  92665504.117 1      -676.032          27.500  
E26  23654525.259 1 124305251.79911      -289.849          35.000    23652404.227 1  92817112.719 1      -216.068          35.750  
G 4  25585172.199 1                      1325.950          22.000                                                                  
G 6  21629200.262 1 113662163.33611      1026.461          28.500                                                                  
G 9  25195739.698 1                      1599.950          23.500                                                                  
G14  20183012.537 1 106062506.319 1      -541.825          36.000                                                                  
G17  21732378.333 1                       622.650          29.000                                                                  
G19  22049623.509 1 115871604.842 1      1381.038          41.500                                                                  
G22  24753175.579 1                     -3084.700          22.500                                                                  
G30  23646995.371 1 124265856.843 1     -2721.440          35.000                                                                  
J 1  37415310.265 1                       -43.500          23.000                                                                  
J 2  35952145.293 1 188929830.954 1       149.381          36.500    35949796.419 1                       111.300          26.500  
J 3  39702310.908 1 208636994.806 1       285.814          33.500    39699970.428 1 155791211.792 1       213.702          31.500  
R 1  23141090.502 1                     -1056.400          23.500  
R 2  21823664.537 1                      2342.500          23.000  
R 3  23688281.889 1                      3525.300          26.250  
R14  20557756.407 1 109584490.90111     -3257.734          32.000  
R15  20078841.553 1 107295241.02111       515.893          29.500  
R17  21011420.042 1 112436390.16611      -746.160          38.500  
> 2021  5 21  6 29 36.4322069  0 20                     
E 1  25224065.887 1 132553363.34811      1651.858          33.750    25221943.357 1  98976318.980 1      1233.806          38.750  
E13  25345706.677 1                     -1710.500          21.250                                                                  
E21  23616068.181 1 124103093.76811      -905.746          31.750    23613946.550 1  92666180.442 1      -676.322          24.250  
E26  23654578.921 1 124305542.259 1      -290.804          36.250    23652459.088 1  92817329.635 1      -217.098          34.000  
G 1  24284408.399 1                     -3194.900          19.500                                                                  
G 6  21628995.803 1 113661135.94511      1027.674          30.250                                                                  
G 9  25195493.867 1                      1601.900          24.000                                                                  
G14  20183114.166 1 106063048.475 1      -542.187          35.750                                                                  
G17  21732251.820 1 114203753.22611       618.827          28.500                                                                  
G19  22049362.389 1 115870225.259 1      1379.199          42.500                                                                  
G22  24753750.280 1 130081834.81711     -3083.152          26.000                                                                  
G30  23647514.311 1 124268577.41611     -2720.254          30.500                                                                  
J 1  37415307.267 1                       -36.550          24.500                                                                  
J 2  35952113.215 1 188929681.512 1       150.302          35.750    35949767.938 1 141074610.76311       112.180          30.000  
J 3  39702263.240 1 208636709.129 1       285.734          30.000    39699915.565 1 155790998.506 1       213.308          33.250  
R 1  23141208.620 1 123703021.93711     -1058.796          26.500  
R 3  23687659.819 1                      3526.600          25.500  
R14  20558388.369 1 109587748.420 1     -3257.326          33.250  
R15  20078762.707 1 107294727.67111       513.220          29.250  
R17  21011556.747 1 112437137.384 1      -747.552          35.000  
> 2021  5 21  6 29 37.4322069  0 19                     
E 1  25223752.785 1 132551713.405 1      1652.440          36.750    25221629.355 1  98975086.914 1      1234.437          38.500  
E21  23616241.042 1 124104001.44211      -904.859          32.000    23614119.411 1  92666858.301 1      -675.393          23.250  
E26  23654638.161 1 124305835.311 1      -290.404          34.500    23652514.731 1  92817548.458 1      -216.353          32.500  
G 6  21628798.121 1 113660111.19811      1027.695          30.000                                                                  
G 9  25195142.392 1 132401366.00411      1605.403          28.500                                                                  
G14  20183212.679 1 106063592.954 1      -541.770          34.500                                                                  
G17  21732174.355 1                       632.100          28.500                                                                  
G19  22049099.652 1 115868848.297 1      1379.808          42.250                                                                  
G22  24754319.767 1                     -3088.150          22.500                                                                  
G30  23648041.228 1 124271298.86211     -2718.092          27.500                                                                  
J 1  37415335.029 1                       -39.750          25.500    37412977.461 1                       -33.550          17.500  
J 2  35952080.119 1 188929533.028 1       151.336          36.750    35949740.838 1 141074500.008 1       113.005          29.500  
J 3  39702205.861 1 208636425.576 1       286.435          32.500    39699862.683 1 155790786.779 1       213.744          31.750  
R 1  23141420.154 1                     -1057.500          24.000  
R 3  23686995.660 1 126798341.52311      3526.936          27.000  
R14  20558966.849 1 109591007.875 1     -3256.465          33.250  
R15  20078661.558 1                       513.150          25.250  
R17  21011705.625 1 112437887.187 1      -746.917          34.500  
R24  22912653.926 1                     -1942.650          16.750  
> 2021  5 21  6 29 38.4322068  0 21                     
E 1  25223405.033 1 132549902.250 1      1656.056          35.500    25221284.002 1  98973734.465 1      1237.048          37.250  
E21  23616380.753 1 124104747.931 1      -901.757          30.250    23614257.023 1                      -671.200          23.000  
E26  23654665.449 1 124305966.724 1      -286.509          33.250    23652539.621 1  92817646.633 1      -213.373          31.750  
G 6  21628570.585 1 113658925.154 1      1031.004          31.250                                                                  
G 9  25194812.328 1 132399601.95811      1606.126          27.000                                                                  
G14  20183289.732 1 106063976.293 1      -538.140          33.750                                                                  
G17  21732010.975 1 114202487.96511       637.334          29.250                                                                  
G19  22048804.663 1 115867309.796 1      1383.849          41.500                                                                  
G22  24754878.288 1                     -3078.550          24.750                                                                  
G30  23648558.377 1                     -2718.400          24.250                                                                  
J 1  37415320.346 1                       -30.450          24.250                                                                  
J 2  35952028.562 1 188929222.815 1       155.463          36.750    35949679.388 1 141074268.302 1       116.094          28.500  
J 3  39702126.723 1 208635980.257 1       291.175          32.750    39699777.249 1 155790454.249 1       217.426          31.000  
R 1  23141573.655 1                     -1054.400          25.500  
R 2  21822313.260 1                      2350.500          19.000  
R 3  23686306.744 1                      3516.300          25.500  
R14  20559564.343 1 109594103.620 1     -3252.991          33.000  
R15  20078553.040 1                       513.300          22.000  
R17  21011812.058 1 112438472.602 1      -742.623          33.250  
R18  22352918.630 1                       784.400          17.500  
R24  22912877.578 1                     -1931.850          24.000  
> 2021  5 21  6 29 39.4322068  0 20                     
E 1  25223091.755 1 132548244.014 1      1658.545          36.250    25220968.925 1  98972496.128 1      1238.524          38.000  
E13  25346641.923 1                     -1704.350          20.000                                                                  
E21  23616554.338 1 124105647.379 1      -899.542          31.250    23614429.409 1                      -671.850          22.500  
E26  23654718.817 1 124306250.893 1      -284.003          32.250    23652594.488 1  92817858.782 1      -211.806          32.000  
G 6  21628371.828 1 113657892.522 1      1032.298          31.250                                                                  
G 9  25194489.756 1 132397997.43111      1604.850          29.000                                                                  
G14  20183387.770 1 106064512.378 1      -535.928          33.750                                                                  
G17  21731872.176 1 114201849.94311       638.218          30.000                                                                  
G19  22048542.350 1 115865923.576 1      1386.580          41.500                                                                  
G22  24755444.301 1                     -3078.700          24.500                                                                  
G30  23649069.828 1                     -2720.450          24.750                                                                  
J 1  37415331.144 1 196618891.68211       -29.620          26.500    37412968.779 1                       -24.400          20.500  
J 2  35951998.288 1 188929064.47711       158.139          36.500    35949650.313 1 141074150.445 1       118.029          30.250  
J 3  39702061.673 1 208635686.277 1       295.018          34.000    39699721.793 1 155790234.722 1       220.343          31.000  
R 1  23141719.659 1                     -1052.250          26.000  
R 3  23685701.169 1                      3526.000          26.000  
R14  20560172.327 1 109597354.937 1     -3251.490          32.000  
R15  20078532.360 1                       512.200          21.500  
R17  21011954.765 1 112439212.68411      -739.311          33.000  
R24  22913219.047 1                     -1929.850          24.250  
> 2021  5 21  6 29 40.4322068  0 17                     
E 1  25222773.994 1 132546588.419 1      1653.571          35.000    25220653.262 1  98971259.774 1      1234.522          37.500  
E21  23616725.238 1 124106549.239 1      -903.888          29.500    23614599.710 1  92668760.90811      -675.174          24.500  
E26  23654765.603 1 124306537.30211      -288.447          30.750    23652648.169 1  92818072.719 1      -215.490          32.250  
G 6  21628183.877 1 113656863.119 1      1026.866          31.750                                                                  
G 9  25194188.183 1                      1598.800          24.500                                                                  
G14  20183494.215 1 106065051.001 1      -540.794          32.500                                                                  
G17  21731758.873 1 114201213.69711       633.094          30.750                                                                  
G19  22048278.851 1 115864539.445 1      1382.225          40.250                                                                  
G22  24756040.607 1                     -3084.850          21.750                                                                  
G30  23649578.594 1 124279373.47311     -2718.204          26.500                                                                  
J 1  37415303.581 1                       -34.750          24.250    37412964.600 1                       -26.700          22.000  
J 2  35951969.826 1 188928908.81411       154.389          34.750    35949620.952 1 141074034.185 1       114.782          30.750  
J 3  39702012.226 1 208635393.340 1       291.379          33.250    39699665.450 1 155790015.982 1       217.523          31.750  
R 3  23685121.089 1                      3519.550          23.750  
R14  20560792.616 1 109600609.470 1     -3256.977          31.500  
R17  21012084.593 1 112439954.52211      -743.831          32.250  
R24  22913572.521 1                     -1940.150          21.750  
> 2021  5 21  6 29 41.4322067  0 20                     
E 1  25222430.216 1 132544777.323 1      1651.759          36.000    25220309.185 1  98969907.338 1      1233.698          36.500  
E21  23616865.626 1 124107296.112 1      -906.247          31.000    23614743.095 1  92669318.667 1      -676.567          24.000  
E26  23654796.866 1 124306668.07811      -289.323          29.750    23652674.036 1  92818170.496 1      -216.517          32.500  
G 1  24287326.575 1                     -3197.450          20.000                                                                  
G 3  22232145.248 1                     -1786.350          21.750                                                                  
G 6  21627953.421 1 113655679.024 1      1024.543          34.500                                                                  
G 9  25193864.192 1                      1596.800          25.250                                                                  
G14  20183565.950 1 106065434.225 1      -542.368          35.250                                                                  
G17  21731602.466 1 114200423.73011       630.171          32.750                                                                  
G19  22047988.137 1 115862999.334 1      1381.103          41.750                                                                  
G22  24756583.016 1                     -3094.850          23.250                                                                  
G30  23650058.946 1                     -2727.000          24.750                                                                  
J 1  37415297.970 1                       -31.450          22.750    37412943.400 1                       -24.450          23.000  
J 2  35951909.053 1 188928596.92411       152.488          35.500    35949561.078 1 141073801.635 1       113.754          29.500  
J 3  39701922.073 1 208634943.574 1       291.377          33.500    39699579.195 1 155789680.110 1       217.616          30.750  
R 1  23142153.562 1                     -1065.650          23.750  
R 3  23684327.922 1                      3508.600          24.750  
R14  20561349.116 1 109603706.92711     -3259.265          32.000  
R17  21012180.312 1 112440536.53511      -743.748          31.000  
R24  22913875.695 1                     -1936.600          24.500  
> 2021  5 21  6 29 42.4322067  0 22                     
E 1  25222118.369 1 132543126.651 1      1648.958          36.500    25219995.239 1  98968674.672 1      1231.318          36.750  
E13  25347586.909 1                     -1714.350          20.500                                                                  
E21  23617038.243 1                      -908.800          28.250    23614918.710 1  92669995.824 1      -678.328          23.250  
E26  23654849.567 1 124306959.16811      -292.636          29.500    23652728.835 1  92818387.760 1      -218.366          32.250  
G 1  24287900.614 1                     -3210.800          23.250                                                                  
G 2  24240798.722 1                      1784.700          20.250                                                                  
G 3  22232426.989 1                     -1812.850          26.500                                                                  
G 6  21627760.291 1 113654655.778 1      1021.481          34.000                                                                  
G 9  25193600.611 1                      1598.850          23.500                                                                  
G14  20183670.814 1 106065977.537 1      -544.949          34.750                                                                  
G17  21731483.685 1 114199801.22611       614.171          33.000                                                                  
G19  22047728.453 1 115861619.028 1      1378.736          40.750                                                                  
G22  24757194.529 1 130099934.94411     -3090.374          26.000                                                                  
G30  23650612.300 1                     -2726.900          25.250                                                                  
J 1  37415328.185 1                       -35.800          20.500    37412951.731 1 146816458.01711       -28.242          24.500  
J 2  35951884.107 1 188928442.98411       152.786          34.000    35949533.134 1 141073688.276 1       112.329          30.500  
J 3  39701866.548 1 208634652.413 1       289.920          35.000    39699523.970 1 155789462.641 1       216.454          30.750  
R 1  23142295.001 1                     -1069.150          25.000  
R 3  23683686.303 1                      3521.950          26.250  
R14  20561966.325 1 109606967.33811     -3262.123          31.000  
R17  21012320.252 1 112441281.93911      -746.639          30.750  
R24  22914276.155 1                     -1939.750          23.000  
> 2021  5 21  6 29 43.4322067  0 21                     
E 1  25221801.762 1 132541478.081 1      1648.535          38.750    25219680.430 1  98967443.623 1      1231.228          36.000  
E13  25347928.646 1                     -1708.050          24.000                                                                  
E21  23617214.794 1 124109300.98911      -908.758          30.000    23615088.666 1  92670674.684 1      -678.453          24.250  
E26  23654903.802 1                      -291.750          27.000    23652784.869 1  92818606.495 1      -218.410          31.750  
G 1  24288540.345 1 127637140.46511     -3203.838          26.500                                                                  
G 2  24240451.836 1                      1779.050          25.500                                                                  
G 3  22232750.739 1 116833893.36011     -1818.883          30.250                                                                  
G 6  21627565.100 1 113653634.600 1      1021.653          35.500                                                                  
G 9  25193274.710 1                      1603.250          24.000                                                                  
G14  20183779.012 1 106066522.979 1      -545.439          35.250                                                                  
G17  21731361.643 1 114199184.01911       627.324          34.500                                                                  
G19  22047460.113 1 115860240.676 1      1378.514          41.500                                                                  
G22  24757766.207 1 130103025.970 1     -3092.037          29.750                                                                  
G30  23651078.151 1 124287254.45811     -2721.301          28.000                                                                  
J 1  37415303.876 1                       -34.650          24.250    37412957.400 1                       -29.150          25.500  
J 2  35951853.501 1 188928291.21211       152.403          34.500    35949506.126 1 141073576.033 1       112.318          31.250  
J 3  39701810.460 1 208634362.899 1       289.482          36.500    39699469.081 1 155789246.433 1       216.197          31.000  
R 3  23682970.972 1 126776797.22111      3518.258          26.750  
R14  20562602.158 1 109610229.709 1     -3261.929          33.500  
R17  21012478.216 1 112442028.39411      -746.985          31.500  
R24  22914636.179 1                     -1940.750          23.000  
> 2021  5 21  6 29 44.4322066  0 19                     
E 1  25221460.388 1 132539670.203 1      1649.609          39.000    25219337.258 1  98966093.544 1      1232.187          35.500  
E13  25348207.542 1                     -1715.900          25.500                                                                  
E21  23617348.891 1 124110050.68711      -908.308          29.000    23615232.056 1  92671234.359 1      -678.022          24.500  
E26  23654929.375 1 124307493.35511      -291.352          31.500    23652809.542 1  92818706.036 1      -217.830          30.500  
G 3  22233051.820 1 116835553.47111     -1819.320          27.500                                                                  
G 6  21627334.649 1 113652453.395 1      1023.303          33.500                                                                  
G 9  25192922.844 1                      1591.900          27.000                                                                  
G14  20183847.155 1 106066909.695 1      -545.379          33.750                                                                  
G17  21731221.130 1 114198396.70211       620.653          35.000                                                                  
G19  22047167.005 1 115858702.807 1      1379.814          41.000                                                                  
G22  24758330.806 1                     -3085.600          23.000                                                                  
G30  23651572.898 1 124289816.51311     -2720.050          27.500                                                                  
J 1  37415290.175 1                       -29.000          23.500                                                                  
J 2  35951791.234 1 188927979.53511       153.712          35.250    35949451.654 1 141073344.785 1       112.959          31.000  
J 3  39701727.507 1 208633914.704 1       289.460          36.250    39699383.430 1 155788911.748 1       216.166          30.250  
R14  20563143.673 1 109613330.199 1     -3260.919          31.500  
R15  20077865.724 1                       501.750          19.000  
R17  21012573.040 1 112442613.74211      -746.161          33.500  
R24  22915014.007 1 122536877.91511     -1942.530          28.250  
> 2021  5 21  6 29 45.4322066  0 22                     
E 1  25221143.478 1 132538021.652 1      1650.386          34.500    25219023.645 1  98964862.554 1      1232.269          37.500  
E13  25348538.484 1                     -1720.650          24.500                                                                  
E21  23617527.238 1 124110960.37111      -908.737          30.000    23615404.108 1  92671913.760 1      -678.504          26.500  
E26  23654982.708 1 124307785.865 1      -290.579          33.250    23652865.574 1  92818924.496 1      -217.330          31.750  
G 1  24289682.015 1                     -3201.000          20.000                                                                  
G 3  22233479.894 1                     -1786.950          23.750                                                                  
G 6  21627148.449 1 113651431.12311      1024.617          26.750                                                                  
G 9  25192602.636 1                      1583.250          21.500                                                                  
G14  20183954.151 1 106067457.104 1      -546.707          33.000                                                                  
G17  21731091.291 1                       628.200          34.000                                                                  
G19  22046908.255 1 115857324.330 1      1380.359          41.000                                                                  
G30  23652086.113 1                     -2726.200          24.250                                                                  
J 1  37415285.649 1                       -36.500          22.750                                                                  
J 2  35951763.924 1 188927827.57711       153.754          35.250    35949425.543 1 141073233.24111       112.079          31.500  
J 3  39701669.918 1 208633627.51511       287.754          31.500    39699329.138 1 155788697.317 1       214.846          31.000  
R 1  23142902.714 1                     -1063.650          19.750  
R 3  23681743.382 1                      3508.100          20.500  
R14  20563783.401 1 109616592.566 1     -3261.163          34.750  
R15  20077880.684 1                       504.850          24.250  
R17  21012740.594 1 112443355.22211      -736.995          37.750  
R18  22351744.721 1                       793.150          19.500  
R24  22915378.825 1 122538819.30311     -1938.602          27.750  
> 2021  5 21  6 29 46.4322066  0 21                     
E 1  25220835.605 1 132536368.80711      1652.536          29.000    25218710.076 1  98963628.296 1      1234.278          38.500  
E13  25348808.311 1                     -1742.700          26.500    25346682.483 1  99465825.63811     -1303.578          33.000  
E21  23617701.731 1 124111867.578 1      -908.865          32.500    23615576.803 1  92672591.133 1      -678.230          26.000  
E26  23655043.280 1 124308074.370 1      -288.780          33.500    23652920.750 1  92819139.801 1      -215.468          35.500  
G 3  22233750.321 1                     -1819.250          25.500                                                                  
G 9  25192272.579 1                      1593.250          21.750                                                                  
G14  20184052.797 1 106068002.721 1      -547.330          33.750                                                                  
G17  21730969.589 1                       619.900          35.000                                                                  
G19  22046643.253 1 115855941.434 1      1382.905          40.500                                                                  
G22  24759448.716 1                     -3085.300          21.250                                                                  
G30  23652618.259 1                     -2727.000          23.500                                                                  
J 1  37415295.256 1                       -40.750          24.000    37412955.376 1                       -28.250          19.500  
J 2  35951731.260 1 188927675.42011       148.958          34.750    35949393.479 1 141073119.62911       113.870          29.750  
J 3  39701621.665 1 208633339.49111       286.385          30.250    39699274.890 1 155788481.768 1       214.272          34.250  
R 2  21818812.976 1                      2345.450          16.250  
R 3  23681122.826 1                      3515.300          21.750  
R14  20564380.302 1 109619852.397 1     -3261.290          34.750  
R15  20077715.813 1 107289225.69011       507.822          29.500  
R17  21012879.113 1                      -726.800          43.000  
R18  22351591.841 1 119314314.21911       798.680          32.250  
R24  22915705.313 1 122540754.79811     -1935.761          27.250  
> 2021  5 21  6 29 47.4322065  0 20                     
E 1  25220490.297 1                      1655.050          27.500    25218364.169 1  98962275.471 1      1236.162          36.500  
E13  25349107.257 1 133210457.81311     -1745.692          31.750    25346985.626 1  99467011.478 1     -1302.858          33.500  
E21  23617846.884 1 124112619.227 1      -909.996          30.500    23615720.156 1  92673152.510 1      -679.003          30.750  
E26  23655063.719 1 124308204.349 1      -286.732          30.500    23652945.685 1  92819236.973 1      -214.044          38.000  
G 3  22234054.963 1                     -1821.600          25.000                                                                  
G 9  25191914.979 1                      1580.350          24.000                                                                  
G14  20184129.897 1 106068393.487 1      -549.246          32.750                                                                  
G17  21730812.850 1 114196191.39511       610.778          39.500                                                                  
G19  22046348.909 1 115854399.562 1      1386.012          37.750                                                                  
G22  24760055.849 1                     -3082.750          21.750                                                                  
J 1  37415294.110 1                       -42.000          22.750    37412934.443 1                       -39.000          23.000  
J 2  35951674.952 1                       149.450          34.000    35949340.169 1 141072889.29611       107.631          31.000  
J 3  39701531.181 1 208632895.548 1       286.261          32.250    39699190.401 1 155788150.338 1       213.646          33.500  
R 2  21818256.614 1                      2330.350          24.000  
R 3  23680495.113 1                      3518.950          23.000  
R14  20564949.960 1 109622955.29711     -3264.379          32.000  
R15  20077598.947 1 107288556.20311       509.154          29.000  
R17  21012988.290 1                      -726.900          41.750  
R18  22351413.218 1 119313353.37211       801.678          29.000  
R24  22916010.555 1                     -1935.450          25.000  
> 2021  5 21  6 29 48.4322065  0 18                     
E 1  25220172.615 1 132532902.07611      1657.983          32.500    25218049.185 1  98961038.795 1      1238.055          36.500  
E13  25349444.922 1 133212202.38111     -1742.865          29.500    25347316.695 1  99468314.31411     -1301.854          31.000  
E21  23618011.269 1                      -910.300          26.500    23615894.434 1  92673833.378 1      -681.025          32.000  
E26  23655123.177 1                      -285.850          24.250    23652999.747 1  92819450.571 1      -212.415          35.500  
G 1  24291521.707 1                     -3194.000          21.750                                                                  
G 3  22234412.714 1                     -1821.450          21.250                                                                  
G14  20184235.822 1 106068944.216 1      -550.781          33.500                                                                  
G17  21730694.531 1 114195579.39211       622.177          39.000                                                                  
G19  22046087.589 1 115853012.24111      1389.809          36.500                                                                  
G22  24760644.140 1                     -3078.650          22.500                                                                  
J 1  37415290.311 1 196618676.94811       -52.732          26.250                                                                  
J 2  35951649.868 1 188927195.10311       146.274          34.500    35949309.089 1 141072779.06611       116.031          30.500  
J 3  39701486.910 1 208632610.27711       287.416          32.000    39699136.238 1 155787937.003 1       214.409          36.250  
R14  20565606.305 1 109626221.39111     -3267.412          30.750  
R15  20077505.210 1                       508.450          22.500  
R17  21013115.500 1                      -731.400          41.500  
R18  22351258.323 1                       801.550          24.750  
R24  22916433.361 1                     -1934.450          24.500  
> 2021  5 21  6 29 49.4322064  0 18                     
E 1  25219825.165 1 132531084.877 1      1661.104          37.500    25217703.534 1  98959681.710 1      1240.417          36.500  
E13  25349746.822 1 133213783.48411     -1736.899          31.500    25347618.296 1  99469496.519 1     -1298.346          30.750  
E21  23618156.377 1                      -913.900          25.250    23616038.044 1  92674397.307 1      -681.808          30.500  
E26  23655144.771 1 124308497.62711      -282.008          30.500    23653023.140 1  92819544.341 1      -210.204          36.500  
G 3  22234729.904 1 116844293.55611     -1825.971          30.750                                                                  
G 9  25191328.093 1                      1573.950          22.250                                                                  
G14  20184316.775 1 106069338.110 1      -551.831          34.500                                                                  
G17  21730546.742 1                       618.550          39.000                                                                  
G19  22045789.005 1 115851462.63911      1394.955          37.000                                                                  
J 1  37415266.637 1 196618572.66611       -55.329          28.250    37412921.360 1                       -40.000          23.000  
J 2  35951585.422 1                       138.500          30.500    35949249.140 1 141072545.68111       106.524          26.750  
J 3  39701394.284 1 208632164.314 1       289.708          33.750    39699051.705 1 155787604.098 1       216.234          36.500  
R 2  21817322.869 1                      2329.950          20.000  
R 3  23679210.311 1                      3516.650          19.000  
R14  20566180.117 1 109629331.56211     -3270.853          30.250  
R15  20077358.920 1 107287317.94311       511.193          32.250  
R17  21013223.135 1                      -728.350          41.500  
R24  22916686.395 1                     -1926.200          25.250  
> 2021  5 21  6 29 50.4322064  0 20                     
E 1  25219508.276 1 132529423.61911      1664.629          30.750    25217386.945 1  98958441.201 1      1243.044          36.000  
E13  25350072.688 1 133215520.804 1     -1733.170          35.000    25347951.956 1  99470793.840 1     -1294.204          28.250  
E21  23618337.443 1                      -916.350          23.750    23616211.615 1  92675081.74111      -683.820          27.000  
E26  23655199.325 1                      -285.150          25.000    23653076.794 1  92819755.182 1      -208.589          36.500  
G 3  22235080.952 1 116846118.85411     -1820.550          34.000                                                                  
G 6  21626118.228 1                      1028.100          18.250                                                                  
G 9  25191012.103 1                      1572.650          22.250                                                                  
G14  20184415.998 1 106069892.547 1      -553.130          36.750                                                                  
G17  21730432.213 1 114194191.95611       622.319          38.000                                                                  
G19  22045527.877 1 115850067.164 1      1398.983          39.000                                                                  
G30  23654787.709 1                     -2738.550          20.500                                                                  
J 1  37415268.427 1                       -53.650          25.500    37412933.943 1                       -48.600          23.500  
J 2  35951604.001 1                       143.150          23.500    35949221.250 1                        99.650          25.250  
J 3  39701339.413 1 208631874.982 1       292.820          30.500    39698995.935 1 155787388.232 1       218.430          34.750  
R 2  21816943.922 1                      2317.150          24.000  
R 3  23678457.523 1                      3504.350          24.000  
R14  20566799.779 1 109632607.32811     -3277.635          30.500  
R15  20077287.861 1 107286809.06611       511.017          28.000  
R17  21013360.432 1                      -725.150          39.750  
R24  22917068.322 1                     -1930.850          21.500  
> 2021  5 21  6 29 51.4322064  0 18                     
E 1  25219193.147 1 132527754.728 1      1668.652          31.000    25217069.417 1  98957195.037 1      1246.061          34.250  
E13  25350400.314 1 133217248.298 1     -1727.236          37.500    25348290.375 1  99472084.172 1     -1290.911          29.500  
E26  23655252.340 1 124309046.92411      -275.913          30.250    23653129.510 1  92819960.771 1      -206.002          33.500  
G 3  22235434.060 1 116847933.07011     -1812.149          38.500                                                                  
G 4  25580971.293 1 134428911.42811      1317.229          27.250                                                                  
G 6  21625909.825 1 113644922.43911      1028.831          28.750                                                                  
G 9  25190727.553 1                      1575.700          22.750                                                                  
G14  20184519.978 1 106070443.251 1      -552.207          37.500                                                                  
G17  21730311.649 1 114193563.10411       628.943          31.000                                                                  
G19  22045258.916 1 115848663.152 1      1404.209          38.500                                                                  
J 1  37415277.673 1 196618610.41411       -58.317          28.500                                                                  
J 2  35951546.993 1 188926654.04111       133.149          30.000    35949197.219 1 141072370.83111        99.164          27.000  
J 3  39701281.206 1 208631578.202 1       296.560          37.250    39698942.825 1 155787166.78811       222.103          26.000  
R 2  21816482.794 1 116416931.57011      2315.370          26.500  
R 3  23677740.372 1                      3491.500          22.750  
R15  20077168.796 1 107286294.21011       513.659          32.250  
R17  21013488.695 1                      -720.850          40.750  
R18  22350756.724 1                       812.300          19.250  
> 2021  5 21  6 29 52.4322063  0 16                     
E 1  25218846.920 1 132525930.980 1      1667.357          32.500    25216719.892 1  98955832.976 1      1245.136          31.000  
E13  25350700.439 1 133218819.352 1     -1727.167          39.250    25348582.406 1                     -1289.550          26.500  
E26  23655272.759 1 124309167.381 1      -277.271          32.000    23653152.028 1  92820050.587 1      -206.994          30.250  
G 3  22235751.573 1 116849590.45711     -1815.923          40.250                                                                  
G 6  21625693.408 1 113643740.24111      1024.875          31.250                                                                  
G 9  25190473.662 1                      1576.900          21.750                                                                  
G14  20184593.161 1 106070841.101 1      -555.108          37.250                                                                  
G17  21730163.885 1 114192780.13711       627.001          30.750                                                                  
G19  22044959.756 1 115847103.139 1      1403.644          37.500                                                                  
J 1  37415260.918 1 196618514.719 1       -61.340          26.750                                                                  
J 2  35951477.774 1 188926367.905 1       128.694          33.000    35949139.992 1                        95.250          26.500  
J 3  39701199.695 1 208631126.010 1       295.895          39.750    39698861.914 1                       225.000          24.750  
R 2  21816016.950 1                      2312.900          25.750  
R15  20077056.707 1 107285623.335 1       510.889          35.000  
R17  21013597.553 1 112448004.69211      -721.648          41.000  
R24  22917732.948 1                     -1931.900          22.000  
> 2021  5 21  6 29 53.4322063  0 16                     
E 1  25218526.872 1 132524264.173 1      1664.951          33.000    25216404.042 1  98954588.213 1      1243.166          32.000  
E13  25351030.642 1 133220545.865 1     -1727.552          39.250    25348912.908 1                     -1287.700          26.500  
E26  23655333.449 1 124309444.82711      -279.276          28.750    23653205.222 1  92820257.655 1      -208.457          32.500  
G 3  22236094.368 1 116851408.23411     -1820.137          37.000                                                                  
G 6  21625494.477 1 113642715.138 1      1022.988          36.500                                                                  
G14  20184698.819 1 106071396.626 1      -556.980          36.000                                                                  
G17  21730045.598 1 114192153.158 1       625.032          32.750                                                                  
G19  22044693.671 1 115845699.610 1      1401.733          38.000                                                                  
J 1  37415279.636 1                       -56.750          24.000                                                                  
J 2  35951462.616 1                       130.850          23.500                                                                  
J 3  39701139.269 1 208630829.873 1       295.201          38.500    39698806.583 1 155786643.22411       222.077          24.000  
R 2  21815864.187 1                      2366.350          21.500  
R 3  23676516.484 1                      3522.000          24.000  
R15  20076944.116 1 107285113.185 1       508.050          35.500  
R17  21013729.293 1 112448726.232 1      -723.076          40.250  
R24  22918136.300 1                     -1944.100          22.500  
> 2021  5 21  6 29 54.4322063  0 18                     
E 1  25218211.425 1 132522599.982 1      1662.985          33.000    25216087.395 1  98953345.437 1      1241.987          33.000  
E13  25351358.249 1 133222273.038 1     -1727.625          38.750    25349234.219 1  99475839.59311     -1290.114          26.750  
E21  23619009.329 1                      -919.950          27.500    23616882.302 1                      -686.400          23.750  
E26  23655383.448 1                      -280.300          28.500    23653258.519 1  92820466.327 1      -209.295          33.000  
G 3  22236446.557 1 116853227.57411     -1818.897          38.500                                                                  
G 4  25580193.729 1                      1313.100          23.500                                                                  
G 6  21625291.751 1 113641692.588 1      1021.353          35.000                                                                  
G14  20184800.982 1 106071953.638 1      -557.512          35.000                                                                  
G17  21729923.216 1 114191527.924 1       624.471          31.500                                                                  
G19  22044428.289 1 115844298.677 1      1400.318          38.250                                                                  
J 1  37415561.075 1 196620100.11111       -10.027          27.000                                                                  
J 3  39701085.839 1 208630534.129 1       295.624          38.500    39698745.659 1                       220.500          23.500  
R 1  23144556.886 1                     -1068.800          16.000  
R 3  23675835.289 1 126738599.39611      3530.794          26.750  
R15  20076870.001 1 107284606.022 1       505.704          35.250  
R17  21013861.735 1 112449449.502 1      -724.352          39.250  
R18  22350302.037 1                       806.150          18.250  
R24  22918373.369 1 122554841.48711     -1958.352          29.500  
> 2021  5 21  6 29 55.4322062  0 20                     
E 1  25217862.216 1 132520782.351 1      1660.863          31.750    25215741.484 1  98951988.127 1      1240.206          33.250  
E13  25351655.993 1 133223844.911 1     -1727.512          38.500    25349532.863 1  99477013.290 1     -1289.584          26.500  
E21  23619147.883 1 124119459.82011      -920.953          35.000    23617027.751 1  92678288.59411      -687.259          30.750  
E26  23655407.781 1 124310006.75811      -282.250          29.000    23653282.252 1  92820560.070 1      -210.450          35.000  
G 1  24295741.087 1                     -3202.250          17.000                                                                  
G 3  22236758.092 1 116854890.88311     -1819.512          38.000                                                                  
G 6  21625076.850 1 113640516.174 1      1019.930          35.000                                                                  
G14  20184881.676 1 106072355.438 1      -557.145          35.500                                                                  
G17  21729772.770 1 114190748.17011       623.662          30.750                                                                  
G19  22044134.842 1 115842743.605 1      1398.219          37.250                                                                  
G22  24764533.749 1                     -3108.150          16.250                                                                  
G30  23657343.241 1                     -2731.900          22.250                                                                  
J 1  37415271.526 1                       -58.250          21.500                                                                  
J 3  39700998.650 1 208630082.441 1       296.610          39.000    39698656.971 1                       217.200          22.250  
R 1  23144890.005 1                     -1084.000          25.250  
R 2  21814862.864 1                      2359.550          21.500  
R15  20076728.249 1 107283942.999 1       503.588          35.500  
R17  21013966.713 1 112450015.967 1      -725.870          40.250  
R18  22350087.735 1                       801.950          25.250  
R24  22918692.998 1 122556640.97211     -1959.528          30.000  
> 2021  5 21  6 29 56.4322062  0 19                     
E 1  25217546.045 1 132519121.51311      1655.925          29.750    25215425.912 1  98950747.906 1      1236.608          33.750  
E13  25351983.775 1 133225570.592 1     -1728.930          37.250    25349863.043 1  99478301.991 1     -1290.985          26.500  
E21  23619325.769 1 124120377.789 1      -920.260          33.500    23617202.340 1  92678974.185 1      -687.333          31.000  
E26  23655459.155 1 124310287.777 1      -284.884          30.500    23653335.425 1  92820770.137 1      -213.273          34.250  
G 3  22237094.568 1 116856707.59111     -1819.298          32.500                                                                  
G 4  25579659.359 1                      1323.400          24.500                                                                  
G 6  21624883.893 1 113639495.243 1      1017.009          35.000                                                                  
G14  20184996.306 1 106072910.179 1      -557.215          35.000                                                                  
G17  21729676.946 1 114190123.10211       621.347          27.750                                                                  
G19  22043868.436 1 115841345.215 1      1393.670          36.500                                                                  
J 1  37415278.530 1                       -50.000          24.750                                                                  
J 3  39700939.700 1 208629783.479 1       296.468          37.500    39698599.820 1                       214.950          23.500  
R 1  23145075.986 1                     -1076.600          21.250  
R 2  21814310.755 1                      2343.150          25.000  
R14  20570437.371 1                     -3283.450          25.250  
R15  20076654.910 1 107283438.965 1       499.503          32.250  
R17  21014107.125 1 112450741.422 1      -730.214          39.250  
R18  22349992.211 1                       799.750          25.500  
R24  22919103.523 1                     -1957.300          25.750  
> 2021  5 21  6 29 57.4322062  0 22                     
E 1  25217241.523 1                      1649.500          28.500    25215112.697 1  98949514.885 1      1232.348          35.250  
E13  25352312.416 1 133227302.658 1     -1730.950          37.000    25350189.585 1  99479595.206 1     -1292.107          27.750  
E21  23619500.916 1 124121300.574 1      -921.283          31.500    23617376.287 1  92679663.308 1      -687.840          31.000  
E26  23655512.286 1                      -288.650          28.500    23653390.355 1  92820986.652 1      -216.743          34.500  
G 3  22237454.687 1 116858528.94611     -1818.710          31.750                                                                  
G 4  25579380.620 1                      1324.450          21.000                                                                  
G 6  21624692.993 1 113638482.326 1      1012.782          34.500                                                                  
G 9  25189041.546 1                      1597.400          16.750                                                                  
G14  20185094.406 1 106073469.597 1      -557.619          35.750                                                                  
G17  21729527.118 1 114189506.88011       615.569          26.250                                                                  
G19  22043596.292 1 115839956.553 1      1388.092          37.000                                                                  
G22  24765775.667 1                     -3117.350          20.000                                                                  
G30  23658357.017 1                     -2733.650          20.750                                                                  
J 1  37415302.881 1 196618743.52811       -47.526          27.250                                                                  
J 3  39700888.503 1 208629489.231 1       296.300          37.250    39698545.325 1                       220.350          22.500  
R 1  23145227.149 1                     -1091.350          23.000  
R 2  21813805.373 1                      2327.400          26.000  
R14  20571035.225 1 109655193.03111     -3283.345          38.000  
R15  20076530.264 1 107282944.025 1       494.604          29.750  
R17  21014239.701 1 112451476.167 1      -735.056          38.500  
R18  22349804.309 1 119304772.72411       791.842          31.000  
R24  22919426.767 1                     -1958.350          25.250  
> 2021  5 21  6 29 58.4322061  0 18                     
E 1  25216890.149 1                      1644.750          27.750    25214768.518 1  98948164.912 1      1230.122          35.750  
E13  25352611.291 1 133228873.887 1     -1730.226          36.000    25350489.660 1  99480768.415 1     -1291.684          26.000  
E21  23619647.497 1 124122062.387 1      -920.970          31.500    23617521.369 1  92680232.112 1      -687.478          31.500  
E26  23655538.950 1                      -295.200          21.750    23653415.820 1  92821085.421 1      -218.182          36.000  
G 3  22237809.923 1                     -1811.350          26.750                                                                  
G 4  25579137.470 1                      1333.400          22.500                                                                  
G 6  21624458.538 1 113637311.72811      1010.388          32.750                                                                  
G14  20185169.337 1 106073867.834 1      -556.978          35.000                                                                  
G17  21729402.986 1 114188734.41911       613.971          28.000                                                                  
G19  22043307.275 1 115838411.119 1      1385.458          37.500                                                                  
J 1  37415292.671 1 196618629.35011       -43.387          27.500                                                                  
J 3  39700798.848 1 208629033.072 1       297.861          34.500    39698455.070 1 155785264.11011       222.509          30.250  
R 2  21813443.806 1                      2332.050          26.000  
R14  20571624.300 1 109658314.801 1     -3282.021          36.500  
R15  20076412.128 1                       490.950          24.000  
R17  21014348.508 1 112452050.348 1      -736.777          34.750  
R18  22349601.032 1 119303821.987 1       788.113          31.000  
R24  22919842.262 1 122562696.10811     -1959.294          27.000  
> 2021  5 21  6 29 59.4322061  0 21                     
E 1  25216577.931 1 132514011.63911      1647.606          29.500    25214454.501 1  98946934.509 1      1230.239          36.000  
E13  25352942.428 1 133230602.698 1     -1728.666          36.750    25350816.000 1  99482059.311 1     -1290.438          27.750  
E21  23619812.249 1 124122981.940 1      -918.800          31.750    23617696.614 1  92680918.945 1      -686.367          30.250  
E26                                                                  23653471.448 1  92821303.282 1      -217.863          37.000  
G 3  22238120.075 1 116862109.40011     -1814.646          31.250                                                                  
G 4  25578863.926 1                      1339.500          22.250                                                                  
G 6  21624267.736 1 113636301.38311      1010.695          34.500                                                                  
G14  20185275.929 1 106074423.797 1      -555.643          35.500                                                                  
G17  21729261.051 1 114188117.36011       617.259          32.000                                                                  
G19  22043043.623 1 115837025.489 1      1385.761          38.250                                                                  
G22  24767063.424 1                     -3108.800          20.000                                                                  
G30  23659359.072 1                     -2735.850          22.000                                                                  
J 1  37415283.243 1 196618670.76711       -40.299          26.500                                                                  
J 3  39700746.550 1 208628733.788 1       299.900          33.000    39698397.676 1 155785040.564 1       224.019          33.000  
R 1  23145574.157 1                     -1087.100          20.250  
R 2  21812925.931 1 116397952.07811      2333.262          26.750  
R 3  23672515.763 1                      3508.750          17.250  
R14  20572233.644 1 109661595.755 1     -3280.177          36.500  
R17  21014485.679 1 112452786.797 1      -736.204          36.000  
R18  22349497.170 1 119303033.790 1       788.347          31.750  
R24  22920163.806 1 122564650.10811     -1954.553          27.250  
> 2021  5 21  6 30  0.4322061  0 19                     
E 1  25216263.803 1 132512363.16011      1648.091          32.000    25214141.272 1  98945703.404 1      1231.145          39.250  
E13  25353268.956 1 133232330.463 1     -1728.554          33.250    25351149.423 1  99483349.517 1     -1290.426          31.000  
E21  23619994.877 1 124123899.70911      -916.841          30.500    23617870.248 1  92681604.135 1      -684.908          31.000  
E26  23655662.085 1                      -291.250          23.500    23653527.263 1  92821520.059 1      -216.892          38.750  
G 2  24234297.504 1                      1793.050          19.750                                                                  
G 3  22238481.379 1 116863925.32911     -1815.525          34.750                                                                  
G 4  25578601.961 1                      1338.500          24.750                                                                  
G 6  21624077.721 1 113635289.145 1      1013.025          35.750                                                                  
G14  20185381.810 1 106074978.155 1      -554.238          35.250                                                                  
G17  21729152.580 1 114187499.429 1       617.221          37.750                                                                  
G19  22042779.860 1 115835638.745 1      1386.220          39.250                                                                  
J 1  37415514.737 1                       -26.550          27.750    37412943.717 1                       -32.950          21.500  
J 3  39700713.327 1 208628430.51411       303.409          28.500    39698340.770 1 155784815.912 1       224.416          38.000  
R 2  21812526.661 1 116395613.64611      2344.615          27.000  
R14  20572856.966 1 109664874.053 1     -3277.272          35.500  
R15  20076224.678 1                       487.800          23.000  
R17  21014624.537 1 112453522.396 1      -736.203          38.250  
R18  22349345.529 1 119302243.955 1       789.767          32.250  
R24  22920518.214 1 122566310.52411     -1955.482          30.500  
> 2021  5 21  6 30  1.4322060  0 21                     
E 1  25215923.148 1 132510563.09511      1641.829          36.750    25213798.819 1  98944359.240 1      1225.914          36.250  
E13  25353574.654 1 133233907.51611     -1733.870          31.000    25351447.627 1  99484526.924 1     -1294.786          32.500  
E21  23620136.289 1                      -920.400          27.500    23618017.955 1  92682174.293 1      -686.307          29.250  
E26  23655676.984 1 124311339.04411      -295.541          29.750    23653553.255 1  92821623.300 1      -220.933          37.000  
G 1  24299420.430 1                     -3214.500          21.000                                                                  
G 2  24233948.455 1                      1794.050          24.750                                                                  
G 3  22238919.285 1 116866308.88411     -1813.850          31.500                                                                  
G 4  25578322.764 1 134414992.70311      1339.222          32.250                                                                  
G 6  21623856.684 1 113634122.84811      1008.169          33.250                                                                  
G14  20185456.668 1 106075379.173 1      -557.344          37.250                                                                  
G17  21729007.090 1 114186730.500 1       611.073          39.500                                                                  
G19  22042489.271 1 115834101.038 1      1379.260          36.500                                                                  
J 1  37415504.154 1 196619801.17211       -35.510          30.000    37412925.040 1                       -28.750          22.500  
J 3  39700604.712 1 208627976.67911       296.480          35.750    39698254.939 1 155784477.493 1       221.579          36.500  
R 1  23145962.652 1                     -1089.450          22.500  
R 2  21812045.404 1                      2336.150          25.750  
R14  20573439.973 1 109667994.08911     -3277.324          31.250  
R15  20076100.773 1                       486.550          24.500  
R17  21014730.873 1 112454104.367 1      -743.115          38.500  
R18  22349128.989 1 119301299.650 1       783.739          33.000  
R24  22920944.729 1 122568591.48511     -1952.505          29.750  
> 2021  5 21  6 30  2.4322060  0 22                     
E 1  25215610.116 1 132508922.06711      1636.870          34.500    25213486.386 1  98943133.887 1      1223.130          37.000  
E13  25353905.876 1 133235640.06911     -1737.425          30.750    25351778.249 1  99485821.399 1     -1295.875          29.500  
E21  23620317.914 1 124125608.43111      -921.011          32.000    23618192.985 1  92682860.489 1      -687.839          25.750  
E26  23655733.296 1 124311635.512 1      -299.304          34.250    23653610.166 1  92821844.690 1      -223.506          35.500  
G 1  24299979.793 1                     -3212.050          23.500                                                                  
G 2  24233578.762 1                      1788.950          24.750                                                                  
G 3  22239325.755 1                     -1810.650          31.250                                                                  
G 4  25578073.588 1 134413651.92011      1340.335          31.000                                                                  
G 6  21623674.361 1 113633117.51111       994.474          30.750                                                                  
G14  20185562.745 1 106075935.669 1      -558.649          35.750                                                                  
G17  21728897.317 1 114186119.45711       610.387          37.500                                                                  
G19  22042220.907 1 115832722.352 1      1375.658          41.500                                                                  
G22  24768731.383 1                     -3112.650          24.000                                                                  
G30  23660785.399 1                     -2735.200          18.750                                                                  
J 1  37415490.614 1 196619834.91211       -34.890          31.000                                                                  
J 3  39700538.409 1 208627679.029 1       296.220          33.500    39698198.528 1 155784255.038 1       221.221          32.500  
R 2  21811598.364 1 116390867.78211      2337.364          26.500  
R14  20574034.412 1 109671270.485 1     -3278.859          32.500  
R15  20076023.378 1 107280181.00611       482.963          29.750  
R17  21014880.720 1 112454848.08711      -746.680          37.500  
R18  22349006.324 1 119300516.73011       779.318          27.500  
R24  22921363.789 1 122570832.27311     -1953.691          27.000  
> 2021  5 21  6 30  3.4322059  0 22                     
E 1  25215266.908 1 132507128.344 1      1636.101          39.500    25213145.277 1  98941794.188 1      1221.909          35.500  
E13  25354215.616 1                     -1735.550          25.500    25352078.396 1  99486999.38611     -1294.470          27.500  
E21  23620472.062 1                      -920.650          26.500    23618336.340 1  92683431.12811      -687.533          25.000  
E26  23655764.529 1 124311778.664 1      -300.507          32.250    23653638.101 1  92821951.427 1      -224.337          34.750  
G 1  24300611.211 1                     -3215.100          22.500                                                                  
G 2  24233149.514 1 127346059.24711      1795.290          26.750                                                                  
G 3  22239611.212 1 116869945.57911     -1817.447          32.500                                                                  
G 4  25577782.844 1 134412153.77611      1341.317          29.000                                                                  
G 6  21623445.375 1                      1004.150          39.000                                                                  
G14  20185634.750 1 106076337.086 1      -558.236          33.250                                                                  
G17  21728749.874 1 114185351.55511       610.060          33.250                                                                  
G19  22041930.164 1 115831190.431 1      1374.613          39.500                                                                  
G22  24769392.780 1                     -3103.500          24.000                                                                  
G30  23661305.593 1                     -2729.900          23.500                                                                  
J 1  37415305.098 1 196618754.64711       -33.286          32.250    37412906.758 1                       -22.300          24.000  
J 3  39700464.415 1 208627225.023 1       298.035          34.250    39698111.643 1 155783916.079 1       222.507          31.000  
R 1  23146348.491 1                     -1090.400          22.000  
R 2  21811190.102 1 116388689.33511      2338.851          28.500  
R14  20574634.052 1 109674390.088 1     -3279.165          35.500  
R15  20075908.912 1 107279539.09311       480.771          35.500  
R17  21014984.503 1 112455434.27811      -745.504          31.500  
R24  22921750.876 1 122572902.00711     -1950.775          31.250  
> 2021  5 21  6 30  4.4322059  0 22                     
E 1  25214956.959 1 132505491.251 1      1638.614          38.250    25212832.929 1  98940571.46611      1224.471          29.500  
E13  25354534.931 1                     -1725.800          24.000    25352408.803 1  99488292.435 1     -1290.733          25.750  
E21  23620628.589 1                      -918.300          26.000    23618512.654 1  92684119.056 1      -687.704          31.000  
E26  23655811.932 1 124312078.239 1      -298.281          38.750    23653694.199 1  92822175.069 1      -222.153          30.000  
G 1  24301221.924 1                     -3214.300          21.500                                                                  
G 2  24232843.162 1                      1790.400          23.000                                                                  
G 3  22239950.313 1 116871760.11411     -1814.264          36.000                                                                  
G 4  25577550.541 1 134410810.44611      1345.501          26.500                                                                  
G 6  21623259.539 1 113630995.13611      1003.967          34.000                                                                  
G14  20185742.412 1 106076895.066 1      -557.501          31.250                                                                  
G17  21728636.888 1 114184740.503 1       613.627          34.750                                                                  
G19  22041683.470 1 115829814.363 1      1378.386          35.250                                                                  
G30  23661835.363 1                     -2731.150          22.500                                                                  
J 1  37415270.358 1 196618787.493 1       -32.370          34.500    37412912.490 1 146816303.64111       -24.103          26.750  
J 3  39700424.278 1 208626925.29311       301.090          28.500    39698055.019 1 155783692.011 1       225.637          27.750  
R 1  23146510.115 1                     -1094.950          23.500  
R 2  21810687.985 1                      2339.900          26.250  
R14  20575240.268 1 109677670.279 1     -3281.092          39.500  
R15  20075829.203 1 107279058.96711       480.838          31.250  
R17  21015130.538 1 112456178.791 1      -742.281          32.500  
R18  22348764.483 1                       777.650          20.500  
R24  22921997.042 1 122574218.89611     -1952.924          29.250  
> 2021  5 21  6 30  5.4322059  0 17                     
E 1  25214649.053 1 132503852.775 1      1640.627          38.500    25212518.428 1                      1228.350          22.250  
E13  25354832.306 1                     -1725.950          23.000                                                                  
E21  23620820.737 1                      -924.750          26.500    23618688.014 1  92684808.149 1      -688.297          31.500  
E26  23655876.668 1 124312376.520 1      -296.307          39.250    23653750.240 1  92822397.871 1      -221.086          26.500  
G 2  24232448.316 1                      1782.950          23.000                                                                  
G 3  22240349.617 1 116873575.679 1     -1814.012          34.750                                                                  
G 4  25577271.115 1 134409466.90011      1345.093          27.500                                                                  
G 6  21623102.429 1 113629992.638 1      1003.708          32.500                                                                  
G14  20185853.316 1 106077454.053 1      -557.714          32.000                                                                  
G17  21728529.543 1 114184126.611 1       616.416          33.500                                                                  
G19  22041406.743 1 115828435.608 1      1381.189          34.000                                                                  
G22  24770590.768 1                     -3109.100          26.000                                                                  
J 1  37415224.470 1 196618331.561 1       -32.896          33.250    37412918.167 1                       -24.800          28.500  
J 3                                                                  39697997.439 1                       227.700          28.500  
R14  20575873.410 1 109680954.043 1     -3282.816          38.500  
R17  21015262.727 1 112456920.506 1      -739.006          32.000  
R24  22922165.806 1                     -1951.100          25.000  
> 2021  5 21  6 30  6.4322058  0 19                     
E 1  25214304.819 1 132502053.016 1      1639.877          39.000                                                                  
E13  25355135.024 1                     -1724.600          24.000                                                                  
E21  23620966.064 1 124128819.54411      -922.712          29.750    23618833.940 1  92685377.496 1      -688.757          30.500  
E26  23655901.779 1 124312513.551 1      -296.855          39.500    23653778.349 1  92822500.195 1      -221.382          26.500  
G 2  24232076.201 1                      1784.350          24.500                                                                  
G 3  22240646.939 1 116875230.622 1     -1814.963          35.500                                                                  
G 4  25576994.634 1 134407962.378 1      1344.869          27.250                                                                  
G 6  21622881.110 1 113628829.914 1      1002.901          33.250                                                                  
G14  20185931.489 1 106077852.810 1      -558.650          32.250                                                                  
G17  21728375.377 1 114183351.435 1       615.968          33.750                                                                  
G19  22041108.677 1 115826895.305 1      1380.706          34.000                                                                  
G22  24771181.586 1 130173437.58411     -3109.755          28.000                                                                  
J 1  37415190.521 1 196618205.729 1       -33.474          33.500    37412893.511 1 146816229.79511       -24.799          28.000  
J 3  39700387.312 1                       305.500          21.000    39697908.329 1 155783118.98611       226.771          26.250  
R 1  23146927.634 1                     -1098.450          19.500  
R14  20576455.235 1 109684075.650 1     -3283.883          39.000  
R17  21015371.180 1 112457497.373 1      -739.470          31.250  
R18  22348490.381 1                       780.700          21.500  
R24  22922475.719 1                     -1953.550          25.250  
> 2021  5 21  6 30  7.4322058  0 19                     
E 1  25213995.883 1 132500414.043 1      1640.006          38.500    25211862.859 1                      1226.650          20.750  
E13  25355488.929 1                     -1719.150          22.000                                                                  
E21  23621133.199 1 124129742.86611      -922.690          29.000    23619009.469 1  92686067.029 1      -688.939          31.250  
E26  23655954.692 1 124312811.123 1      -296.413          39.500    23653834.260 1  92822722.463 1      -221.235          25.250  
G 2  24231739.085 1                      1788.650          24.000                                                                  
G 3  22240980.758 1 116877046.594 1     -1814.897          35.000                                                                  
G 4  25576760.646 1 134406618.38711      1345.266          26.250                                                                  
G 6  21622690.892 1 113627827.981 1      1003.131          33.250                                                                  
G14  20186038.066 1 106078412.582 1      -558.717          32.250                                                                  
G17  21728254.112 1 114182736.136 1       616.649          33.750                                                                  
G19  22040842.911 1 115825515.338 1      1381.255          33.000                                                                  
G22  24771778.623 1 130176548.12111     -3109.377          27.000                                                                  
J 1  37415190.372 1 196618239.812 1       -32.796          33.500    37412897.259 1                       -25.650          28.000  
J 3  39700263.948 1                       303.150          22.000    39697850.319 1                       226.050          26.750  
R 3  23667185.218 1                      3514.450          16.000  
R14  20577070.859 1 109687360.544 1     -3283.803          38.500  
R17  21015529.920 1 112458237.579 1      -738.773          30.750  
R18  22348385.004 1                       780.700          22.500  
R24  22922867.998 1                     -1953.300          25.000  
> 2021  5 21  6 30  8.4322058  0 17                     
E 1  25213679.022 1 132498772.071 1      1639.890          38.500    25211551.695 1                      1223.150          23.750  
E21  23621311.595 1 124130663.261 1      -922.624          29.750    23619184.568 1  92686754.340 1      -688.594          33.000  
E26  23656009.574 1 124313105.531 1      -296.425          40.000    23653890.641 1  92822942.202 1      -221.081          27.500  
G 3  22241307.252 1 116878859.680 1     -1815.302          36.000                                                                  
G 4  25576480.960 1 134405270.98511      1345.820          26.000                                                                  
G 6  21622490.051 1 113626823.095 1      1002.720          33.250                                                                  
G14  20186137.917 1 106078969.633 1      -559.260          33.000                                                                  
G17  21728138.712 1 114182117.515 1       616.630          33.250                                                                  
G19  22040584.810 1 115824132.095 1      1381.506          32.750                                                                  
G22  24772377.629 1 130179655.49811     -3109.397          27.000                                                                  
J 1  37415196.987 1 196618270.657 1       -32.787          34.000    37412906.273 1 146816279.31211       -24.461          28.750  
J 3  39700216.001 1                       300.000          23.500    39697793.079 1 155782666.06611       227.418          29.500  
R 1  23147278.861 1                     -1097.000          20.250  
R14  20577690.550 1 109690642.585 1     -3284.224          37.500  
R17  21015666.646 1 112458974.341 1      -738.767          31.750  
R18  22348138.595 1                       776.650          24.000  
R24  22923277.534 1                     -1947.150          26.000  
> 2021  5 21  6 30  9.4322057  0 20                     
E 1  25213339.406 1 132496977.512 1      1639.159          38.500    25211210.580 1  98934204.71011      1224.308          23.250  
E13  25356149.141 1                     -1722.900          21.250                                                                  
E21  23621463.339 1 124131431.16911      -923.631          30.000    23619331.215 1  92687327.831 1      -689.793          32.750  
E26  23656036.305 1 124313247.085 1      -296.862          40.000    23653917.372 1  92823048.039 1      -221.552          25.500  
G 2  24231034.042 1                      1789.700          23.000                                                                  
G 3  22241622.683 1 116880520.560 1     -1816.262          36.250                                                                  
G 4  25576210.896 1                      1343.700          25.000                                                                  
G 6  21622267.354 1 113625665.690 1      1002.163          33.500                                                                  
G14  20186223.706 1 106079374.398 1      -560.201          33.000                                                                  
G17  21727999.057 1 114181345.991 1       616.515          31.250                                                                  
G19  22040273.074 1 115822595.889 1      1381.127          31.250                                                                  
G22  24772943.386 1 130182610.35911     -3110.163          26.500                                                                  
J 1  37415176.051 1 196618148.648 1       -33.096          34.500    37412881.139 1                       -23.700          28.000  
J 3  39700130.909 1                       300.100          23.750    39697706.188 1                       227.750          28.750  
R 1  23147476.474 1                     -1096.750          23.750  
R14  20578276.394 1 109693770.056 1     -3285.051          37.250  
R15  20075351.461 1                       479.050          18.250  
R17  21015759.630 1 112459555.518 1      -739.035          31.250  
R18  22347983.951 1                       778.900          25.500  
R24  22923623.244 1                     -1951.400          26.000  
> 2021  5 21  6 30 10.4322057  0 21                     
E 1  25213024.671 1 132495335.825 1      1640.477          38.000    25210893.746 1                      1228.600          22.500  
E13  25356444.184 1                     -1726.400          23.500                                                                  
E21  23621639.664 1 124132352.03211      -921.816          29.250    23619505.442 1  92688015.480 1      -688.622          32.500  
E26  23656094.212 1 124313541.318 1      -295.371          39.500    23653974.979 1  92823267.618 1      -220.270          27.000  
G 1  24304894.257 1                     -3221.900          17.500                                                                  
G 2  24230682.433 1                      1789.650          23.000                                                                  
G 3  22241969.890 1 116882334.401 1     -1815.102          36.000                                                                  
G 4  25575944.127 1                      1349.650          24.500                                                                  
G 6  21622071.037 1 113624661.104 1      1003.444          33.000                                                                  
G14  20186328.081 1 106079932.155 1      -559.135          33.250                                                                  
G17  21727863.898 1 114180726.39811       618.001          29.000                                                                  
G19  22039995.813 1 115821211.67411      1382.735          30.000                                                                  
G22  24773121.510 1 130183631.84711     -3108.685          21.500                                                                  
J 1  37415188.389 1 196618179.133 1       -31.436          33.500    37412887.482 1 146816205.94011       -23.410          28.500  
J 3  39700097.380 1                       304.650          23.000    39697647.476 1 155782094.81311       228.611          28.500  
R 1  23147661.492 1                     -1094.150          24.000  
R14  20578888.317 1 109697052.681 1     -3283.922          36.500  
R15  20075234.889 1                       478.800          23.000  
R17  21015929.060 1 112460291.877 1      -737.321          32.000  
R18  22347840.697 1                       779.900          25.750  
R24  22923983.641 1 122584842.27211     -1949.753          27.250  
> 2021  5 21  6 30 11.4322057  0 19                     
E 1  25212710.439 1 132493695.647 1      1639.639          38.000    25210587.908 1                      1222.850          22.500  
E13  25356785.597 1                     -1720.950          22.500                                                                  
E21  23621810.496 1 124133274.62711      -922.842          28.750    23619681.070 1  92688704.387 1      -689.179          32.000  
E26  23656146.625 1 124313836.842 1      -295.987          39.750    23654029.191 1  92823488.375 1      -220.879          27.500  
G 3  22242305.307 1 116884150.083 1     -1816.209          36.500                                                                  
G 4  25575701.845 1                      1350.700          25.250                                                                  
G 6  21621881.218 1 113623658.163 1      1002.528          32.500                                                                  
G14  20186428.161 1 106080491.807 1      -560.193          33.250                                                                  
G17  21727730.440 1 114180108.54911       618.105          27.000                                                                  
G19  22039718.155 1 115819500.301 1      1382.193          30.000                                                                  
G22  24774081.395 1 130188676.11111     -3109.139          27.000                                                                  
J 1  37415194.335 1 196618210.913 1       -32.021          34.000    37412894.927 1                       -25.050          28.500  
J 3  39700031.075 1                       308.850          22.500    39697587.767 1                       229.250          27.250  
R 1  23147905.473 1 123738820.81611     -1099.178          27.000  
R14  20579505.540 1 109700337.054 1     -3284.927          38.500  
R15  20075137.107 1                       478.850          25.000  
R17  21016049.826 1 112461029.52411      -737.985          32.250  
R18  22347646.981 1                       777.650          26.250  
R24  22924423.387 1 122587193.59711     -1949.967          28.500  
> 2021  5 21  6 30 12.4322057  0 22                     
E 1  25212400.382 1 132492056.540 1      1637.410          38.750                                                                  
E13  25357090.415 1                     -1723.000          21.750                                                                  
E21  23621990.000 1 124134198.18511      -925.121          29.750    23619856.677 1  92689394.133 1      -690.847          30.500  
E26  23656205.014 1 124314133.206 1      -297.879          40.000    23654086.980 1  92823709.772 1      -222.448          26.000  
G 2  24229989.491 1                      1791.850          20.500                                                                  
G 3  22242645.501 1 116885967.033 1     -1818.684          37.000                                                                  
G 4  25575445.151 1 134399870.65211      1344.202          26.500                                                                  
G 6  21621694.076 1 113622656.327 1      1000.170          31.000                                                                  
G14  20186535.116 1 106081052.740 1      -562.777          32.750                                                                  
G17  21727597.861 1                       614.650          25.250                                                                  
G19  22039455.466 1 115818119.056 1      1380.302          30.000                                                                  
G22  24774686.305 1 130191786.78411     -3111.562          26.500                                                                  
J 1  37415205.656 1 196618243.453 1       -34.101          34.000    37412901.151 1 146816259.97711       -25.463          27.500  
J 3  39700009.119 1                       302.200          23.250    39697529.536 1 155781632.53011       226.957          26.250  
R 1  23148105.963 1 123739920.94911     -1101.234          28.000  
R 2  21807251.817 1                      2330.550          16.750  
R 3  23663850.921 1                      3521.450          16.000  
R14  20580119.144 1 109703622.712 1     -3287.442          40.000  
R15  20075061.188 1                       476.800          25.250  
R17  21016182.263 1 112461767.95111      -740.020          32.000  
R18  22347479.925 1                       780.700          25.000  
R24  22924774.373 1 122589144.47811     -1951.867          28.750  
> 2021  5 21  6 30 13.4322056  0 23                     
E 1  25212059.300 1 132490264.281 1      1636.811          39.750    25209934.671 1                      1223.200          20.000  
E13  25357396.585 1                     -1726.500          22.000                                                                  
E21  23622132.483 1 124134968.97211      -926.194          30.500    23620003.657 1  92689969.663 1      -691.935          30.500  
E26  23656231.477 1 124314276.205 1      -298.325          39.750    23654112.844 1  92823816.482 1      -222.548          26.500  
G 1  24306454.637 1                     -3216.400          23.500                                                                  
G 2  24229642.113 1                      1787.700          21.500                                                                  
G 3  22242971.756 1 116887631.070 1     -1819.502          36.750                                                                  
G 4  25575156.533 1 134398371.266 1      1344.162          27.250                                                                  
G 6  21621461.819 1 113621501.29811       999.628          28.250                                                                  
G14  20186613.444 1 106081460.770 1      -563.442          33.000                                                                  
G17  21727423.463 1 114178380.61811       615.038          27.000                                                                  
G19  22039181.538 1 115816583.788 1      1380.186          31.750                                                                  
G22  24775222.716 1 130194743.488 1     -3111.931          27.500                                                                  
J 1  37415190.148 1 196618122.490 1       -34.238          34.500    37412876.350 1                       -23.300          26.500  
J 3  39699920.163 1                       306.650          24.250    39697442.678 1                       225.550          25.250  
R 1  23148244.249 1 123740864.60711     -1102.324          28.750  
R 2  21806744.950 1                      2335.900          24.250  
R 3  23663094.626 1                      3517.250          22.250  
R14  20580710.116 1 109706753.142 1     -3288.031          41.000  
R15  20074988.420 1                       473.650          25.500  
R17  21016272.283 1 112462349.987 1      -739.909          33.250  
R18  22347413.453 1                       774.750          22.250  
R24  22925124.912 1 122590938.511 1     -1951.946          30.500  
> 2021  5 21  6 30 14.4322056  0 21                     
E 1  25211746.898 1 132488626.793 1      1638.123          39.750    25209622.868 1                      1222.300          22.500  
E13  25357735.032 1                     -1722.050          24.000                                                                  
E21  23622311.141 1 124135894.46411      -924.727          29.500    23620179.317 1  92690660.684 1      -690.195          31.500  
E26  23656290.218 1 124314573.755 1      -296.706          40.500    23654171.285 1  92824038.706 1      -221.257          25.000  
G 1  24307083.583 1                     -3211.200          25.250                                                                  
G 2  24229270.052 1                      1783.150          24.250                                                                  
G 3  22243321.596 1 116889450.045 1     -1818.235          36.750                                                                  
G 4  25574901.691 1 134397026.34911      1345.803          27.500                                                                  
G 6  21621257.941 1 113620501.169 1      1001.205          27.500                                                                  
G14  20186723.749 1 106082023.874 1      -562.306          34.500                                                                  
G17  21727308.024 1 114177764.32511       617.399          27.500                                                                  
G19  22038922.498 1 115815203.054 1      1381.638          32.000                                                                  
G22  24775811.789 1 130197854.910 1     -3110.548          27.500                                                                  
J 1  37415199.123 1 196618155.999 1       -32.551          34.750    37412883.527 1 146816190.71311       -24.161          27.750  
J 3                                                                  39697385.099 1 155781065.45011       228.348          26.500  
R 1  23148467.576 1 123741967.10911     -1101.450          28.000  
R 2  21806331.518 1 116362762.70411      2335.038          28.000  
R 3  23662479.433 1                      3519.850          24.250  
R14  20581327.670 1 109710040.759 1     -3286.826          40.500  
R17  21016424.559 1 112463089.258 1      -738.187          32.250  
R24  22925484.944 1 122592889.501 1     -1949.981          31.500  
> 2021  5 21  6 30 15.4322055  0 24                     
E 1  25211404.909 1 132486828.666 1      1639.703          39.750    25209278.781 1                      1223.950          22.250  
E13  25358029.803 1                     -1724.150          25.500                                                                  
E21  23622452.118 1 124136659.29011      -923.452          29.500    23620325.391 1  92691231.937 1      -689.201          33.750  
E26  23656313.976 1 124314710.438 1      -294.984          39.750    23654193.244 1  92824140.724 1      -220.097          26.750  
G 1  24307668.553 1                     -3210.400          25.250                                                                  
G 2  24228899.583 1                      1788.350          24.000                                                                  
G 3  22243602.576 1 116891108.596 1     -1816.875          38.750                                                                  
G 4  25574636.149 1 134395520.42511      1347.394          27.000                                                                  
G 6  21621024.478 1 113619340.230 1      1002.456          29.000                                                                  
G 9  25183346.134 1                      1595.450          17.000                                                                  
G14  20186793.675 1 106082426.542 1      -561.048          33.500                                                                  
G17  21727183.086 1 114176987.006 1       619.233          29.000                                                                  
G19  22038631.774 1 115813661.304 1      1383.667          32.500                                                                  
G22  24776365.581 1 130200806.12111     -3109.516          26.500                                                                  
J 1  37415180.611 1 196618028.635 1       -30.807          34.750    37412859.318 1                       -24.850          29.500  
J 3  39699740.643 1                       303.800          25.500    39697296.135 1                       228.150          29.000  
R 1  23148670.311 1 123742906.036 1     -1100.170          31.000  
R 2  21805860.319 1 116360264.69711      2336.811          28.500  
R 3  23661791.184 1                      3515.800          22.500  
R14  20581914.739 1 109713165.550 1     -3285.435          42.250  
R15  20074821.492 1                       475.700          21.500  
R17  21016509.475 1 112463664.652 1      -736.350          34.000  
R18  22347015.685 1                       776.900          21.500  
R24  22925903.829 1 122595109.96111     -1947.644          28.750  
> 2021  5 21  6 30 16.4322055  0 24                     
E 1  25211091.385 1 132485191.299 1      1638.308          40.250    25208964.658 1                      1221.200          22.750  
E13  25358343.145 1                     -1723.300          27.000                                                                  
E21  23622630.254 1 124137585.163 1      -925.031          29.500    23620502.027 1  92691923.273 1      -690.701          34.000  
E26  23656375.193 1 124315007.683 1      -296.146          39.750    23654252.362 1  92824362.677 1      -221.021          28.250  
G 1  24308282.587 1                     -3214.050          25.000                                                                  
G 2  24228566.573 1                      1788.350          23.250                                                                  
G 3  22243959.688 1 116892928.229 1     -1818.691          38.500                                                                  
G 4  25574349.307 1 134394175.48011      1346.541          25.750                                                                  
G 6  21620830.571 1 113618340.12611      1000.977          28.000                                                                  
G 9  25183045.801 1                      1595.450          17.000                                                                  
G14  20186910.353 1 106082990.283 1      -562.966          32.500                                                                  
G17  21727084.813 1 114176370.198 1       617.902          30.750                                                                  
G19  22038369.515 1 115812280.016 1      1382.337          32.250                                                                  
G22  24776977.216 1                     -3110.050          25.500                                                                  
G30  23668000.545 1                     -2745.250          16.500                                                                  
J 1  37415192.062 1 196618061.713 1       -32.019          35.000    37412865.073 1 146816118.30211       -23.753          28.750  
J 3  39699664.255 1 208623143.47311       306.522          28.000    39697238.035 1 155780487.70711       228.960          30.000  
R 1  23148874.528 1 123744008.851 1     -1101.932          32.000  
R 2  21805435.272 1 116357930.325 1      2335.307          30.250  
R 3  23661206.948 1                      3519.300          23.000  
R14  20582528.772 1 109716453.626 1     -3287.274          43.000  
R15  20074711.527 1 107273171.64811       472.344          26.750  
R17  21016659.730 1 112464403.375 1      -737.577          36.000  
R24  22926200.682 1 122596697.630 1     -1948.962          30.750  
> 2021  5 21  6 30 17.4322055  0 23                     
E 1  25210780.619 1 132483552.712 1      1638.272          40.500    25208658.388 1                      1222.750          23.000  
E13  25358668.838 1                     -1721.000          26.500                                                                  
E21  23622803.053 1 124138509.81311      -925.291          30.000    23620678.424 1  92692613.785 1      -690.570          34.000  
E26  23656426.276 1 124315303.475 1      -296.091          40.000    23654309.741 1  92824583.556 1      -220.880          28.000  
G 1  24308883.789 1                     -3212.000          24.250                                                                  
G 2  24228251.610 1                      1783.950          22.750                                                                  
G 3  22244305.467 1 116894746.832 1     -1818.956          39.000                                                                  
G 4  25574128.478 1 134392828.45811      1347.154          28.000                                                                  
G 6  21620664.605 1 113617338.91011      1001.115          31.000                                                                  
G 9  25182739.232 1                      1595.650          17.250                                                                  
G14  20187022.894 1 106083553.033 1      -562.938          34.500                                                                  
G17  21726975.507 1 114176026.788 1       618.459          31.500                                                                  
G19  22038119.007 1 115810897.147 1      1382.833          33.250                                                                  
G22  24777558.632 1                     -3110.150          24.500                                                                  
J 1  37415202.673 1 196618093.211 1       -31.555          34.750    37412871.787 1                       -23.050          28.500  
J 3  39699590.624 1 208622836.51511       307.062          28.500    39697179.694 1 155780258.457 1       229.432          29.000  
R 1  23149123.774 1 123745110.823 1     -1102.342          32.000  
R 2  21804988.700 1 116355594.716 1      2335.335          29.750  
R 3  23660647.953 1                      3516.750          22.250  
R14  20583149.162 1 109719740.618 1     -3287.218          43.000  
R15  20074574.041 1                       470.550          25.000  
R17  21016826.533 1 112465140.491 1      -736.995          36.500  
R24  22926509.287 1 122598348.005 1     -1948.226          29.000  
> 2021  5 21  6 30 18.4322055  0 23                     
E 1  25210466.467 1 132481913.171 1      1640.127          40.000    25208342.737 1                      1230.150          22.250  
E13  25358994.743 1                     -1722.250          26.750                                                                  
E21  23622979.361 1 124139433.581 1      -923.327          31.000    23620853.233 1  92693303.621 1      -689.259          34.000  
E26  23656484.466 1 124315598.070 1      -293.909          40.250    23654366.432 1  92824803.571 1      -219.030          28.250  
G 1  24309482.505 1                     -3209.750          24.500                                                                  
G 2  24227878.398 1                      1789.000          21.750                                                                  
G 3  22244656.254 1 116896564.654 1     -1817.246          39.500                                                                  
G 4  25573839.808 1 134391480.599 1      1349.164          29.000                                                                  
G 6  21620476.965 1 113616336.801 1      1002.778          32.000                                                                  
G 9  25182414.586 1                      1604.550          21.250                                                                  
G14  20187129.350 1 106084115.093 1      -561.450          34.000                                                                  
G17  21726869.411 1 114175407.545 1       620.638          32.250                                                                  
G19  22037864.213 1 115809512.968 1      1384.974          33.500                                                                  
G22  24778072.207 1                     -3108.900          24.000                                                                  
G30  23669015.191 1                     -2733.700          20.500                                                                  
J 1  37415212.297 1 196618123.474 1       -29.445          34.500    37412876.314 1 146816162.40411       -21.835          27.500  
J 3  39699540.289 1 208622528.40111       308.834          28.000    39697121.264 1 155780028.062 1       231.092          29.750  
R 1  23149349.848 1 123746541.061 1     -1100.661          31.500  
R 2  21804485.678 1 116352913.241 1      2337.002          29.250  
R14  20583758.970 1 109723026.817 1     -3285.572          42.500  
R15  20074468.544 1 107271873.34611       474.628          27.000  
R17  21016957.872 1 112465876.262 1      -734.936          37.000  
R24  22926874.764 1 122600294.82011     -1945.628          27.500  
> 2021  5 21  6 30 19.4322054  0 21                     
E 1  25210124.298 1 132480115.698 1      1638.578          40.000    25208003.266 1                      1224.100          21.750  
E13  25359296.228 1                     -1718.100          28.000                                                                  
E21  23623128.552 1 124140199.503 1      -924.701          31.000    23621000.025 1  92693875.626 1      -690.598          34.000  
E26  23656509.842 1 124315734.529 1      -295.165          40.500    23654391.209 1  92824905.516 1      -220.423          27.000  
G 1  24310088.280 1                     -3214.400          23.000                                                                  
G 3  22244967.633 1 116898224.783 1     -1819.004          39.500                                                                  
G 4  25573571.688 1 134389974.019 1      1347.920          30.250                                                                  
G 6  21620247.518 1 113615176.818 1      1001.185          33.000                                                                  
G 9  25182107.793 1                      1608.050          22.000                                                                  
G14  20187202.994 1 106084519.506 1      -563.374          34.000                                                                  
G17  21726720.608 1 114174629.586 1       619.308          32.750                                                                  
G19  22037579.605 1 115808261.543 1      1383.647          34.000                                                                  
G22  24778617.424 1                     -3107.850          23.250                                                                  
J 1  37415197.801 1 196617995.511 1       -30.652          35.500    37412853.424 1                       -24.050          28.500  
J 3  39699446.648 1 208622061.70611       308.269          28.500    39697032.120 1 155779679.476 1       230.212          29.500  
R 1  23149521.523 1 123747482.137 1     -1102.772          32.000  
R 2  21803977.424 1 116350416.53111      2334.726          28.000  
R14  20584345.857 1 109726153.037 1     -3287.422          42.250  
R15  20074365.909 1 107271239.331 1       472.174          29.500  
R17  21017084.878 1 112466450.925 1      -736.173          37.500  
R24  22927154.365 1                     -1951.700          24.750  
> 2021  5 21  6 30 20.4322054  0 24                     
E 1  25209815.257 1 132478475.622 1      1638.720          40.000    25207687.330 1                      1227.450          21.750  
E13  25359622.747 1                     -1720.900          27.750                                                                  
E21  23623300.978 1 124141122.98511      -924.878          30.250    23621175.449 1  92694565.186 1      -690.647          34.250  
E26  23656564.749 1 124316028.171 1      -294.870          40.500    23654446.416 1  92825124.767 1      -219.759          28.000  
G 1  24310688.509 1                     -3209.400          23.000                                                                  
G 2  24227184.018 1                      1790.400          20.500                                                                  
G 3  22245319.934 1 116900042.546 1     -1819.023          39.250                                                                  
G 4  25573330.700 1 134388624.543 1      1348.439          30.000                                                                  
G 6  21620061.391 1 113614174.262 1      1001.398          33.500                                                                  
G14  20187312.763 1 106085081.574 1      -563.430          34.000                                                                  
G17  21726613.627 1 114174008.610 1       619.929          33.750                                                                  
G19  22037314.933 1 115806876.187 1      1384.259          34.500                                                                  
G22  24779157.695 1                     -3116.200          21.250                                                                  
G30  23669998.150 1                     -2731.100          19.500                                                                  
J 1  37415199.945 1 196618024.633 1       -30.152          35.750    37412858.865 1 146816093.63411       -22.414          29.000  
J 3  39699409.519 1 208621751.81311       309.424          28.250    39696972.806 1 155779448.053 1       230.686          29.500  
R 1  23149721.830 1 123748583.665 1     -1102.855          30.500  
R 2  21803553.263 1 116348081.23311      2335.342          26.500  
R 3  23658546.977 1                      3523.400          21.250  
R14  20584966.773 1 109729439.034 1     -3287.279          41.500  
R15  20074288.008 1 107270765.856 1       472.077          29.250  
R17  21017227.924 1 112467185.485 1      -735.651          37.500  
R18  22346267.849 1                       778.750          18.000  
R24  22927545.039 1                     -1944.550          25.750  
> 2021  5 21  6 30 21.4322054  0 19                     
E 1  25209503.977 1 132476838.689 1      1636.936          41.000    25207374.251 1                      1222.600          21.000  
E13  25359948.826 1 133267430.62411     -1722.950          29.500                                                                  
E21  23623482.557 1 124142049.64811      -926.311          31.000    23621351.032 1  92695257.191 1      -691.683          33.000  
E26  23656622.514 1 124316324.789 1      -296.527          41.000    23654504.181 1  92825346.206 1      -221.293          25.250  
G 3  22245661.902 1 116901863.709 1     -1821.193          40.500                                                                  
G 4  25573043.704 1 134387277.767 1      1347.013          31.500                                                                  
G 6  21619873.027 1 113613174.925 1       999.361          34.500                                                                  
G 9  25181499.464 1                      1600.750          21.750                                                                  
G14  20187419.394 1 106085647.104 1      -565.667          34.750                                                                  
G17  21726486.420 1 114173390.490 1       618.276          34.000                                                                  
G19  22037056.716 1 115805493.675 1      1382.666          35.250                                                                  
J 1  37415200.749 1 196618056.663 1       -31.895          36.000    37412865.366 1                       -24.600          27.500  
J 3  39699338.973 1 208621444.05711       307.313          28.750    39696914.851 1 155779218.658 1       229.564          28.750  
R 1  23149927.092 1 123749688.754 1     -1105.185          30.500  
R 2  21803068.103 1                      2330.150          24.000  
R14  20585580.353 1 109732728.385 1     -3289.495          41.500  
R15  20074206.669 1 107270296.13311       469.499          28.750  
R17  21017366.333 1 112467922.979 1      -737.406          36.750  
R18  22346133.447 1                       778.750          21.000  
> 2021  5 21  6 30 22.4322053  0 21                     
E 1  25209163.998 1 132475047.035 1      1635.489          40.750                                                                  
E13  25360241.109 1                     -1724.500          27.500                                                                  
E21  23623627.642 1 124142821.69811      -927.568          29.000    23621497.616 1  92695833.769 1      -693.691          31.250  
E26  23656650.081 1 124316466.365 1      -297.619          40.750    23654529.049 1                      -221.900          23.000  
G 1  24312014.381 1                     -3212.200          25.000                                                                  
G 2  24226558.841 1                      1784.850          21.000                                                                  
G 3  22245995.257 1 116903530.347 1     -1822.799          39.500                                                                  
G 4  25572736.402 1 134385775.962 1      1345.854          31.500                                                                  
G 6  21619661.359 1 113612020.739 1       998.075          32.000                                                                  
G14  20187490.730 1 106086058.035 1      -567.048          35.250                                                                  
G17  21726344.004 1 114172617.171 1       617.494          33.500                                                                  
G19  22036754.511 1 115803956.031 1      1381.681          33.250                                                                  
G22  24780249.729 1                     -3112.050          22.250                                                                  
J 1  37415185.145 1 196617933.541 1       -32.711          35.000    37412840.168 1 146816020.66211       -24.410          24.000  
J 3                                                                  39696827.297 1 155778873.313 1       229.071          28.250  
R 1  23150111.450 1 123750636.820 1     -1106.977          31.750  
R 3  23657198.701 1                      3518.600          19.500  
R14  20586168.231 1 109735860.890 1     -3290.833          40.000  
R15  20074107.124 1                       470.450          25.500  
R17  21017459.554 1 112468502.502 1      -738.225          37.500  
R24  22928320.193 1                     -1949.200          28.500  
> 2021  5 21  6 30 23.4322053  0 21                     
E 1  25208853.690 1 132473410.614 1      1636.401          40.000    25206724.864 1                      1221.100          19.500  
E13  25360570.858 1                     -1722.050          28.000                                                                  
E21  23623804.497 1                      -928.150          28.500    23621675.970 1  92696526.264 1      -692.096          30.500  
E26  23656708.218 1 124316763.035 1      -296.670          40.500    23654582.689 1  92825662.54011      -221.317          23.250  
G 2  24226226.948 1                      1789.350          22.000                                                                  
G 3  22246330.102 1 116905352.417 1     -1822.205          39.500                                                                  
G 4  25572494.747 1 134384429.087 1      1347.129          31.000                                                                  
G 6  21619461.075 1 113611021.949 1       998.800          31.500                                                                  
G 9  25180798.212 1                      1609.050          21.250                                                                  
G14  20187604.928 1 106086624.528 1      -566.598          34.500                                                                  
G17  21726220.467 1 114171998.793 1       618.559          32.250                                                                  
G19  22036490.971 1 115802573.318 1      1382.949          32.750                                                                  
G22  24780812.117 1                     -3113.200          22.500                                                                  
J 1  37415183.923 1 196617965.453 1       -31.674          34.500    37412843.444 1                       -22.450          25.250  
J 3  39699234.908 1                       304.300          25.750    39696767.016 1 155778643.560 1       229.966          28.500  
R 1  23150328.477 1 123751743.169 1     -1106.448          32.500  
R 2  21802192.073 1                      2328.550          21.500  
R14  20586787.280 1 109739151.066 1     -3290.232          40.000  
R15  20073984.186 1                       468.100          23.000  
R17  21017610.327 1 112469239.738 1      -737.004          36.500  
R24  22928839.411 1 122610808.57311     -1947.282          31.750  
> 2021  5 21  6 30 24.4322053  0 21                     
E 1  25208543.822 1 132471773.689 1      1636.090          40.000                                                                  
E13  25360904.045 1                     -1722.400          28.500                                                                  
E21  23623979.993 1                      -929.350          28.000    23621850.867 1  92697218.547 1      -692.729          31.000  
E26  23656764.996 1 124317058.941 1      -296.669          40.000    23654642.466 1  92825883.605 1      -221.465          23.250  
G 1  24313271.506 1                     -3211.450          26.750                                                                  
G 2  24225958.452 1                      1780.250          22.250                                                                  
G 3  22246672.883 1 116907174.247 1     -1822.643          40.000                                                                  
G 4  25572214.558 1 134383081.365 1      1347.107          31.000                                                                  
G 6  21619254.635 1 113610022.78911       998.541          30.000                                                                  
G 9  25180467.659 1                      1610.050          23.500                                                                  
G14  20187703.677 1 106087190.803 1      -567.097          35.000                                                                  
G17  21726112.959 1 114171379.602 1       618.662          32.250                                                                  
G19  22036220.376 1 115801189.835 1      1382.943          32.750                                                                  
G22  24781397.130 1                     -3110.050          23.500                                                                  
J 1  37415175.047 1 196617996.587 1       -31.676          34.500    37412852.855 1 146816069.66711       -23.562          27.250  
J 3  39699169.970 1                       309.150          25.500    39696709.274 1 155778413.040 1       230.098          26.500  
R 1  23150539.649 1 123752849.402 1     -1107.099          32.000  
R 2  21801685.841 1                      2325.550          25.000  
R14  20587398.674 1 109742440.943 1     -3290.667          39.250  
R17  21017727.364 1 112469976.118 1      -736.902          34.750  
R24  22929191.485 1 122612755.076 1     -1947.092          31.750  
> 2021  5 21  6 30 25.4322052  0 23                     
E 1  25208199.940 1 132469978.099 1      1635.955          39.500    25206072.612 1                      1225.800          20.500  
E13  25361370.802 1                     -1722.300          27.500                                                                  
E21  23624132.267 1 124145652.53811      -928.032          29.000    23621996.845 1  92697792.303 1      -692.651          31.000  
E26  23656790.158 1 124317195.938 1      -296.530          40.500    23654667.028 1                      -229.100          22.000  
G 1  24313832.997 1 127770054.01411     -3210.292          28.750                                                                  
G 2  24225624.163 1                      1785.750          23.000                                                                  
G 3  22247000.835 1 116908837.575 1     -1822.962          39.250                                                                  
G 4  25571937.829 1 134381574.556 1      1347.302          31.750                                                                  
G 6  21619044.161 1 113608865.33911       997.738          27.500                                                                  
G 9  25180120.179 1                      1605.750          24.000                                                                  
G14  20187787.599 1 106087598.627 1      -567.488          35.500                                                                  
G17  21725939.958 1 114170601.317 1       619.043          30.500                                                                  
G19  22035925.360 1 115799647.301 1      1383.163          32.500                                                                  
G22  24781960.719 1                     -3108.200          23.750                                                                  
J 1  37415149.544 1 196617868.668 1       -31.501          35.250    37412829.151 1                       -25.400          28.000  
J 3  39699072.517 1                       306.100          25.250    39696619.915 1                       228.200          26.750  
R 1  23150725.799 1 123753794.594 1     -1107.502          32.000  
R 2  21801284.398 1                      2333.350          24.000  
R 3  23655107.123 1                      3520.500          20.000  
R14  20587979.352 1 109745570.018 1     -3290.997          39.000  
R15  20073858.071 1                       463.700          23.000  
R17  21017844.862 1 112470550.481 1      -736.661          33.750  
R24  22929485.561 1 122614263.643 1     -1946.724          33.000  
> 2021  5 21  6 30 26.4322052  0 22                     
E 1  25207890.303 1 132468344.984 1      1634.542          40.000                                                                  
E13  25361692.228 1                     -1718.800          25.750                                                                  
E21  23624301.399 1 124146583.368 1      -929.419          29.750    23622173.772 1  92698487.518 1      -693.947          32.500  
E26  23656847.768 1 124317495.220 1      -297.799          40.750    23654726.736 1                      -219.300          22.250  
G 1  24314443.124 1 127773268.63711     -3213.066          30.500                                                                  
G 2  24225274.654 1                      1784.800          21.250                                                                  
G 3  22247336.952 1 116910663.639 1     -1824.719          40.000                                                                  
G 4  25571677.958 1 134380229.942 1      1346.273          30.250                                                                  
G 6  21618837.653 1 113607869.998 1       996.803          27.250                                                                  
G 9  25179846.817 1                      1602.500          22.250                                                                  
G14  20187896.473 1 106088169.191 1      -569.183          36.500                                                                  
G17  21725828.185 1 114169985.161 1       617.982          29.250                                                                  
G19  22035660.692 1 115798266.894 1      1382.016          32.500                                                                  
G22  24782549.261 1                     -3110.500          23.000                                                                  
J 1  37415151.092 1 196617902.950 1       -32.628          35.000    37412836.395 1 146816005.85011       -24.360          27.750  
J 3  39699020.103 1                       306.050          25.500    39696561.805 1 155777834.55811       229.655          27.750  
R 1  23150936.902 1 123754905.428 1     -1109.567          32.500  
R 2  21800889.321 1 116333722.18011      2330.045          27.250  
R14  20588599.971 1 109748864.115 1     -3292.686          39.250  
R15  20073736.404 1                       468.300          25.500  
R17  21017966.027 1 112471290.078 1      -737.880          34.000  
R24  22929863.948 1 122616213.060 1     -1947.621          33.250  
> 2021  5 21  6 30 27.4322052  0 19                     
E 1  25207581.054 1 132466709.282 1      1634.932          38.250                                                                  
E21  23624486.207 1 124147511.94111      -929.299          29.000    23622351.385 1  92699180.839 1      -693.475          32.500  
E26  23656906.064 1 124317791.701 1      -296.986          39.250    23654781.434 1  92826442.64811      -221.690          24.500  
G 1  24315051.539 1 127776483.92511     -3218.288          29.500                                                                  
G 2  24224991.186 1                      1783.400          22.000                                                                  
G 3  22247679.751 1 116912487.374 1     -1824.486          38.750                                                                  
G 4  25571424.470 1 134378882.520 1      1347.031          30.750                                                                  
G 6  21618679.498 1 113606872.034 1       997.341          28.000                                                                  
G14  20188017.725 1 106088737.477 1      -568.994          33.750                                                                  
G17  21725703.607 1 114169366.066 1       618.641          28.750                                                                  
G19  22035399.110 1 115796883.08411      1382.778          29.750                                                                  
J 1  37415150.329 1 196617934.363 1       -31.847          33.750    37412842.227 1                       -24.350          29.250  
J 3  39698940.494 1                       311.100          25.500    39696502.282 1                       231.300          29.000  
R 1  23151127.707 1 123756014.013 1     -1109.297          32.500  
R 2  21800495.230 1 116331390.71711      2330.213          27.250  
R14  20589221.278 1 109752155.779 1     -3292.267          39.000  
R15  20073607.330 1                       461.950          26.250  
R17  21018131.949 1 112472026.673 1      -737.155          32.000  
R24  22930215.441 1 122618159.416 1     -1946.731          32.500  
> 2021  5 21  6 30 28.4322051  0 22                     
E 1  25207238.189 1 132464917.200 1      1634.861          38.750    25205106.364 1                      1220.350          20.250  
E13  25362166.434 1                     -1726.200          20.500                                                                  
E21  23624629.606 1                      -929.950          27.750    23622497.782 1  92699757.497 1      -693.639          32.500  
E26  23656931.644 1 124317931.596 1      -296.978          40.000    23654807.014 1  92826547.176 1      -221.586          24.000  
G 1  24315629.636 1 127779541.90511     -3215.832          30.000                                                                  
G 2  24224539.797 1                      1778.000          22.000                                                                  
G 3  22248000.027 1 116914154.896 1     -1824.783          38.750                                                                  
G 4  25571137.067 1 134377378.172 1      1347.447          32.250                                                                  
G 6  21618453.852 1 113605717.86511       996.750          26.000                                                                  
G14  20188089.173 1 106089149.552 1      -569.288          34.500                                                                  
G17  21725553.209 1 114168590.232 1       618.989          31.250                                                                  
G19  22035105.111 1 115795343.041 1      1383.018          28.500                                                                  
G22  24783700.398 1                     -3109.250          20.000                                                                  
J 1  37415118.649 1 196617809.079 1       -31.615          34.000    37412817.442 1 146815930.66511       -23.516          28.000  
J 3  39698852.453 1                       306.600          25.500    39696414.840 1 155777257.30111       230.627          27.750  
R 1  23151322.669 1 123756963.897 1     -1109.895          33.500  
R 2  21800016.259 1 116328901.00111      2331.093          27.500  
R 3  23653257.087 1                      3521.850          20.500  
R14  20589820.061 1 109755288.933 1     -3292.529          39.500  
R15  20073518.988 1 107266799.21111       463.914          28.250  
R17  21018221.984 1 112472603.620 1      -736.619          31.000  
R24  22930509.335 1 122619946.093 1     -1946.326          32.500  
> 2021  5 21  6 30 29.4322051  0 20                     
E 1  25206928.380 1 132463281.349 1      1635.246          39.000                                                                  
E13  25362502.978 1                     -1726.050          21.250                                                                  
E21  23624807.859 1                      -929.700          28.500    23622675.735 1  92700450.841 1      -693.325          30.250  
E26  23656985.783 1 124318227.447 1      -296.246          40.250    23654861.753 1                      -214.650          22.750  
G 1  24316226.100 1 127782753.88911     -3208.649          30.250                                                                  
G 3  22248343.766 1 116915978.857 1     -1824.514          39.000                                                                  
G 4  25570883.619 1 134376029.795 1      1348.224          32.750                                                                  
G 6  21618266.959 1 113604720.19211       998.462          26.250                                                                  
G 9  25179030.893 1                      1603.650          19.500                                                                  
G14  20188199.674 1 106089718.161 1      -569.083          35.250                                                                  
G17  21725445.760 1 114167970.278 1       619.662          32.250                                                                  
G19  22034875.047 1 115793958.833 1      1383.902          29.500                                                                  
J 1  37415123.023 1 196617839.736 1       -31.031          33.500    37412824.214 1                       -22.100          28.250  
J 3  39698804.063 1                       307.750          23.500    39696356.258 1                       231.150          28.250  
R 1  23151527.904 1 123758073.010 1     -1109.813          33.250  
R 2  21799586.534 1 116326569.111 1      2331.399          27.750  
R14  20590420.422 1 109758580.724 1     -3292.246          39.500  
R15  20073397.749 1 107266334.64811       463.769          29.750  
R17  21018366.361 1 112473339.220 1      -735.919          32.250  
R24  22930889.649 1 122621891.194 1     -1945.347          33.250  
> 2021  5 21  6 30 30.4322051  0 22                     
E 1  25206614.308 1 132461647.728 1      1636.935          39.500    25204486.981 1                      1222.800          21.500  
E13  25362832.860 1                     -1718.400          23.000                                                                  
E21  23624982.449 1                      -927.800          28.500    23622852.124 1  92701145.998 1      -692.798          30.500  
E26  23657042.554 1 124318525.402 1      -294.495          41.000    23654919.424 1  92826984.52711      -219.732          24.000  
G 1  24316838.387 1 127785964.12911     -3206.325          32.250                                                                  
G 2  24223984.269 1                      1783.100          19.500                                                                  
G 3  22248688.638 1 116917805.385 1     -1823.207          39.500                                                                  
G 4  25570623.810 1 134374683.403 1      1350.076          32.500                                                                  
G 6  21618083.596 1 113603724.42311       999.107          27.750                                                                  
G 9  25178606.498 1                      1604.600          20.500                                                                  
G14  20188307.710 1 106090289.371 1      -567.826          35.500                                                                  
G17  21725331.350 1 114167352.268 1       621.658          33.000                                                                  
G19  22034618.535 1 115792577.146 1      1385.772          31.500                                                                  
G22  24784919.641 1                     -3113.800          21.000                                                                  
J 1  37415126.731 1 196617872.376 1       -29.117          34.250    37412830.021 1 146815980.94211       -21.648          28.250  
J 3  39698759.205 1                       313.100          25.000    39696294.611 1 155776785.95511       232.897          27.500  
R 1  23151709.389 1 123759184.887 1     -1108.479          32.750  
R 2  21799151.046 1 116324239.574 1      2333.173          28.000  
R14  20591041.403 1 109761875.002 1     -3290.799          40.000  
R15  20073362.784 1 107265873.14111       464.714          27.750  
R17  21018516.968 1 112474076.923 1      -733.959          31.750  
R24  22931223.429 1 122623556.141 1     -1943.208          34.250  
> 2021  5 21  6 30 31.4322050  0 22                     
E 1  25206271.376 1 132459850.218 1      1638.569          39.000    25204142.550 1                      1232.200          22.000  
E13  25363112.597 1                     -1713.150          22.250                                                                  
E21  23625133.575 1                      -925.450          28.750    23622998.153 1  92701718.790 1      -691.269          30.500  
E26  23657067.767 1 124318659.186 1      -292.708          40.500    23654941.639 1  92827084.463 1      -218.301          23.250  
G 1  24317414.918 1 127789008.94111     -3204.052          31.500                                                                  
G 3  22249010.345 1 116919468.123 1     -1821.836          38.250                                                                  
G 4  25570354.626 1 134373172.687 1      1351.875          32.250                                                                  
G 6  21617873.472 1 113602564.33311      1000.608          28.500                                                                  
G 9  25178304.937 1                      1605.850          22.000                                                                  
G14  20188378.491 1 106090696.828 1      -566.594          35.000                                                                  
G17  21725191.377 1 114166569.942 1       623.527          33.750                                                                  
G19  22034317.574 1 115791030.702 1      1387.580          31.000                                                                  
G22  24785467.692 1                     -3108.150          21.000                                                                  
G30  23675641.709 1                     -2724.700          14.750                                                                  
J 1  37415107.275 1 196617740.746 1       -27.219          33.750    37412805.168 1                       -19.500          28.000  
J 3  39698686.086 1                       311.400          25.000    39696206.802 1                       232.900          26.250  
R 1  23151877.303 1 123760130.293 1     -1107.310          31.000  
R 2  21798730.168 1 116322200.24511      2334.389          27.750  
R14  20591638.620 1 109765003.130 1     -3289.527          39.750  
R15  20073203.025 1 107265245.67211       466.045          28.000  
R17  21018608.734 1 112474647.251 1      -732.089          30.500  
R24  22931572.117 1 122625335.668 1     -1941.066          34.000  
> 2021  5 21  6 30 32.4322050  0 21                     
E 1  25205961.011 1 132458214.882 1      1634.719          39.500                                                                  
E13  25363451.882 1                     -1718.300          24.750                                                                  
E21  23625309.773 1 124151840.96011      -930.289          28.750    23623174.951 1  92702412.755 1      -694.516          30.500  
E26  23657127.946 1 124318954.890 1      -296.277          40.750    23655002.417 1                      -223.950          22.500  
G 1  24318039.906 1 127792215.53211     -3206.764          31.500                                                                  
G 2  24223262.019 1                      1784.000          20.000                                                                  
G 3  22249359.523 1 116921293.278 1     -1825.901          38.500                                                                  
G 4  25570088.630 1 134371823.810 1      1348.393          32.500                                                                  
G 6  21617683.623 1 113601566.934 1       996.590          29.250                                                                  
G 9  25177980.481 1                      1605.850          21.000                                                                  
G14  20188487.535 1 106091266.742 1      -570.754          34.500                                                                  
G17  21725076.477 1 114165949.447 1       619.874          34.250                                                                  
G19  22034041.985 1 115789646.080 1      1384.196          31.500                                                                  
J 1  37415113.191 1 196617770.978 1       -30.878          33.250    37412810.485 1 146815904.20011       -22.988          28.250  
J 3                                                                  39696147.963 1 155776210.05911       231.598          27.000  
R 1  23152072.988 1 123761241.069 1     -1111.731          30.750  
R 2  21798260.912 1 116319869.52711      2330.554          27.000  
R14  20592253.114 1 109768295.956 1     -3293.700          39.500  
R15  20073139.989 1 107264784.29611       460.715          26.750  
R17  21018698.892 1 112475382.428 1      -735.678          29.500  
R24  22931928.491 1 122627279.772 1     -1944.605          34.500  
> 2021  5 21  6 30 33.4322050  0 23                     
E 1  25205647.543 1 132456578.456 1      1634.024          39.000    25203520.516 1                      1225.550          20.000  
E13  25363758.086 1                     -1724.900          24.500                                                                  
E21  23625487.965 1 124152769.237 1      -931.086          29.000    23623352.243 1  92703105.954 1      -694.850          30.000  
E26  23657179.026 1 124319249.343 1      -296.806          40.250                                                                  
G 1  24318641.405 1 127795419.55811     -3206.286          31.000                                                                  
G 2  24222916.174 1                      1781.700          21.750                                                                  
G 3  22249705.000 1 116923117.609 1     -1826.812          37.500                                                                  
G 4  25569831.524 1 134370473.06211      1347.997          31.250                                                                  
G 6  21617483.777 1 113600568.61111       996.059          29.000                                                                  
G14  20188590.480 1 106091835.854 1      -571.612          34.500                                                                  
G17  21724962.072 1 114165327.553 1       619.647          34.750                                                                  
G19  22033778.283 1 115788260.101 1      1383.872          30.750                                                                  
G22  24786687.883 1                     -3114.450          19.500                                                                  
G30  23676696.714 1                     -2730.650          19.000                                                                  
J 1  37415133.092 1 196617799.916 1       -31.298          33.000    37412816.896 1                       -23.550          27.750  
J 3  39698566.204 1                       310.700          23.000    39696088.120 1                       230.400          26.750  
R 1  23152265.270 1 123762350.60711     -1112.728          28.750  
R 2  21797865.901 1 116317537.343 1      2329.835          28.000  
R14  20592870.203 1 109771587.898 1     -3294.423          39.500  
R15  20073057.062 1 107264320.96911       459.610          27.000  
R17  21018832.715 1 112476116.140 1      -735.937          29.000  
R18  22344366.567 1                       784.050          11.750  
R24  22932291.055 1 122629222.313 1     -1944.796          35.000  
> 2021  5 21  6 30 34.4322049  0 21                     
E 1  25205308.301 1 132454789.236 1      1634.218          39.250    25203180.074 1                      1218.300          21.500  
E13  25364070.892 1                     -1722.500          26.000                                                                  
E21  23625628.091 1                      -927.250          27.250    23623498.964 1  92703685.135 1      -695.031          28.750  
E26  23657206.729 1 124319390.714 1      -296.376          40.500    23655081.500 1                      -220.750          21.000  
G 1  24319233.617 1 127798471.82111     -3207.574          31.250                                                                  
G 2  24222536.459 1                      1783.100          21.500                                                                  
G 3  22250026.200 1 116924789.324 1     -1826.820          38.000                                                                  
G 4  25569546.544 1 134368969.609 1      1348.594          31.500                                                                  
G 6  21617268.949 1 113599417.365 1       996.202          29.000                                                                  
G14  20188671.246 1 106092252.400 1      -571.702          34.500                                                                  
G17  21724825.189 1 114164552.471 1       620.233          35.750                                                                  
G19  22033484.009 1 115786720.886 1      1384.280          31.250                                                                  
G22  24787254.613 1                     -3112.600          23.500                                                                  
J 1  37415122.422 1 196617675.642 1       -30.584          33.750    37412792.435 1 146815833.06011       -22.939          27.500  
J 3  39698444.611 1 208616734.10111       311.088          25.750    39696000.103 1 155775630.36611       232.063          27.250  
R 1  23152435.375 1 123763035.08511     -1112.755          28.250  
R 2  21797401.046 1 116315050.04711      2329.907          27.500  
R14  20593456.119 1 109774724.946 1     -3294.416          39.500  
R15  20072872.512 1                       460.050          24.750  
R17  21018898.492 1 112476370.80911      -735.396          28.000  
R24  22932617.652 1 122631008.841 1     -1944.116          35.500  
> 2021  5 21  6 30 35.4322049  0 21                     
E 1  25204993.467 1 132453154.715 1      1634.327          40.500                                                                  
E13  25364398.214 1                     -1719.050          27.000                                                                  
E21  23625805.816 1                      -930.300          28.500    23623676.390 1  92704379.874 1      -694.302          28.500  
E26  23657263.339 1 124319686.621 1      -295.972          42.000    23655140.508 1                      -221.800          21.500  
G 1  24319840.646 1 127801678.80211     -3206.145          32.000                                                                  
G 2  24222236.916 1                      1786.450          22.000                                                                  
G 3  22250372.709 1 116926615.981 1     -1826.864          39.000                                                                  
G 4  25569300.963 1 134367620.534 1      1349.109          32.250                                                                  
G 6  21617083.026 1 113598420.852 1       996.533          30.500                                                                  
G14  20188777.621 1 106092823.878 1      -571.689          36.500                                                                  
G17  21724710.617 1 114163931.715 1       620.862          36.250                                                                  
G19  22033229.434 1 115785336.119 1      1384.810          32.500                                                                  
G22  24787816.373 1                     -3111.550          24.250                                                                  
J 1  37415146.354 1 196617705.825 1       -30.088          36.750    37412798.380 1                       -25.400          24.500  
J 3  39698427.172 1                       310.950          24.000    39695940.993 1                       230.800          25.500  
R 1  23152602.308 1 123764147.25811     -1112.695          28.250  
R 2  21796972.291 1                      2329.350          25.750  
R14  20594080.836 1 109778019.098 1     -3294.203          40.500  
R15  20072754.343 1                       460.950          25.000  
R17  21019092.406 1 112477408.693 1      -734.873          32.000  
R24  22932956.366 1 122632952.310 1     -1943.306          38.000  
> 2021  5 21  6 30 36.4322049  0 20                     
E 1  25204683.957 1 132451521.272 1      1634.229          37.000    25202556.929 1                      1222.600          20.750  
E13  25364734.456 1                     -1721.450          22.500                                                                  
E21  23625987.366 1                      -930.300          27.750    23623854.043 1  92705075.539 1      -694.907          33.250  
E26  23657322.273 1 124319983.336 1      -295.744          38.750    23655196.445 1                      -222.050          25.000  
G 1  24320453.897 1 127804885.34911     -3204.963          28.500                                                                  
G 3  22250745.526 1 116928443.894 1     -1827.172          35.000                                                                  
G 4  25569034.622 1 134366272.694 1      1349.433          30.000                                                                  
G 6  21616876.944 1 113597426.01711       996.343          29.000                                                                  
G 9  25176766.384 1                      1604.750          23.500                                                                  
G14  20188883.323 1 106093396.714 1      -572.036          32.000                                                                  
G17  21724591.774 1 114163311.689 1       621.195          32.750                                                                  
G19  22032945.406 1 115783952.093 1      1385.107          30.000                                                                  
J 1  37415161.219 1 196617736.774 1       -29.894          32.750    37412802.752 1 146815873.64711       -22.200          30.000  
J 3  39698325.118 1                       313.000          24.250    39695881.809 1 155775165.92111       232.936          28.750  
R 1  23152763.472 1                     -1114.850          23.500  
R 2  21796578.239 1                      2328.950          23.750  
R14  20594693.787 1 109781314.479 1     -3294.463          37.750  
R17  21019246.375 1 112478144.417 1      -734.371          30.250  
R18  22343817.893 1                       784.500          19.500  
R24  22933335.479 1 122634896.353 1     -1942.860          34.500  
> 2021  5 21  6 30 37.4322048  0 19                     
E 1  25204343.243 1 132449726.898 1      1634.035          36.000                                                                  
E21  23626132.316 1                      -930.750          26.250    23624000.491 1  92705651.096 1      -695.319          32.500  
E26  23657346.107 1 124320118.949 1      -295.883          37.250    23655222.377 1  92828172.54711      -220.835          26.750  
G 1  24321026.351 1 127807928.70111     -3200.483          26.750                                                                  
G 2  24221516.540 1                      1783.750          18.750                                                                  
G 3  22251098.532 1 116930111.176 1     -1827.701          34.000                                                                  
G 4  25568754.167 1 134364763.207 1      1349.376          30.500                                                                  
G 6  21616667.539 1 113596269.32111       995.881          28.000                                                                  
G 9  25176409.181 1                      1604.700          21.250                                                                  
G14  20188954.824 1 106093808.917 1      -572.578          30.750                                                                  
G17  21724439.930 1 114162530.512 1       621.150          31.500                                                                  
G19  22032660.753 1 115782406.26811      1385.202          28.000                                                                  
J 1  37415154.174 1 196617961.543 1       -29.927          32.250    37412778.319 1 146815776.422 1       -22.363          29.250  
J 3  39698229.334 1                       309.300          21.250    39695792.022 1                       233.750          29.500  
R 1  23152877.543 1                     -1115.900          21.500  
R 2  21795997.392 1                      2334.550          22.000  
R14  20595281.230 1 109784446.818 1     -3295.070          36.250  
R17  21019339.761 1 112478715.92111      -734.582          30.250  
R24  22933634.522 1 122636676.137 1     -1942.633          32.500  
> 2021  5 21  6 30 38.4322048  0 19                     
E 1  25204030.645 1 132448094.174 1      1632.588          36.000                                                                  
E21  23626318.572 1                      -935.100          26.250    23624177.755 1  92706347.421 1      -696.371          31.250  
E26  23657401.354 1 124320415.977 1      -297.044          37.750    23655280.023 1  92828394.310 1      -221.622          25.750  
G 3  22251450.574 1 116931940.278 1     -1829.477          33.000                                                                  
G 4  25568497.330 1 134363414.43511      1348.265          28.750                                                                  
G 6  21616482.053 1 113595274.82111       994.275          27.000                                                                  
G 9  25176098.682 1                      1605.150          21.250                                                                  
G14  20189070.929 1 106094382.994 1      -574.328          30.500                                                                  
G17  21724322.497 1 114161910.479 1       620.086          30.250                                                                  
G19  22032382.332 1 115781022.37011      1383.823          26.750                                                                  
G22  24789475.835 1                     -3112.750          19.000                                                                  
J 1  37415173.747 1 196617992.601 1       -31.100          32.500    37412785.000 1 146815799.60011       -23.232          29.000  
J 3  39698177.556 1                       307.650          22.750    39695733.048 1 155774582.34211       232.236          29.000  
R 1  23153153.138 1                     -1113.750          21.750  
R14  20595906.383 1 109787743.266 1     -3296.677          36.500  
R15  20072528.110 1                       459.550          21.250  
R17  21019478.051 1 112479451.611 1      -735.654          30.250  
R18  22343478.164 1                       782.500          19.000  
R24  22933982.966 1 122638312.847 1     -1943.642          32.500  
> 2021  5 21  6 30 39.4322048  0 19                     
E 1  25203722.878 1 132446461.095 1      1631.965          36.250    25201594.951 1                      1219.450          20.250  
E13  25365656.373 1                     -1725.200          19.500                                                                  
E21  23626482.678 1                      -933.600          26.250    23624356.250 1  92707043.555 1      -696.458          31.750  
E26  23657460.233 1 124320712.391 1      -297.428          37.500    23655336.203 1  92828615.681 1      -222.026          26.500  
G 1  24322279.688 1                     -3206.900          25.500                                                                  
G 3  22251819.438 1 116934100.25211     -1830.203          33.000                                                                  
G 4  25568242.926 1 134362065.43111      1347.940          26.500                                                                  
G 6  21616294.802 1 113594279.918 1       993.746          27.500                                                                  
G 9  25175777.424 1                      1607.050          21.000                                                                  
G14  20189179.574 1 106094956.988 1      -575.261          31.500                                                                  
G17  21724223.385 1 114161563.744 1       619.884          29.000                                                                  
G19  22032126.428 1 115779637.61511      1383.693          28.500                                                                  
G22  24790128.603 1                     -3110.550          23.000                                                                  
J 1  37415195.151 1 196618022.980 1       -31.257          32.750    37412790.216 1 146815822.316 1       -23.318          28.500  
J 3                                                                  39695673.809 1                       234.350          28.500  
R14  20596509.685 1 109791039.508 1     -3297.412          36.000  
R15  20072447.586 1                       458.450          26.500  
R17  21019625.668 1 112480186.579 1      -735.900          31.500  
R24  22934336.241 1 122640255.694 1     -1943.750          31.500  
> 2021  5 21  6 30 40.4322047  0 20                     
E 1  25203380.182 1 132444673.035 1      1632.372          39.000                                                                  
E21  23626640.636 1 124158574.85511      -933.008          29.000    23624503.416 1  92707624.026 1      -696.605          32.500  
E26  23657485.983 1 124320853.608 1      -296.683          39.000    23655362.853 1  92828721.217 1      -221.455          28.500  
G 2  24220464.141 1                      1780.350          18.000                                                                  
G 3  22252133.288 1 116935774.492 1     -1829.898          33.500                                                                  
G 4  25567955.992 1 134360561.74411      1347.906          28.500                                                                  
G 6  21616096.008 1 113593130.19811       994.359          28.500                                                                  
G 9  25175430.532 1                      1608.500          21.250                                                                  
G14  20189265.582 1 106095376.250 1      -574.841          34.500                                                                  
G17  21724052.771 1 114160787.21211       620.840          27.500                                                                  
G19  22031819.708 1 115778097.703 1      1384.688          27.750                                                                  
G22  24790681.388 1                     -3116.250          23.000                                                                  
J 1  37415156.146 1 196617898.102 1       -30.362          34.750    37412767.699 1 146815729.108 1       -22.752          28.750  
J 3                                                                  39695584.438 1 155773998.83411       232.838          28.500  
R 1  23153619.402 1                     -1118.500          24.000  
R 2  21794564.257 1                      2323.600          20.500  
R14  20597097.246 1 109794178.768 1     -3296.948          35.500  
R15  20072287.764 1 107260219.27211       455.469          27.000  
R17  21019721.569 1 112480763.354 1      -734.857          32.500  
R24  22934705.553 1 122642040.358 1     -1942.712          31.500  
> 2021  5 21  6 30 41.4322047  0 18                     
E 1  25203071.155 1 132443039.368 1      1634.185          36.000                                                                  
E21  23626819.672 1                      -929.300          26.000    23624680.053 1  92708319.810 1      -694.869          33.750  
E26  23657538.505 1 124321148.996 1      -294.701          38.000    23655418.973 1  92828941.721 1      -219.869          28.500  
G 3  22252431.940 1 116937318.287 1     -1828.410          31.500                                                                  
G 4  25567683.540 1 134359211.339 1      1351.489          27.250                                                                  
G 6  21615896.105 1 113592134.77311       996.443          28.000                                                                  
G 9  25175122.704 1                      1608.450          21.000                                                                  
G14  20189379.862 1 106095950.155 1      -573.221          30.500                                                                  
G17  21723911.927 1 114160165.23011       622.134          26.000                                                                  
G19  22031562.545 1 115776711.804 1      1386.422          27.500                                                                  
J 1  37415152.308 1 196617927.191 1       -28.016          33.000    37412772.855 1 146815750.786 1       -21.118          31.500  
J 3  39697991.231 1                       313.150          23.500    39695525.438 1 155773764.930 1       234.417          30.500  
R 1  23153880.581 1                     -1114.250          24.250  
R14  20597723.871 1 109797474.602 1     -3295.051          35.500  
R15  20072260.842 1                       459.300          24.750  
R17  21019860.432 1 112481497.127 1      -733.153          30.750  
R18  22342980.055 1                       778.250          18.250  
R24  22935095.342 1 122644261.59311     -1940.629          28.500  
> 2021  5 21  6 30 42.4322047  0 21                     
E 1  25202763.369 1 132441407.619 1      1630.007          38.500    25200636.342 1                      1218.100          20.250  
E13  25366785.819 1                     -1722.350          24.000    25364507.096 1                     -1289.750          23.250  
E21                                                                  23624857.031 1  92709016.011 1      -695.557          34.250  
E26  23657596.766 1 124321445.936 1      -298.377          38.500    23655476.634 1  92829163.476 1      -223.120          24.250  
G 1  24324080.069 1                     -3202.350          21.500                                                                  
G 3  22252753.718 1 116939148.72711     -1833.613          32.500                                                                  
G 4  25567440.509 1                      1350.600          25.000                                                                  
G 6  21615707.936 1 113591139.04611       996.168          30.500                                                                  
G 9  25174814.618 1                      1609.150          20.750                                                                  
G14  20189483.091 1 106096525.079 1      -575.469          31.000                                                                  
G17  21723798.407 1 114159545.46711       617.753          30.750                                                                  
G19  22031307.822 1 115775327.41111      1382.502          29.000                                                                  
G22  24791927.485 1                     -3117.150          23.500                                                                  
J 1  37415116.133 1 196617956.187 1       -27.977          35.750    37412778.652 1 146815772.471 1       -20.863          32.500  
J 3  39697810.257 1                       310.200          25.000    39695465.281 1 155773532.035 1       231.784          31.000  
R 1  23154019.185 1                     -1110.900          23.750  
R 2  21793794.549 1                      2327.300          22.000  
R14  20598340.645 1 109800770.556 1     -3294.255          36.250  
R15  20072146.122 1                       453.800          23.250  
R17  21020006.232 1 112482233.05211      -737.937          27.000  
R24  22935495.966 1 122646204.51311     -1942.492          32.500  
> 2021  5 21  6 30 43.4322046  0 22                     
E 1  25202422.788 1 132439621.071 1      1626.112          35.000    25200299.957 1  98891389.29711      1214.359          30.250  
E13  25366922.207 1                     -1730.950          25.250                                                                  
E21                                                                  23625003.912 1  92709592.949 1      -695.645          34.500  
E26  23657625.229 1 124321586.897 1      -301.120          34.750    23655502.998 1  92829269.083 1      -224.808          29.500  
G 1  24324449.096 1                     -3215.000          25.000                                                                  
G 2  24219165.882 1                      1790.450          23.250                                                                  
G 3  22253129.041 1                     -1827.300          28.500                                                                  
G 6  21615452.196 1 113589984.41611       997.263          28.750                                                                  
G 9  25174480.332 1                      1609.200          20.500                                                                  
G14  20189570.313 1 106096942.09711      -576.732          26.750                                                                  
G17  21723644.596 1 114158772.62111       610.432          29.000                                                                  
G19  22031019.105 1 115773789.328 1      1376.256          34.750                                                                  
G22  24792573.520 1 130285852.93511     -3118.190          25.750                                                                  
G30  23681792.398 1                     -2726.800          14.500                                                                  
J 1  37415129.307 1 196617823.65411       -24.686          29.000    37412752.852 1 146815674.398 1       -20.981          25.250  
J 3  39697761.373 1 208613143.32711       305.601          26.500    39695377.124 1 155773183.583 1       227.320          31.000  
R 1  23154281.486 1                     -1111.300          25.500  
R 2  21793238.417 1                      2326.500          26.250  
R14  20598923.724 1 109803900.793 1     -3289.018          36.250  
R15  20072022.889 1 107258804.39211       451.711          30.500  
R17  21020191.786 1 112483292.25311      -739.066          27.750  
R24  22935817.326 1 122647986.47711     -1945.862          30.750  
> 2021  5 21  6 30 44.4322046  0 21                     
E 1  25202112.797 1 132437996.741 1      1624.138          37.500    25199998.661 1  98890176.22611      1212.452          26.250  
E13  25367261.268 1 133305858.07611     -1739.465          29.000                                                                  
E21  23627314.108 1                      -929.450          19.250    23625182.284 1  92710287.626 1      -692.911          34.000  
E26  23657681.585 1 124321889.326 1      -302.444          38.250    23655562.952 1  92829494.787 1      -225.489          23.250  
G 2  24218828.911 1                      1804.000          28.000                                                                  
G 3  22253455.810 1 116942698.86711     -1831.269          32.250                                                                  
G 4  25566878.376 1                      1350.350          20.000                                                                  
G 6  21615290.003 1 113588984.66811      1002.598          29.250                                                                  
G 9  25174176.937 1                      1610.800          20.250                                                                  
G14  20189676.735 1 106097518.55711      -575.740          30.250                                                                  
G17  21723529.171 1 114158165.231 1       605.457          30.250                                                                  
G19  22030747.488 1 115772415.43611      1373.666          32.750                                                                  
G22  24793022.305 1                     -3136.850          29.500                                                                  
J 3  39697679.525 1 208612842.26311       299.793          27.250    39695319.859 1 155772958.200 1       224.289          29.500  
R 1  23154479.944 1 123773965.15311     -1100.341          27.750  
R 2  21792877.762 1                      2327.650          24.250  
R14  20599550.885 1 109807187.095 1     -3282.784          37.000  
R15  20071932.048 1 107258353.16711       450.494          27.750  
R17  21020295.809 1                      -736.700          25.250  
R18  22342554.429 1                       783.800          19.000  
R24  22936076.941 1                     -1960.600          30.750  
> 2021  5 21  6 30 45.4322046  0 20                     
E 1  25201805.404 1 132436371.086 1      1625.264          38.250    25199698.763 1                      1223.150          21.750  
E13  25367583.439 1                     -1739.600          27.250                                                                  
E21                                                                  23625356.357 1  92710979.138 1      -690.881          31.750  
E26  23657736.641 1 124322189.726 1      -300.492          38.500    23655620.706 1  92829718.92511      -224.229          25.750  
G 1  24325551.922 1                     -3226.100          20.750                                                                  
G 2  24218489.740 1 127269021.72211      1810.360          27.250                                                                  
G 3  22253611.297 1                     -1850.500          30.500                                                                  
G 6  21615084.839 1 113587977.67811      1010.220          30.500                                                                  
G 9  25173871.643 1                      1611.400          20.250                                                                  
G14  20189791.449 1 106098092.63811      -574.170          31.000                                                                  
G17  21723410.647 1 114157293.31811       602.942          30.000                                                                  
G19  22030509.647 1 115771037.66011      1380.834          37.000                                                                  
G22  24793606.495 1 130291280.55011     -3143.106          26.750                                                                  
J 3  39697646.442 1                       301.050          24.500    39695262.793 1 155772734.380 1       222.557          29.500  
R 1  23154704.683 1 123775059.77211     -1092.231          30.500  
R 3  23641732.820 1                      3505.400          18.750  
R14  20600161.756 1 109810465.656 1     -3276.113          36.750  
R15  20071854.595 1                       456.750          23.000  
R17  21020402.130 1 112484416.93211      -752.563          31.000  
R24  22936449.777 1 122651504.15511     -1969.843          31.750  
> 2021  5 21  6 30 46.4322046  0 21                     
E 1  25201495.874 1 132434746.23711      1625.129          37.250    25199372.444 1  98887749.53411      1214.206          28.500  
E13  25367918.162 1                     -1736.200          24.250                                                                  
E21  23627664.615 1                      -924.850          23.000    23625532.191 1  92711669.654 1      -688.949          31.000  
E26  23657797.654 1 124322490.576 1      -300.045          38.000    23655678.121 1  92829943.49611      -223.547          26.750  
G 2  24218122.050 1 127267208.14111      1816.707          29.250                                                                  
G 3  22254164.569 1                     -1808.350          34.000                                                                  
G 6  21614888.930 1 113586968.02711      1009.841          31.500                                                                  
G 9  25173563.911 1                      1613.550          20.000                                                                  
G14  20189896.532 1 106098667.164 1      -573.664          30.250                                                                  
G17  21723306.175 1 114156692.507 1       600.140          33.500                                                                  
G19  22030243.586 1 115769658.84811      1378.247          38.750                                                                  
G22  24794199.340 1 130294427.979 1     -3149.733          32.000                                                                  
J 1  37415342.504 1                       -27.300          25.000                                                                  
J 3  39697699.061 1                       331.150          21.250    39695205.388 1 155772513.596 1       220.182          28.750  
R 1  23154917.990 1 123776149.45011     -1086.556          33.500  
R 3  23641090.520 1                      3498.400          24.500  
R14  20600768.991 1 109813740.166 1     -3271.463          38.250  
R15  20071752.821 1 107257360.98811       454.562          30.750  
R17  21020524.900 1 112485170.33111      -752.399          34.250  
R18  22342196.526 1                       805.400          19.750  
R24  22936835.766 1                     -1974.800          25.500  
> 2021  5 21  6 30 47.4322045  0 21                     
E 1  25201161.017 1 132432965.04111      1625.957          39.250    25199032.491 1  98886419.411 1      1213.728          31.750  
E13  25368324.992 1                     -1711.400          29.500                                                                  
E21  23627816.021 1                      -928.350          22.250    23625678.801 1  92712242.204 1      -688.507          30.500  
E26  23657826.146 1 124322634.706 1      -299.928          37.500    23655708.112 1  92830051.116 1      -223.634          29.000  
G 1  24326999.187 1                     -3172.050          25.250                                                                  
G 2  24217752.417 1 127265232.71011      1822.617          35.750                                                                  
G 3  22254478.163 1 116948071.33111     -1799.362          41.000                                                                  
G 6  21614656.902 1 113585800.87111      1010.600          33.250                                                                  
G 9  25173227.255 1                      1613.450          19.500                                                                  
G14  20189969.393 1 106099085.342 1      -574.677          31.750                                                                  
G17  21723162.885 1 114155938.211 1       597.291          36.000                                                                  
G19  22029955.497 1 115768126.25311      1375.436          41.000                                                                  
G22  24794770.755 1 130297425.311 1     -3155.585          31.750                                                                  
G30  23683720.719 1                     -2699.500          18.000                                                                  
J 3                                                                  39695122.057 1 155772178.345 1       217.675          28.000  
R 1  23155042.715 1 123777077.32911     -1089.888          32.750  
R 2  21791754.200 1                      2338.500          20.750  
R14  20601357.495 1 109816852.055 1     -3269.556          38.500  
R15  20071647.905 1 107256746.45111       457.440          32.500  
R17  21020643.329 1 112485766.34511      -757.150          36.000  
R24  22937173.643 1                     -1978.000          27.250  
> 2021  5 21  6 30 48.4322045  0 20                     
E 1  25200850.311 1 132431339.21111      1625.713          37.000    25198722.983 1  98885205.319 1      1214.716          34.750  
E13                                                                  25366432.580 1                     -1312.300          26.500  
E21  23627974.190 1                      -924.100          24.500    23625854.358 1  92712931.227 1      -689.819          31.500  
E26  23657884.184 1 124322934.01711      -299.334          35.750    23655758.955 1  92830274.624 1      -223.309          32.250  
G 1  24327430.467 1                     -3237.500          21.250                                                                  
G 2  24217405.735 1                      1817.000          25.500                                                                  
G 3  22254822.203 1 116949869.94511     -1802.140          41.250                                                                  
G 6  21614467.911 1 113584790.29211      1011.194          35.000                                                                  
G 9  25172886.869 1                      1655.250          23.500                                                                  
G14  20190076.597 1 106099660.851 1      -576.481          31.250                                                                  
G17  21723045.844 1 114155340.701 1       597.518          33.250                                                                  
G19  22029691.558 1 115766752.32011      1373.436          39.500                                                                  
G22  24795394.502 1                     -3157.300          25.500                                                                  
J 3  39697424.041 1 208611370.81511       290.043          30.750    39695066.473 1 155771960.995 1       216.679          30.750  
R 1  23155262.042 1 123778168.73411     -1088.216          30.500  
R 2  21791208.157 1                      2343.750          22.500  
R14  20601978.243 1 109820121.74011     -3271.195          28.250  
R15  20071553.049 1 107256289.293 1       456.508          35.000  
R17  21020786.808 1 112486523.862 1      -757.473          38.750  
R24  22937525.778 1                     -1982.200          27.500  
> 2021  5 21  6 30 49.4322045  0 19                     
E 1  25200535.278 1 132429711.611 1      1628.529          37.250    25198413.347 1  98883989.958 1      1216.061          34.750  
E13  25369013.842 1                     -1694.150          25.500    25366764.799 1  99544633.21511     -1309.580          25.500  
E21                                                                  23626031.284 1  92713621.56811      -690.461          29.250  
E26  23657942.093 1 124323231.962 1      -296.873          34.500    23655815.965 1  92830497.164 1      -221.518          34.250  
G 2  24217071.515 1 127261569.56111      1819.111          27.500                                                                  
G 3  22255162.217 1 116951673.91811     -1803.201          38.750                                                                  
G 6  21614273.095 1 113583777.96811      1012.759          38.500                                                                  
G14  20190197.163 1 106100238.106 1      -577.599          31.750                                                                  
G17  21722928.974 1 114154742.62011       598.702          31.250                                                                  
G19  22029423.293 1 115765378.323 1      1375.315          38.000                                                                  
G22  24795976.448 1                     -3161.600          23.250                                                                  
J 3  39697350.641 1 208611081.158 1       289.644          31.250    39695011.361 1 155771744.638 1       216.268          29.750  
R 1  23155445.864 1 123779253.77311     -1087.750          27.500  
R 2  21790758.217 1                      2331.600          22.250  
R14  20602633.639 1                     -3273.400          24.250  
R15  20071479.949 1 107255832.20511       457.817          34.750  
R17  21020920.565 1 112487281.64411      -757.996          34.500  
R18  22341633.154 1                       810.950          20.500  
R24  22937965.322 1                     -1980.750          25.250  
> 2021  5 21  6 30 50.4322044  0 19                     
E 1  25200198.372 1 132427925.531 1      1629.615          38.500    25198073.443 1  98882656.314 1      1217.038          35.500  
E13  25369295.109 1                     -1697.800          26.250    25367069.150 1  99545826.174 1     -1310.344          26.500  
E21                                                                  23626177.044 1  92714195.04211      -691.408          27.250  
E26  23657970.934 1 124323371.61711      -296.094          33.000    23655842.707 1  92830601.538 1      -221.186          34.500  
G 1  24328784.139 1                     -3176.350          25.250                                                                  
G 2  24216683.645 1 127259592.89311      1819.275          32.250                                                                  
G 3  22255483.356 1 116953319.11311     -1802.582          37.500                                                                  
G 6  21614056.106 1 113582607.91311      1013.543          39.750                                                                  
G14  20190266.176 1 106100659.595 1      -579.466          31.750                                                                  
G17  21722794.129 1 114153986.96311       598.877          28.250                                                                  
G19  22029123.561 1 115763845.589 1      1376.770          38.000                                                                  
G22  24796719.694 1 130307640.59011     -3086.947          31.250                                                                  
J 3  39697270.058 1 208610635.263 1       288.379          34.000    39694925.381 1 155771411.642 1       215.307          30.250  
R 1  23155576.334 1 123779825.70211     -1092.117          27.750  
R 2  21790311.587 1                      2350.000          22.750  
R15  20071378.080 1 107255215.20211       457.511          32.500  
R17  21021024.953 1 112487879.79311      -754.143          30.000  
R18  22341540.280 1 119260658.37111       817.511          27.500  
R24  22938398.583 1                     -1910.150          35.250  
> 2021  5 21  6 30 51.4322044  0 20                     
E 1  25199889.510 1 132426292.032 1      1633.002          38.750    25197762.782 1  98881436.516 1      1219.544          36.000  
E13  25369520.776 1                     -1752.950          25.750    25367403.042 1                     -1311.050          27.000  
E21  23628463.185 1                      -920.900          20.000    23626352.646 1  92714885.000 1      -691.093          26.000  
E26  23658048.204 1 124323664.38711      -294.472          32.000    23655898.692 1  92830820.052 1      -219.139          34.500  
G 2  24216331.613 1 127257770.569 1      1820.789          35.000                                                                  
G 3  22255819.047 1 116955119.07511     -1801.828          37.500                                                                  
G 6  21613901.338 1                       994.350          35.000                                                                  
G14  20190378.822 1 106101237.030 1      -579.601          31.750                                                                  
G17  21722677.433 1 114153384.847 1       601.513          31.500                                                                  
G19  22028872.859 1 115762465.055 1      1380.205          39.250                                                                  
G22  24797203.483 1                     -3157.300          22.500                                                                  
J 3  39697212.122 1 208610344.358 1       289.517          35.500    39694872.542 1 155771194.451 1       215.981          30.250  
R 1  23155726.754 1 123780629.63111     -1089.673          30.000  
R 2  21789879.211 1                      2341.850          22.750  
R14  20603735.061 1                     -3276.700          20.000  
R15  20071273.077 1 107254757.66911       448.218          30.500  
R16  23759915.283 1                      3421.250          14.500  
R17  21021166.679 1 112488629.09711      -750.587          30.500  
R18  22341392.406 1                       821.200          24.000  
R24  22938733.076 1 122663713.64311     -1909.168          33.000  
> 2021  5 21  6 30 52.4322044  0 21                     
E 1  25199624.145 1                      1608.350          31.750    25197453.048 1  98880216.80411      1218.236          25.000  
E13  25369862.192 1                     -1751.000          24.250    25367738.162 1                     -1309.800          27.500  
E21  23628655.004 1                      -927.450          26.750    23626526.778 1  92715576.601 1      -691.570          26.000  
E26  23658086.529 1 124323957.62611      -291.916          30.000    23655954.105 1  92831038.628 1      -217.904          34.750  
G 1  24329808.706 1                     -3248.400          20.250                                                                  
G 2  24215980.207 1 127255949.886 1      1820.779          35.500                                                                  
G 3  22256172.154 1 116956921.50411     -1802.535          37.500                                                                  
G 6  21613667.451 1                      1015.950          21.500                                                                  
G14  20190486.998 1 106101816.973 1      -579.865          31.500                                                                  
G17  21722569.460 1 114152782.16611       605.748          33.500                                                                  
G19  22028609.892 1 115761083.692 1      1382.900          39.500                                                                  
G22  24797760.150 1                     -3153.850          25.500                                                                  
G30  23686201.066 1                     -2696.600          23.000                                                                  
J 1  37415222.762 1                        -3.000          25.500                                                                  
J 3  39697168.604 1 208610054.377 1       290.802          33.750    39694816.732 1 155770977.971 1       217.246          32.250  
R 1  23156016.005 1 123782175.92411     -1091.116          27.500  
R 2  21789445.662 1                      2348.950          23.000  
R14  20604423.636 1 109833171.66011     -3281.771          28.000  
R15  20071198.080 1                       447.200          28.250  
R17  21021305.735 1 112489379.32611      -747.615          33.250  
R24  22939058.902 1 122665622.24911     -1911.148          33.000  
> 2021  5 21  6 30 53.4322043  0 21                     
E 1  25199293.992 1                      1615.500          28.500    25197105.207 1                      1214.850          23.250  
E13  25370167.599 1                     -1746.800          24.500    25368040.571 1  99549639.38111     -1305.506          27.500  
E21  23628800.322 1 124169983.81611      -924.366          29.500    23626675.393 1  92716150.742 1      -690.469          25.000  
E26  23658110.731 1 124324091.03111      -289.140          31.750    23655979.806 1  92831138.160 1      -215.764          33.250  
G 1  24330434.891 1                     -3243.650          23.000                                                                  
G 2  24215605.086 1 127253970.79511      1823.669          33.750                                                                  
G 3  22256486.855 1 116958566.10911     -1801.001          34.000                                                                  
G14  20190570.859 1 106102239.633 1      -578.927          33.250                                                                  
G17  21722457.556 1 114152284.79911       621.424          33.750                                                                  
G19  22028313.017 1 115759542.186 1      1385.934          41.500                                                                  
G22  24798454.088 1 130316755.11611     -3080.631          34.750                                                                  
G30  23686669.860 1 124474290.00511     -2692.163          27.000                                                                  
J 1  37415249.662 1                       -10.050          28.000                                                                  
J 3  39697074.388 1 208609605.668 1       292.560          31.000    39694731.210 1 155770642.894 1       218.436          33.000  
R 1  23156188.005 1 123783106.45111     -1087.344          30.000  
R 2  21788981.203 1                      2352.100          22.250  
R14  20604990.762 1 109836290.86111     -3275.779          34.000  
R15  20071072.086 1                       448.200          25.500  
R17  21021424.971 1 112489964.02311      -744.509          37.000  
R18  22341065.203 1                       813.450          21.750  
R24  22939433.261 1 122667372.30811     -1905.942          37.000  
> 2021  5 21  6 30 54.4322043  0 23                     
E 1  25198993.924 1                      1599.900          30.000    25196797.945 1  98877646.60111      1222.416          27.000  
E13  25370580.737 1                     -1689.950          30.750    25368373.066 1  99550946.548 1     -1308.310          28.000  
E21  23628977.824 1 124170909.327 1      -926.755          30.250    23626851.096 1  92716842.252 1      -692.079          25.750  
E26  23658167.116 1 124324381.09011      -290.876          31.750    23656034.993 1  92831354.778 1      -217.308          34.250  
G 1  24331161.312 1 127861115.16711     -3174.083          27.250                                                                  
G 2  24215254.953 1 127252147.886 1      1823.360          35.000                                                                  
G 3  22256824.746 1                     -1802.700          37.500                                                                  
G 6  21613265.672 1                      1013.900          21.000                                                                  
G14  20190691.100 1 106102820.046 1      -581.750          34.250                                                                  
G17  21722330.768 1                       611.600          34.000                                                                  
G19  22028052.521 1 115758157.47511      1384.854          39.750                                                                  
G22  24799039.607 1 130319836.96811     -3081.966          33.500                                                                  
G30  23687206.513 1 124476982.89911     -2693.100          28.500                                                                  
J 1  37415163.646 1 196618011.73811        -1.065          25.750                                                                  
J 3  39697016.252 1 208609314.862 1       289.273          30.000    39694675.773 1 155770425.711 1       215.923          33.250  
R 1  23156418.870 1 123784193.16111     -1085.753          29.000  
R 2  21788533.637 1                      2345.250          21.250  
R 3  23635657.799 1                      3561.000          16.500  
R14  20605613.156 1 109839567.99311     -3277.048          34.250  
R15  20071013.951 1                       462.200          26.000  
R17  21021585.384 1 112490707.32111      -740.843          37.750  
R18  22340972.291 1                       818.700          24.500  
R24  22939815.521 1 122669275.72611     -1901.678          35.500  
> 2021  5 21  6 30 55.4322043  0 20                     
E 1  25198610.639 1                      1634.800          35.750    25196488.108 1  98876425.397 1      1220.680          38.250  
E13  25370895.668 1                     -1691.650          33.500    25368705.984 1  99552255.359 1     -1309.075          28.500  
E21  23629152.752 1 124171836.537 1      -928.399          30.250    23627028.123 1  92717534.638 1      -693.370          27.500  
E26  23658213.733 1 124324671.73311      -291.570          32.000    23656090.004 1  92831571.842 1      -217.561          34.000  
G 1  24331788.327 1 127864287.33411     -3174.743          25.750                                                                  
G 2  24214911.839 1 127250323.935 1      1822.871          35.000                                                                  
G 3  22257164.859 1 116962190.40611     -1799.810          38.750                                                                  
G14  20190787.483 1 106103402.238 1      -583.811          33.000                                                                  
G17  21722216.097 1 114151015.15711       608.728          32.500                                                                  
G19  22027870.397 1                      1362.950          29.000                                                                  
G22  24799542.808 1                     -3160.050          28.750                                                                  
G30  23687729.500 1 124479678.78311     -2701.137          30.000                                                                  
J 1  37415233.047 1 196618376.15111         0.874          27.250                                                                  
J 3  39696963.038 1 208609025.22911       288.448          30.000    39694620.760 1 155770210.042 1       215.010          33.500  
R 1  23156600.093 1 123785278.39411     -1086.602          31.500  
R 2  21788013.946 1                      2341.150          24.000  
R14  20606218.286 1 109842844.95011     -3279.242          33.750  
R15  20070896.581 1                       458.700          24.750  
R17  21021734.830 1 112491448.83911      -751.449          34.000  
R24  22940136.148 1 122671178.57311     -1906.438          33.250  
> 2021  5 21  6 30 56.4322042  0 23                     
E 1  25198268.058 1                      1636.750          32.750    25196147.026 1  98875087.950 1      1222.923          39.250  
E13  25371192.545 1 133326517.09511     -1692.807          34.250    25369008.856 1                     -1305.000          27.500  
E21  23629295.835 1 124172610.23211      -928.804          29.750    23627174.803 1  92718112.294 1      -693.299          27.250  
E26  23658239.298 1 124324806.971 1      -289.423          31.750    23656115.868 1  92831672.828 1      -215.297          33.500  
G 1  24332264.180 1                     -3243.700          23.500                                                                  
G 2  24214532.983 1 127248345.782 1      1822.890          34.250                                                                  
G 3  22257464.734 1 116963836.09711     -1801.638          35.500                                                                  
G 6  21612892.062 1                      1024.750          20.500                                                                  
G 9  25170453.314 1                      1627.650          16.000                                                                  
G14  20190874.504 1 106103830.803 1      -583.376          33.250                                                                  
G17  21722047.395 1                       610.300          28.500                                                                  
G19  22027570.986 1 115755666.42111      1353.435          30.500                                                                  
G22  24800105.600 1                     -3157.650          28.500                                                                  
J 1  37415200.751 1                       -10.200          27.500                                                                  
J 2  35949090.918 1                       156.050          23.750                                                                  
J 3  39696882.476 1 208608581.192 1       290.291          32.500    39694535.401 1 155769878.435 1       216.797          34.250  
R 1  23156807.631 1 123786209.76511     -1090.299          28.250  
R 2  21787555.945 1                      2351.350          28.000  
R 3  23634248.706 1                      3533.950          23.250  
R14  20606790.671 1                     -3279.850          26.500  
R17  21021831.145 1                      -743.850          39.000  
R18  22340625.363 1                       820.050          21.500  
R24  22940478.893 1 122672923.10611     -1900.357          32.750  
> 2021  5 21  6 30 57.4322042  0 23                     
E 1  25197972.068 1                      1633.150          25.500    25195837.246 1  98873865.05111      1221.358          28.500  
E13  25371516.526 1 133328207.90411     -1690.047          33.500    25369339.733 1                     -1301.550          26.250  
E21  23629478.014 1 124173538.59611      -929.268          30.750    23627351.287 1  92718805.603 1      -693.953          26.500  
E26  23658291.367 1 124325095.392 1      -288.759          33.000    23656170.935 1  92831888.249 1      -215.391          33.500  
G 1  24332902.344 1                     -3242.650          22.250                                                                  
G 2  24214187.528 1 127246523.525 1      1820.738          34.250                                                                  
G 3  22257821.392 1 116965639.20211     -1813.274          35.500                                                                  
G 6  21612629.050 1 113575132.17911      1017.159          27.500                                                                  
G14  20190976.340 1 106104413.816 1      -583.641          34.250                                                                  
G17  21721941.474 1                       611.150          35.000                                                                  
G19  22027298.680 1                      1364.050          27.250                                                                  
G22  24800778.240 1 130328969.27111     -3084.104          28.250                                                                  
G30  23688746.384 1                     -2697.450          24.000                                                                  
J 1  37415183.269 1 196618218.34211        -4.095          28.500                                                                  
J 2  35949064.442 1 188913607.76711       147.288          30.000    35946695.782 1                       111.200          29.750  
J 3  39696826.321 1 208608289.100 1       292.805          34.750    39694480.145 1 155769660.390 1       218.701          32.500  
R 1  23156928.653 1                     -1095.300          23.000  
R 2  21787081.579 1 116260041.63911      2349.828          30.000  
R 3  23633577.976 1 126512392.34511      3524.173          30.750  
R14  20607383.867 1                     -3277.350          22.000  
R17  21021954.865 1                      -742.850          41.000  
R18  22340442.095 1                       814.950          21.500  
R24  22940852.940 1                     -1904.700          32.250  
> 2021  5 21  6 30 58.4322042  0 22                     
E13  25371806.167 1                     -1737.950          34.000    25369674.343 1  99556050.76311     -1301.908          27.000  
E21  23629649.237 1 124174467.01211      -931.168          30.250    23627527.906 1  92719498.858 1      -695.209          28.250  
E26  23658343.872 1                      -287.250          27.500    23656224.939 1                      -218.600          27.500  
G 1  24333567.924 1                     -3175.000          23.000                                                                  
G 2  24213837.112 1 127244702.73211      1816.277          32.250                                                                  
G 3  22258185.382 1                     -1813.500          32.250                                                                  
G 6  21612439.622 1 113574114.422 1      1013.965          35.250                                                                  
G 9  25169719.968 1                      1637.950          20.000                                                                  
G14  20191095.998 1 106104996.214 1      -584.560          34.000                                                                  
G17  21721817.701 1 114148921.69511       610.010          38.000                                                                  
G19  22026971.348 1                      1384.000          30.000                                                                  
G22  24801376.967 1 130332052.65311     -3087.156          26.000                                                                  
G30  23689256.072 1 124487879.89211     -2700.481          33.500                                                                  
J 1  37415150.033 1 196617939.93311       -11.550          32.500    37412755.891 1 146815519.94011        -9.135          30.000  
J 2  35949040.800 1 188913459.71511       146.303          31.000    35946666.443 1 141062409.04111       110.277          29.500  
J 3  39696768.202 1 208607993.481 1       295.113          35.750    39694425.024 1 155769439.636 1       220.303          31.500  
R 1  23157153.239 1                     -1164.950          25.250  
R 2  21786668.506 1 116257694.43211      2343.902          28.750  
R 3  23632953.849 1 126508869.00811      3522.551          31.250  
R15  20070639.988 1                       462.800          19.000  
R17  21022089.213 1 112493445.58111      -739.702          39.250  
R24  22941227.421 1 122677051.86111     -1913.487          30.500  
> 2021  5 21  6 30 59.4322041  0 22                     
E 1  25197402.002 1                      1606.000          20.000                                                                  
E13  25372112.053 1                     -1736.550          35.000    25369978.130 1  99557232.872 1     -1298.881          27.250  
E21  23629801.030 1                      -930.750          22.500    23627678.799 1                      -698.750          22.250  
G 1  24334166.108 1                     -3179.600          22.250                                                                  
G 2  24213461.270 1 127242730.364 1      1811.678          32.250                                                                  
G 3  22258500.261 1                     -1824.150          30.000                                                                  
G 6  21612220.571 1 113572943.617 1      1010.646          38.500                                                                  
G14  20191176.740 1 106105422.658 1      -585.078          34.000                                                                  
G17  21721660.108 1 114148152.235 1       611.965          39.000                                                                  
G19  22026707.628 1                      1383.050          25.500                                                                  
G22  24801934.379 1                     -3094.200          24.500                                                                  
G30  23689732.540 1 124490423.90211     -2703.467          34.000                                                                  
J 1  37415136.041 1 196617794.37711       -15.397          30.750    37412728.707 1 146815411.76411       -11.013          29.000  
J 2  35949016.015 1 188913155.51411       147.111          28.250    35946608.981 1 141062180.590 1       110.077          31.000  
J 3  39696680.460 1 208607538.584 1       297.983          34.500    39694337.882 1 155769100.029 1       222.490          30.750  
R 1  23157263.061 1                     -1155.850          24.250  
R 2  21786173.346 1 116255189.40311      2340.598          27.750  
R 3  23632209.262 1 126505177.68011      3535.013          27.500  
R14  20608657.224 1                     -3285.500          25.750  
R15  20070495.286 1                       460.350          25.250  
R17  21022220.020 1                      -730.650          30.500  
R24  22941503.028 1 122678526.35611     -1945.813          26.750  
> 2021  5 21  6 31  0.4322041  0 20                     
E 1  25197010.964 1                      1636.150          22.750    25194917.513 1                      1220.350          19.500  
E13  25372439.317 1                     -1726.650          35.000    25370306.294 1                     -1295.200          27.750  
G 1  24334765.284 1                     -3181.950          23.500                                                                  
G 2  24213125.394 1 127240925.181 1      1804.711          32.750                                                                  
G 3  22258846.713 1 116971028.87711     -1831.502          29.500                                                                  
G 6  21612029.495 1 113571938.63611      1004.598          35.500                                                                  
G14  20191291.751 1 106106011.254 1      -586.654          34.000                                                                  
G17  21721545.179 1 114147543.073 1       613.024          39.250                                                                  
G19  22026479.377 1                      1372.850          26.000                                                                  
G22  24802501.477 1 130338024.00511     -3100.512          26.000                                                                  
G30  23690250.173 1 124493133.65711     -2709.955          34.000                                                                  
J 1  37415117.944 1 196617814.16611       -20.497          30.000    37412731.297 1 146815426.22811       -13.990          29.500  
J 2  35948943.656 1 188913011.37111       145.727          27.000    35946581.891 1 141062073.449 1       108.332          32.500  
J 3  39696624.590 1 208607242.431 1       300.228          34.750    39694281.712 1 155768878.787 1       224.125          32.500  
R 1  23157548.055 1                     -1148.950          24.750  
R 3  23631607.470 1                      3529.100          23.500  
R14  20609292.675 1 109859126.93411     -3290.038          26.500  
R15  20070433.719 1 107250312.53411       452.098          29.500  
R17  21022392.292 1 112495066.94311      -726.083          29.500  
R24  22941915.434 1                     -1927.950          25.750  
> 2021  5 21  6 31  1.4322041  0 23                     
E 1  25196707.497 1                      1628.650          23.000    25194608.950 1                      1218.000          25.000  
E13  25372775.308 1 133334834.03111     -1732.803          37.750    25370636.588 1                     -1295.150          29.000  
G 1  24335353.700 1                     -3185.500          24.500                                                                  
G 2  24212777.258 1 127239123.76411      1796.075          29.500                                                                  
G 3  22259188.999 1 116972859.71211     -1830.382          31.000                                                                  
G 6  21611836.352 1 113570936.37511       999.187          31.250                                                                  
G 9  25168704.783 1                      1609.950          23.500                                                                  
G14  20191403.797 1 106106598.511 1      -588.254          33.500                                                                  
G17  21721430.281 1 114146929.138 1       614.204          38.750                                                                  
G19  22026249.659 1                      1370.500          25.500                                                                  
G22  24803124.669 1 130341130.59311     -3106.935          27.500                                                                  
G30  23690792.720 1 124495847.77711     -2720.212          26.250                                                                  
J 1  37415132.257 1 196617837.04611       -26.716          29.250    37412737.815 1 146815441.59211       -19.175          24.000  
J 2  35948911.801 1 188912866.63911       142.496          29.000    35946555.132 1 141061965.89611       106.508          28.250  
J 3  39696575.047 1 208606940.538 1       303.023          36.250    39694224.075 1 155768653.370 1       226.397          33.000  
R 1  23157757.832 1                     -1140.650          27.500  
R 2  21785297.167 1                      2339.250          19.000  
R 3  23630960.141 1                      3527.600          23.750  
R14  20609859.805 1 109862149.59311     -3297.603          30.250  
R15  20070321.820 1                       453.600          26.750  
R17  21022481.853 1                      -733.350          29.500  
R18  22339746.530 1                       795.450          20.000  
R24  22942272.110 1                     -1936.350          28.000  
> 2021  5 21  6 31  2.4322040  0 20                     
E 1  25196374.416 1                      1630.700          26.500    25194263.877 1  98867702.06111      1216.068          25.750  
E13  25373064.296 1 133336404.416 1     -1726.643          36.000    25370936.369 1  99561003.59511     -1288.840          29.250  
G 2  24212374.025 1                      1785.700          25.000                                                                  
G 3  22259492.976 1                     -1839.950          27.750                                                                  
G 6  21611619.290 1 113569780.60011       994.441          30.750                                                                  
G14  20191501.517 1                      -587.300          28.000                                                                  
G17  21721280.673 1 114146154.512 1       617.616          38.750                                                                  
G19  22025910.582 1                      1382.700          25.000                                                                  
G22  24803675.675 1 130344077.44311     -3109.222          29.500                                                                  
G30  23691257.986 1 124498418.75011     -2734.434          27.000                                                                  
J 1  37415123.552 1 196617707.30211       -29.037          29.750    37412764.485 1                       -23.350          25.500  
J 2  35948914.487 1                       146.200          25.000    35946543.728 1 141061957.88511       103.970          27.250  
J 3  39696484.498 1 208606476.011 1       308.349          35.500    39694137.123 1 155768306.500 1       230.061          32.000  
R 1  23157934.398 1                     -1134.400          28.750  
R14  20610450.984 1 109865292.43911     -3304.468          29.000  
R15  20070225.575 1                       443.250          26.000  
R16  23752844.051 1                      3446.350          16.500  
R17  21022598.761 1 112496171.65811      -735.947          31.500  
R18  22339593.924 1 119250269.36211       786.875          27.500  
R24  22942550.606 1 122684127.81211     -1943.015          32.000  
> 2021  5 21  6 31  3.4322040  0 22                     
E 1  25196065.640 1                      1632.550          27.500    25193947.007 1                      1219.450          22.000  
E13  25373400.374 1 133338126.377 1     -1718.960          38.750    25371264.652 1  99562289.421 1     -1283.289          29.000  
E26  23658586.315 1                      -291.950          18.750                                                                  
G 1  24336548.971 1                     -3194.100          26.500                                                                  
G 2  24212061.652 1                      1784.250          21.500                                                                  
G 3  22259863.830 1 116976373.03611     -1835.841          30.500                                                                  
G 6  21611440.924 1 113568786.88311       994.005          31.500                                                                  
G14  20191605.256 1 106107601.71811      -584.666          27.000                                                                  
G17  21721163.465 1 114145534.127 1       622.739          39.750                                                                  
G19  22025654.570 1 115745595.01411      1388.703          26.750                                                                  
G22  24804241.694 1 130347191.40011     -3115.917          27.250                                                                  
G30  23691794.625 1 124501147.17411     -2724.850          30.750                                                                  
J 1  37415111.570 1 196617735.89111       -29.224          28.500    37412718.927 1                       -18.900          25.000  
J 2  35948882.120 1 188912650.22411       147.883          25.750    35946511.961 1                       109.750          26.000  
J 3  39696418.554 1 208606164.169 1       314.893          34.750    39694077.475 1 155768073.675 1       235.020          31.750  
R 1  23158152.957 1 123793599.10911     -1131.859          30.250  
R 3  23629656.342 1                      3533.300          21.250  
R14  20611065.569 1 109868594.75611     -3303.167          29.500  
R15  20070127.553 1 107248676.48011       443.215          31.500  
R17  21022739.074 1 112496904.77411      -730.987          34.750  
R18  22339489.606 1                       783.900          23.750  
R24  22942940.346 1 122686067.31011     -1935.469          31.000  
> 2021  5 21  6 31  4.4322040  0 23                     
E 1  25195752.027 1                      1629.250          27.000    25193626.798 1                      1211.150          24.250  
E13  25373712.727 1 133339844.15911     -1718.255          34.000    25371595.892 1  99563572.353 1     -1283.272          28.250  
E26  23658639.647 1                      -297.750          23.000    23656526.110 1                      -214.250          17.000  
G 1  24337167.112 1 127892676.35011     -3198.043          27.000                                                                  
G 2  24211746.839 1                      1781.150          23.750                                                                  
G 3  22260219.353 1 116978209.57311     -1839.084          31.750                                                                  
G 6  21611241.531 1 113567794.381 1       989.414          32.000                                                                  
G14  20191711.352 1                      -589.950          24.000                                                                  
G17  21721044.716 1 114144911.213 1       621.645          40.000                                                                  
G19  22025382.028 1 115744205.58311      1388.115          28.750                                                                  
G22  24804844.546 1 130350307.74511     -3116.776          29.000                                                                  
G30  23692295.248 1 124503870.52311     -2723.941          32.500                                                                  
J 1  37415122.332 1 196617763.08211       -28.310          28.750    37412721.594 1                       -20.950          23.750  
J 2  35948832.624 1 188912501.96111       145.187          27.000    35946490.345 1                       108.400          27.000  
J 3  39696362.163 1 208605848.759 1       314.459          35.250    39694017.186 1 155767838.068 1       234.887          31.500  
R 1  23158363.381 1 123794730.66611     -1132.807          29.250  
R 3  23629041.138 1                      3531.300          23.000  
R14  20611724.783 1 109871900.34811     -3306.937          31.000  
R15  20070058.570 1 107248236.579 1       437.348          35.250  
R16  23751626.574 1                      3420.350          20.250  
R17  21022854.463 1 112497637.057 1      -733.850          36.750  
R18  22339315.696 1                       778.400          25.250  
R24  22943311.758 1 122688002.36911     -1937.478          29.000  
> 2021  5 21  6 31  5.4322040  0 21                     
E 1  25195457.564 1 132403023.19611      1622.018          29.500    25193303.256 1                      1208.900          21.500  
E13  25374045.131 1 133341563.31311     -1719.282          32.750    25371924.699 1  99564855.942 1     -1283.859          28.250  
E26  23658703.437 1                      -301.850          23.500                                                                  
G 1  24337760.636 1                     -3203.850          24.000                                                                  
G 2  24211375.030 1                      1780.350          24.000                                                                  
G 3  22260567.047 1 116980051.54111     -1843.879          32.000                                                                  
G 6  21611055.894 1 113566807.425 1       985.391          35.750                                                                  
G 9  25167439.861 1                      1618.800          25.500                                                                  
G17  21720925.033 1 114144290.459 1       620.067          40.750                                                                  
G19  22025110.050 1 115742819.192 1      1384.477          32.750                                                                  
G22  24805406.591 1 130353426.64211     -3122.033          26.000                                                                  
G30  23692822.817 1 124506597.34511     -2727.526          33.750                                                                  
J 1  37415125.264 1                       -32.500          25.250    37412732.021 1                       -22.000          24.500  
J 2  35948828.660 1 188912358.39111       142.023          30.500    35946462.099 1                       108.700          24.500  
J 3  39696301.239 1 208605534.757 1       313.555          35.250    39693956.562 1 155767603.630 1       234.095          30.500  
R 1  23158554.283 1 123795865.20311     -1135.460          29.250  
R14  20612393.853 1 109875657.43811     -3310.487          28.500  
R15  20069968.567 1 107247801.239 1       433.848          36.250  
R17  21022995.899 1 112498371.910 1      -735.569          38.500  
R18  22339164.535 1                       776.900          24.250  
R24  22943687.033 1 122689942.09711     -1938.837          28.250  
> 2021  5 21  6 31  6.4322039  0 24                     
E 1  25195093.740 1                      1623.700          23.000    25192966.712 1                      1213.150          21.500  
E13  25374323.462 1 133343125.612 1     -1719.417          33.000    25372215.321 1  99566022.628 1     -1283.091          27.250  
E21  23631011.431 1                      -943.150          20.500                                                                  
E26  23658701.162 1                      -296.500          23.000                                                                  
G 1  24338349.252 1 127898887.70511     -3202.540          29.000                                                                  
G 2  24211027.395 1                      1780.200          24.250                                                                  
G 3  22260878.954 1 116981739.82011     -1844.842          33.250                                                                  
G 6  21610831.473 1 113565665.945 1       984.426          35.000                                                                  
G 9  25167108.713 1                      1612.950          26.250                                                                  
G14  20191921.863 1                      -593.550          21.000                                                                  
G17  21720783.355 1 114143513.489 1       620.182          41.250                                                                  
G19  22024846.056 1                      1381.250          24.250                                                                  
G22  24805988.012 1 130356391.60411     -3120.362          26.000                                                                  
G30  23693305.906 1 124509170.81611     -2729.949          32.750                                                                  
J 1  37415075.622 1 196617669.55011       -32.103          33.000    37412707.562 1                       -20.150          21.000  
J 2  35948783.215 1 188912059.67811       142.229          29.500    35946407.060 1                       108.250          21.500  
J 3  39696206.328 1 208605064.155 1       313.808          32.500    39693867.947 1 155767252.270 1       234.516          32.000  
R 1  23158797.238 1                     -1135.000          25.500  
R 3  23627595.296 1                      3536.500          21.000  
R14  20612897.028 1                     -3312.850          26.000  
R15  20069868.559 1 107247209.029 1       432.313          36.000  
R17  21023116.539 1 112498947.853 1      -735.616          36.000  
R18  22339021.357 1                       774.500          22.000  
R24  22944012.431 1 122691721.85511     -1939.344          27.000  
> 2021  5 21  6 31  7.4322039  0 20                     
E 1  25194796.535 1 132399549.74211      1624.288          29.500    25192685.397 1                      1204.500          21.500  
E13  25374663.916 1 133344844.808 1     -1720.467          34.500    25372544.683 1  99567306.508 1     -1284.350          27.000  
E21  23631177.406 1                      -945.750          27.000                                                                  
G 1  24338948.127 1 127902088.44311     -3201.372          29.000                                                                  
G 2  24210676.827 1                      1776.900          25.000                                                                  
G 3  22261239.795 1 116983584.05211     -1845.164          32.000                                                                  
G 6  21610654.485 1 113564680.789 1       984.772          34.500                                                                  
G14  20192032.077 1                      -593.500          24.250                                                                  
G17  21720666.925 1 114142893.255 1       619.566          41.500                                                                  
G19  22024548.253 1                      1382.750          24.750                                                                  
G22  24806593.483 1 130359511.91711     -3120.576          28.000                                                                  
G30  23693826.236 1 124511899.32911     -2729.285          31.250                                                                  
J 1  37415107.590 1 196617701.117 1       -31.849          34.250    37412711.649 1                       -26.500          23.500  
J 2  35948748.030 1 188911917.152 1       141.868          31.250    35946377.271 1 141061305.33011       106.138          25.500  
J 3  39696154.954 1 208604750.541 1       312.937          35.500    39693807.579 1 155767017.951 1       233.662          30.000  
R 1  23158980.002 1 123798019.77811     -1136.256          29.250  
R14  20613557.361 1 109881860.03211     -3310.160          29.500  
R15  20069797.399 1 107246776.428 1       431.682          38.250  
R17  21023250.437 1 112499683.338 1      -736.019          39.000  
R24  22944309.115 1 122693660.48211     -1940.013          26.500  
> 2021  5 21  6 31  8.4322038  0 22                     
E 1  25194459.157 1                      1621.550          26.500    25192344.121 1                      1209.900          23.500  
E13  25374976.787 1 133346407.832 1     -1718.743          40.500    25372839.567 1  99568473.637 1     -1283.078          29.250  
E21  23631313.400 1                      -952.450          23.000                                                                  
E26  23658804.369 1                      -300.750          21.250                                                                  
G 1  24339519.719 1 127905133.74311     -3202.422          28.000                                                                  
G 2  24210324.759 1 127226115.31311      1775.605          29.500                                                                  
G 3  22261550.268 1 116985272.67511     -1846.119          28.750                                                                  
G 6  21610437.324 1 113563540.206 1       983.465          33.250                                                                  
G14  20192097.920 1                      -594.600          22.500                                                                  
G17  21720513.619 1 114142116.988 1       620.480          42.750                                                                  
G19  22024239.055 1 115738156.59411      1384.009          26.500                                                                  
G22  24807162.077 1 130362477.19511     -3120.937          28.500                                                                  
G30  23694306.091 1 124514473.93111     -2730.814          28.500                                                                  
J 1  37415060.711 1 196617576.83211       -32.433          29.750    37412685.455 1 146815413.06411       -24.065          24.250  
J 2  35948687.360 1                       146.000          25.000    35946324.096 1                       104.250          28.500  
J 3  39696069.101 1 208604280.555 1       314.415          35.000    39693716.930 1 155766667.11411       234.682          29.500  
R 1  23159162.164 1 123798997.63111     -1137.047          28.500  
R14  20614124.457 1                     -3312.950          26.250  
R15  20069656.984 1 107246186.248 1       430.609          27.750  
R17  21023336.965 1 112500259.802 1      -735.476          37.500  
R18  22338625.110 1                       775.650          24.000  
R24  22944696.635 1                     -1944.650          22.250  
> 2021  5 21  6 31  9.4322038  0 20                     
E 1                                                                  25192035.131 1  98858956.68411      1211.701          24.750  
E13  25375299.160 1 133348126.215 1     -1718.056          40.750    25373169.434 1  99569756.859 1     -1282.706          29.750  
E21                                                                  23629384.331 1                      -703.050          15.250  
G 1  24340134.989 1 127908336.89811     -3202.878          27.000                                                                  
G 2  24209981.892 1 127224340.582 1      1774.993          29.500                                                                  
G 6  21610233.560 1 113562557.413 1       983.082          32.000                                                                  
G14  20192181.058 1                      -592.450          23.500                                                                  
G17  21720395.897 1 114141496.717 1       620.682          42.750                                                                  
G19  22023992.121 1 115736773.44311      1384.086          26.750                                                                  
G22  24807801.930 1 130365878.32511     -3121.313          26.000                                                                  
G30  23694823.929 1 124517202.62011     -2728.227          29.000                                                                  
J 1  37415075.796 1 196617609.222 1       -32.038          29.500    37412695.744 1                       -27.650          25.750  
J 2  35948642.187 1 188911389.01911       142.549          26.500    35946297.210 1 141060991.03911       106.143          28.500  
J 3  39696014.035 1 208603966.083 1       315.092          34.750    39693658.566 1 155766432.286 1       235.201          30.250  
R 1  23159370.615 1 123800134.98811     -1137.547          31.250  
R14  20614767.907 1 109888312.56411     -3311.962          27.500  
R15  20069582.131 1 107245756.70111       429.020          27.750  
R17  21023471.367 1 112500995.539 1      -735.273          37.500  
R18  22338555.953 1                       775.750          25.500  
R24  22945060.379 1                     -1940.150          23.000  
> 2021  5 21  6 31 10.4322038  0 20                     
E 1                                                                  25191729.778 1  98857745.939 1      1211.536          24.500  
E13  25375629.966 1 133349845.103 1     -1717.798          39.750    25373497.243 1  99571040.484 1     -1282.630          28.500  
E21  23631670.684 1                      -945.850          19.500                                                                  
G 1  24340755.095 1 127911540.62211     -3202.633          27.500                                                                  
G 2  24209641.463 1 127222566.788 1      1774.579          26.750                                                                  
G 3  22262250.814 1                     -1848.150          20.750                                                                  
G 6  21610055.919 1 113561575.624 1       982.730          31.750                                                                  
G17  21720279.713 1 114140877.035 1       620.778          40.500                                                                  
G19  22023733.836 1 115735390.42511      1383.942          27.000                                                                  
G22  24808387.260 1                     -3120.350          24.500                                                                  
G30  23695350.200 1 124519932.134 1     -2728.238          27.250                                                                  
J 1  37415091.221 1 196617642.26111       -32.149          27.750    37412703.973 1 146815485.92011       -23.799          25.250  
J 2  35948632.729 1                       144.800          24.000    35946270.064 1                       105.150          28.000  
J 3  39695956.910 1 208603652.134 1       315.124          33.750    39693599.043 1 155766197.813 1       235.371          31.000  
R 1  23159586.601 1 123801274.144 1     -1138.467          33.500  
R14  20615403.003 1 109891626.39811     -3312.579          27.000  
R15  20069491.130 1 107245328.674 1       428.362          30.500  
R17  21023611.206 1 112501731.844 1      -735.173          39.000  
R18  22338399.597 1 119243893.95711       774.047          26.750  
R24  22945376.496 1 122699239.49111     -1939.045          26.500  
