     3.03           OBSERVATION DATA    M: Mixed            RINEX VERSION / TYPE
RTKCONV demo5 b33c                      20210524 112013 UTC PGM / RUN BY / DATE 
log: C:\Users\Ivan_PolyU_Dktp\Dropbox\HUAWEI Exp\20210521_  COMMENT             
format: RINEX                                               COMMENT             
                                                            MARKER NAME         
                                                            MARKER NUMBER       
                                                            MARKER TYPE         
                                                            OBSERVER / AGENCY   
                                                            REC # / TYPE / VERS 
                                                            ANT # / TYPE        
        0.0000        0.0000        0.0000                  APPROX POSITION XYZ 
        0.0000        0.0000        0.0000                  ANTENNA: DELTA H/E/N
G    4 C1C L1C D1C S1C                                      SYS / # / OBS TYPES 
E    4 C1C L1C D1C S1C                                      SYS / # / OBS TYPES 
J    4 C1C L1C D1C S1C                                      SYS / # / OBS TYPES 
  2021     5    21     6    29    6.0050000     GPS         TIME OF FIRST OBS   
  2021     5    21     6    54   39.0050000     GPS         TIME OF LAST OBS    
G                                                           SYS / PHASE SHIFT   
E                                                           SYS / PHASE SHIFT   
J                                                           SYS / PHASE SHIFT   
  0                                                         GLONASS SLOT / FRQ #
 C1C    0.000 C1P    0.000 C2C    0.000 C2P    0.000        GLONASS COD/PHS/BIS 
                                                            END OF HEADER       
> 2021  5 21  6 29  6.0050000  0 12                     
G17  23341628.853 9                       821.762          23.000  
G14  21785837.764 9                      -323.543          19.000  
E 1  26839754.546 9                      1869.517          20.000  
G28  22140431.039 9                      1259.450          21.000  
G19  23663253.066 9                      1588.014          22.000  
E21  25216858.086 9                      -689.885          20.000  
J 3  41309796.940 9                       496.204          19.000  
E26  25258987.030 9                       -85.896          21.000  
G30  25237453.803 9                     -2532.496          18.000  
J 2  37558731.831 9                       358.010          21.000  
E27  27822955.968 9                     -2635.733          16.000  
G 6  23240756.648 9                      1233.237          23.000  
> 2021  5 21  6 29  7.0050000  0 12                     
G17  23341471.853 9                       830.386          23.000  
G14  21785898.595 9                      -312.742          20.000  
E 1  26839400.097 9                      1868.130          20.000  
G28  22140190.366 9                      1268.051          20.000  
G19  23662951.334 9                      1590.848          22.000  
E21  25216989.538 9                      -679.832          20.000  
J 3  41309699.237 9                       508.184          19.000  
E26  25259000.920 9                       -75.783          21.000  
G30  25237935.080 9                     -2526.510          19.000  
J 2  37558665.154 9                       364.259          20.000  
E27  27823457.348 9                     -2634.403          16.000  
G 6  23240521.977 9                      1236.958          23.000  
> 2021  5 21  6 29  8.0050000  0 12                     
G17  23341315.377 9                       827.104          22.000  
G14  21785955.832 9                      -318.783          20.000  
E 1  26839046.555 9                      1867.510          21.000  
G28  22139950.722 9                      1260.346          20.000  
G19  23662648.642 9                      1590.258          22.000  
E21  25217119.804 9                      -692.245          20.000  
J 3  41309603.801 9                       504.148          19.000  
E26  25259016.800 9                       -82.007          21.000  
G30  25238414.804 9                     -2527.791          18.000  
J 2  37558593.434 9                       354.558          22.000  
E27  27823960.612 9                     -2632.679          16.000  
G 6  23240288.022 9                      1235.744          23.000  
> 2021  5 21  6 29  9.0050000  0 12                     
G17  23341157.086 9                       825.291          22.000  
G14  21786014.866 9                      -322.389          19.000  
E 1  26838690.745 9                      1865.617          20.000  
G28  22139709.036 9                      1265.215          20.000  
G19  23662343.421 9                      1591.440          22.000  
E21  25217249.808 9                      -690.775          19.000  
J 3  41309509.291 9                       500.780          19.000  
E26  25259031.615 9                       -90.168          19.000  
G30  25238894.545 9                     -2527.791          17.000  
J 2  37558526.216 9                       351.606          22.000  
E27  27824458.519 9                     -2632.679          15.000  
G 6  23240054.660 9                      1234.568          23.000  
> 2021  5 21  6 29 10.0050000  0 12                     
G17  23341002.460 9                       817.260          21.000  
G14  21786076.081 9                      -317.015          18.000  
E 1  26838335.651 9                      1868.361          19.000  
G28  22139467.630 9                      1262.334          20.000  
G19  23662042.544 9                      1599.742          21.000  
E21  25217381.767 9                      -690.775          18.000  
J 3  41309417.189 9                       489.384          17.000  
E26  25259047.983 9                       -79.062          19.000  
G30  25239374.618 9                     -2527.405          16.000  
J 2  37558458.404 9                       362.309          21.000  
E27  27824958.188 9                     -2630.686          15.000  
G 6  23239820.618 9                      1246.360          22.000  
> 2021  5 21  6 29 11.0050000  0 12                     
G17  23340844.692 9                       819.778          20.000  
G14  21786137.576 9                      -312.178          19.000  
E 1  26837979.161 9                      1873.472          20.000  
G28  22139226.206 9                      1263.050          21.000  
G19  23661739.730 9                      1593.702          22.000  
E21  25217515.907 9                      -688.257          19.000  
J 3  41309324.301 9                       503.454          17.000  
E26  25259062.868 9                       -92.282          20.000  
G30  25239854.604 9                     -2531.906          17.000  
J 2  37558392.041 9                       359.241          21.000  
E27  27825458.294 9                     -2633.028          16.000  
G 6  23239584.220 9                      1231.702          22.000  
> 2021  5 21  6 29 12.0050000  0 12                     
G17  23340687.152 9                       826.670          23.000  
G14  21786197.168 9                      -313.925          21.000  
E 1  26837623.316 9                      1867.050          22.000  
G28  22138987.383 9                      1265.361          22.000  
G19  23661437.667 9                      1593.458          25.000  
E21  25217646.015 9                      -691.893          21.000  
J 3  41309228.395 9                       509.446          20.000  
E26  25259076.968 9                       -87.008          22.000  
G30  25240336.439 9                     -2530.601          19.000  
J 2  37558325.049 9                       354.288          22.000  
E27  27825962.274 9                     -2639.804          18.000  
G 6  23239348.677 9                      1233.124          25.000  
> 2021  5 21  6 29 13.0050000  0 13                     
G17  23340532.665 9                       826.590          25.000  
G14  21786256.255 9                      -316.177          23.000  
E 1  26837266.214 9                      1875.055          23.000  
G28  22138746.622 9                      1252.838          23.000  
G19  23661133.929 9                      1593.893          25.000  
E21  25217776.560 9                      -694.797          23.000  
J 3  41309130.918 9                       503.170          23.000  
E26  25259092.150 9                       -79.265          24.000  
G 3  23827922.342 9                     -1576.730          21.000  
G30  25240819.165 9                     -2533.406          20.000  
J 2  37558257.220 9                       352.343          25.000  
E27  27826465.957 9                     -2640.243          18.000  
G 6  23239113.256 9                      1231.865          27.000  
> 2021  5 21  6 29 14.0050000  0 14                     
G17  23340377.027 8 122654499.37134       827.811          31.000  
G14  21786316.929 9                      -320.880          26.000  
E 1  26836909.829 9                      1865.238          24.000  
G28  22138507.938 9                      1259.745          24.000  
G19  23660830.173 9 124338501.13335      1595.996          27.000  
E13  26943947.615 9                     -1517.784          25.000  
E21  25217909.060 8                      -693.475          25.000  
J 3  41309035.413 9 217080445.64534       506.514          30.000  
E26  25259106.005 9                       -77.095          25.000  
G 3  23828221.875 9                     -1576.730          23.000  
G30  25241298.732 9                     -2534.638          24.000  
J 2  37558188.851 9 197369620.82634       353.434          26.000  
E27  27826969.850 9                     -2639.401          17.000  
G 6  23238878.079 8 122121131.89633      1232.174          31.000  
> 2021  5 21  6 29 15.0050000  0 14                     
G17  23340218.195 8 122653670.74025       828.615          29.000  
G14  21786376.801 9                      -321.817          25.000  
E 1  26836554.385 9                      1871.982          24.000  
G28  22138268.573 9                      1260.402          23.000  
G19  23660525.248 8 124336905.03124      1596.285          27.000  
E13  26944238.213 9                     -1516.276          25.000  
E21  25218040.757 9                      -701.176          25.000  
J 3  41308938.512 8 217079939.35924       505.723          28.000  
E26  25259119.512 9                       -78.583          25.000  
G 3  23828524.095 9                     -1578.907          23.000  
G30  25241780.026 9                     -2540.171          23.000  
J 2  37558123.534 9                       352.109          24.000  
E27  27827473.009 9                     -2640.604          16.000  
G 6  23238642.449 8 122119899.18924      1232.574          25.000  
> 2021  5 21  6 29 16.0050000  0 13                     
G17  23340061.788 8 122652842.28424       829.438          29.000  
G14  21786440.669 9                      -324.237          25.000  
E 1  26836199.238 9                      1874.243          24.000  
G28  22138025.911 9                      1265.446          23.000  
G19  23660222.539 8 124335308.83124      1597.462          27.000  
E21  25218174.652 9                      -698.192          25.000  
J 3  41308836.585 8 217079433.48124       506.223          27.000  
E26  25259133.123 9                       -78.252          24.000  
G 3  23828824.553 9                     -1569.973          21.000  
G30  25242262.280 9                     -2539.300          23.000  
J 2  37558056.997 9                       348.759          22.000  
E27  27827974.790 9                     -2640.604          15.000  
G 6  23238410.134 9                      1231.894          26.000  
> 2021  5 21  6 29 17.0050000  0 13                     
G17  23339900.356 8 122652011.88624       831.675          29.000  
G14  21786503.978 8 114488850.92135      -324.058          26.000  
E 1  26835842.626 9                      1874.241          26.000  
G28  22137785.987 9                      1267.529          23.000  
G19  23659917.474 4 124333710.03724      1600.318          27.000  
E21  25218305.668 9                      -695.999          25.000  
J 3  41308740.103 8 217078927.24123       507.000          27.000  
E26  25259147.223 9                       -76.609          25.000  
G 3  23829124.906 9                     -1578.470          20.000  
G30  25242744.203 9                     -2539.821          24.000  
J 2  37557990.599 9                       352.483          22.000  
E27  27828478.229 9                     -2643.772          16.000  
G 6  23238172.934 8 122117437.57734      1231.867          27.000  
> 2021  5 21  6 29 18.0050000  0 13                     
G17  23339743.357 4 122651178.10123       835.226          29.000  
G14  21786565.438 8 114489175.36225      -324.859          26.000  
E 1  26835486.292 9                      1877.434          26.000  
G28  22137546.780 9                      1264.058          23.000  
G19  23659613.578 4 124332107.34224      1604.894          27.000  
E21  25218439.669 9                      -697.685          25.000  
J 3  41308646.919 8 217078404.33033       508.913          27.000  
E26  25259163.242 9                       -72.755          25.000  
G 3  23829425.574 9                     -1579.650          17.000  
G30  25243227.103 9                     -2536.765          23.000  
J 2  37557924.916 9                       353.210          22.000  
E27  27828982.313 9                     -2646.836          16.000  
G 6  23237942.486 8 122116204.73925      1232.453          27.000  
> 2021  5 21  6 29 19.0050000  0 14                     
G17  23339582.937 8 122650341.86723       837.449          31.000  
G14  21786625.711 4 114489500.78023      -325.636          27.000  
E 1  26835129.348 8 141019567.01415      1879.435          27.000  
G28  22137307.869 9                      1258.916          25.000  
G19  23659310.241 8 124330501.83023      1606.613          29.000  
E13  26945385.879 9                     -1510.282          26.000  
E21  25218571.714 8 132524499.17915      -698.369          26.000  
J 3  41308550.314 8 217077895.35323       509.513          29.000  
E26  25259178.563 9                       -70.991          26.000  
G 3  23829726.398 9                     -1577.043          16.000  
G30  25243712.289 9                     -2546.235          25.000  
J 2  37557858.239 9                       343.102          24.000  
E27  27829486.904 9                     -2648.407          17.000  
G 6  23237709.944 8 122114971.58824      1233.415          28.000  
> 2021  5 21  6 29 20.0050000  0 14                     
G17  23339422.622 4 122649503.35522       839.442          33.000  
G14  21786689.491 4 114489826.44123      -325.675          29.000  
E 1  26834770.100 8 141017686.764 3      1881.538          29.000  
G28  22137065.660 9 116331065.09535      1264.898          27.000  
G19  23659000.570 4 124328893.42722      1609.687          31.000  
E13  26945671.469 8 141600477.66114     -1507.758          28.000  
E21  25218706.814 4 132525197.476 4      -697.914          28.000  
J 3  41308452.139 4 217077385.21322       511.432          31.000  
E26  25259191.494 8 132737957.36915       -69.215          27.000  
G 3  23830026.524 9                     -1579.304          16.000  
G30  25244194.281 9 132659135.58935     -2545.178          27.000  
J 2  37557793.149 8                       342.731          27.000  
E27  27829989.034 9                     -2655.075          19.000  
G 6  23237475.187 8 122113737.44023      1234.212          31.000  
> 2021  5 21  6 29 21.0050000  0 14                     
G17  23339263.982 4 122648662.38422       841.792          34.000  
G14  21786749.921 4 114490152.32022      -326.178          31.000  
E 1  26834407.973 8 141015804.186 2      1883.865          31.000  
G28  22136826.034 8 116329800.36824      1265.029          28.000  
G19  23658693.149 4 124327282.12422      1612.698          32.000  
E13  26945958.351 8 141601984.455 4     -1504.992          30.000  
E21  25218835.475 8 132525896.014 3      -698.836          30.000  
J 3  41308356.722 4 217076873.75222       512.018          32.000  
E26  25259202.801 8 132738025.699 4       -67.597          29.000  
G 3  23830324.905 9                     -1573.784          22.000  
G30  25244677.460 8 132661681.70524     -2546.619          28.000  
J 2  37557726.769 8 197367193.12234       339.720          28.000  
E27  27830493.223 9                     -2659.823          21.000  
G 6  23237239.347 4 122112502.21922      1235.492          32.000  
> 2021  5 21  6 29 22.0050000  0 15                     
G17  23339103.387 4 122647819.84922       843.010          33.000  
G14  21786814.906 4 114490479.40222      -329.240          31.000  
E 1  26834051.972 8 141013920.175 3      1884.140          31.000  
G28  22136585.081 8 116328535.51523      1264.489          29.000  
G19  23658389.515 8 124325668.69923      1613.414          32.000  
E13  26946246.175 8 141603490.059 4     -1505.841          24.000  
E21  25218970.033 8 132526595.636 3      -701.132          30.000  
J 3  41308257.884 8 217076361.94122       511.982          32.000  
E26  25259216.430 8 132738092.766 4       -67.054          29.000  
G 3  23830623.531 9                     -1582.972          23.000  
G30  25245161.477 4 132664229.73923     -2549.481          28.000  
J 2  37557662.203 4 197366853.85224       337.879          28.000  
J 1  39020353.641 9                       148.406          23.000  
E27  27831002.159 9                     -2658.239          22.000  
G 6  23236997.277 8 122111266.86323      1234.047          32.000  
> 2021  5 21  6 29 23.0050000  0 14                     
G17  23338942.741 4 122646977.31822       843.461          33.000  
G14  21786875.947 8 114490808.67023      -329.989          30.000  
E 1  26833694.260 8 141012036.205 3      1884.269          30.000  
G28  22136343.221 4 116327272.01223      1263.180          28.000  
G19  23658081.484 8 124324054.81223      1613.790          31.000  
E21  25219104.871 8 132527297.377 3      -702.631          29.000  
J 3  41308161.611 8 217075851.18523       511.234          31.000  
E26  25259228.314 8 132738160.078 3       -67.704          29.000  
G 3  23830923.204 9                     -1580.199          25.000  
G30  25245645.249 4 132666780.47324     -2551.740          27.000  
J 2  37557597.951 4 197366517.73224       334.561          28.000  
J 1  39020325.564 9                       148.406          22.000  
E27  27831507.657 9                     -2661.280          21.000  
G 6  23236767.249 8 122110032.37724      1234.698          31.000  
> 2021  5 21  6 29 24.0050000  0 12                     
G17  23338781.326 4 122646134.06322       843.270          33.000  
G14  21786938.384 8 114491139.10623      -331.012          30.000  
E 1  26833332.604 8 141010151.689 3      1884.749          30.000  
G28  22136103.839 4 116326008.78224      1263.191          28.000  
G19  23657776.419 8 124322439.83023      1614.482          31.000  
E21  25219235.887 8 132528000.034 3      -703.040          29.000  
J 3  41308066.664 8 217075340.39224       511.264          31.000  
E26  25259240.511 8 132738226.814 3       -67.151          29.000  
G 3  23831222.998 9                     -1578.748          23.000  
J 1  39020297.626 9                       148.406          22.000  
E27  27832013.259 9                     -2650.736          21.000  
G 6  23236533.782 8 122108798.02223      1234.819          31.000  
> 2021  5 21  6 29 25.0050000  0 11                     
G17  23338622.582 4 122645291.510 1       842.355          34.000  
G14  21787003.962 4 114491470.653 2      -332.042          32.000  
E 1  26832975.503 8 141008268.201 2      1882.060          31.000  
G28  22135862.729 4 116324746.66723      1261.921          28.000  
G19  23657467.969 8 124320825.02812      1613.304          32.000  
E21  25219370.655 4 132528703.696 2      -704.211          29.000  
J 3  41307968.332 8 217074830.004 3       510.630          32.000  
E26  25259255.362 8 132738294.333 3       -68.103          30.000  
G 3  23831525.131 9 125235509.17935     -1581.017          31.000  
J 1  39020269.042 9                       148.406          22.000  
G 6  23236296.669 8 122107564.683 2      1233.760          32.000  
> 2021  5 21  6 29 26.0050000  0 12                     
G17  23338461.952 2 122644448.868 1       843.039          34.000  
G14  21787065.177 4 114491802.228 2      -331.516          33.000  
E 1  26832620.303 4 141006385.251 2      1882.636          32.000  
G28  22135623.818 2 116323484.82222      1262.368          29.000  
G19  23657159.188 4 124319211.095 2      1613.595          32.000  
E21  25219506.558 8 132529407.214 3      -703.033          30.000  
J 3  41307868.971 4 217074319.074 2       511.443          32.000  
E26  25259265.413 8 132738362.085 2       -67.885          31.000  
G 3  23831828.207 9                     -1580.798          24.000  
J 2  37557407.604 9                       341.992          29.000  
G30  25247099.481 9                     -2550.128          29.000  
G 6  23236062.225 4 122106331.702 2      1232.648          33.000  
> 2021  5 21  6 29 27.0050000  0 12                     
G17  23338300.992 4 122643606.465 3       841.183          29.000  
G14  21787130.545 8 114492133.484 2      -331.077          32.000  
E 1  26832259.450 8 141004502.426 2      1882.658          31.000  
G28  22135383.860 2 116322222.83322      1262.010          29.000  
G19  23656855.188 8 124317597.019 3      1613.869          32.000  
E21  25219639.825 8 132530110.224 3      -702.411          29.000  
J 3  41307771.284 8 217073807.351 3       512.396          31.000  
E26  25259282.078 8 132738429.583 3       -67.658          31.000  
G 3  23832130.846 9                     -1575.546          20.000  
J 2  37557346.843 9                       336.660          29.000  
G30  25247581.979 9                     -2549.017          28.000  
G 6  23235829.073 4 122105098.434 2      1231.926          32.000  
> 2021  5 21  6 29 28.0050000  0 12                     
G17  23338138.931 9                       838.855          21.000  
G14  21787188.253 8 114492465.398 3      -333.350          31.000  
E 1  26831901.232 8 141002620.579 2      1880.558          30.000  
G28  22135145.176 4 116320961.74123      1260.106          28.000  
G19  23656545.080 8 124315983.746 3      1612.126          27.000  
E21  25219772.569 8 132530813.514 3      -703.802          28.000  
J 3  41307674.034 8 217073296.098 4       510.416          30.000  
E26  25259297.207 8 132738497.717 2       -69.385          30.000  
G 3  23832432.176 9                     -1575.546          17.000  
J 2  37557282.992 9 197364852.65534       337.027          28.000  
G30  25248072.034 9 132679487.72835     -2548.987          28.000  
G 6  23235594.559 8 122103865.431 3      1232.807          32.000  
> 2021  5 21  6 29 29.0050000  0 11                     
G17  23337978.477 9                       838.021          22.000  
G14  21787253.849 8 114492799.143 2      -334.823          31.000  
E 1  26831541.025 8 141000740.486 3      1879.571          30.000  
G28  22134904.817 4 116319702.58523      1258.807          29.000  
G19  23656239.055 8                      1613.285          26.000  
E21  25219912.781 8 132531518.119 3      -704.730          29.000  
J 3  41307578.442 8 217072787.187 3       507.384          30.000  
E26  25259306.002 8 132738567.266 2       -70.145          31.000  
J 2  37557212.546 9 197364516.58724       337.039          28.000  
G30  25248555.160 8 132682036.22924     -2548.334          29.000  
G 6  23235361.320 4 122102633.270 2      1232.356          32.000  
> 2021  5 21  6 29 30.0050000  0 12                     
G17  23337820.796 9                       835.804          21.000  
G14  21787319.322 4 114493133.867 2      -334.126          31.000  
E 1  26831182.126 8 140998861.200 3      1879.474          30.000  
G28  22134665.156 4 116318444.81423      1257.831          29.000  
G19  23655928.005 9                      1609.537          24.000  
E21  25220043.413 4 132532222.508 2      -703.381          29.000  
J 3  41307484.630 4 217072281.176 3       504.821          31.000  
E26  25259318.444 4 132738637.232 2       -69.273          31.000  
J 2  37557151.522 8 197364179.95824       337.788          28.000  
G30  25249040.887 9                     -2542.053          29.000  
J 1  39020117.173 9                       156.938          22.000  
G 6  23235121.379 4 122101399.543 2      1235.704          34.000  
> 2021  5 21  6 29 31.0050000  0 12                     
G17  23337662.820 9                       834.096          21.000  
G14  21787384.690 8 114493467.736 3      -333.628          32.000  
E 1  26830827.189 8 140996981.921 3      1878.912          30.000  
G28  22134427.239 4 116317186.935 3      1258.291          32.000  
G19  23655624.563 9                      1609.253          26.000  
E21  25220176.279 4 132532924.533 2      -700.972          32.000  
J 3  41307387.275 8 217071776.760 5       505.925          25.000  
E26  25259332.090 8 132738706.505 2       -68.556          32.000  
J 2  37557088.771 8 197363839.99823       342.710          34.000  
G30  25249525.550 9                     -2534.766          30.000  
J 1  39020088.328 9                       156.938          23.000  
G 6  23234886.482 4 122100162.457 2      1238.942          35.000  
> 2021  5 21  6 29 32.0050000  0 13                     
G17  23337502.138 9                       838.196          19.000  
G14  21787443.759 8 114493801.202 3      -333.328          31.000  
E 1  26830472.705 8 140995104.507 2      1875.236          31.000  
G28  22134186.810 8 116315930.179 3      1255.837          31.000  
G19  23655323.303 8 124309539.63033      1604.168          33.000  
E21  25220306.406 8 132533624.781 2      -699.788          31.000  
J 3  41307290.444 9                       507.721          23.000  
E26  25259345.579 8 132738776.809 3       -70.816          31.000  
J 2  37557025.270 4 197363496.38722       345.283          32.000  
G30  25250008.118 9                     -2528.729          30.000  
J 1  39020060.320 9                       156.938          23.000  
E27  27836055.044 9 146279466.60115     -2650.706          26.000  
G 6  23234649.961 4 122098923.350 2      1239.267          34.000  
> 2021  5 21  6 29 33.0050000  0 13                     
G17  23337342.538 9                       838.196          17.000  
G14  21787508.255 8 114494135.110 3      -334.246          32.000  
E 1  26830117.907 8 140993231.082 2      1871.417          31.000  
G28  22133947.149 8 116314675.838 3      1253.157          32.000  
G19  23655018.936 4 124307937.98022      1597.664          34.000  
E21  25220438.469 8 132534324.265 3      -699.123          31.000  
J 3  41307197.207 9                       496.836          21.000  
E26  25259361.389 8 132738849.988 2       -74.376          31.000  
J 2  37556958.436 4 197363149.43722       347.826          33.000  
G30  25250486.847 8                     -2524.567          28.000  
J 1  39020030.777 9                       156.938          26.000  
E27  27836566.161 9 146282114.993 4     -2646.521          28.000  
G 6  23234417.542 4 122097684.287 2      1239.343          34.000  
> 2021  5 21  6 29 34.0050000  0 13                     
G17  23337182.520 9                       838.196          13.000  
G14  21787573.066 4 114494468.739 2      -332.869          33.000  
E 1  26829762.987 4 140991361.078 2      1868.646          32.000  
G28  22133708.971 8 116313423.148 2      1252.043          32.000  
G19  23654714.325 8 124306340.17023      1595.588          33.000  
E21  25220573.673 8 132535022.565 3      -696.799          31.000  
J 3  41307100.166 9                       496.669          21.000  
E26  25259379.904 4 132738925.586 2       -76.397          32.000  
J 2  37556891.758 4 197362798.59422       353.088          33.000  
G30  25250965.402 9                     -2516.510          28.000  
J 1  39020001.513 9                       156.938          27.000  
E27  27837071.135 9 146284758.234 4     -2639.790          28.000  
G 6  23234183.273 4 122096445.390 2      1239.845          33.000  
> 2021  5 21  6 29 35.0050000  0 13                     
G17  23337025.189 9                       838.196          13.000  
G14  21787636.008 4 114494800.974 2      -332.692          34.000  
E 1  26829404.856 8 140989493.627 3      1864.904          31.000  
G28  22133469.886 8 116312170.937 3      1251.559          31.000  
G19  23654407.288 8 124304745.44022      1593.079          33.000  
E21  25220708.808 8 132535718.906 3      -696.456          31.000  
J 3  41307008.082 9 217069791.62535       495.148          31.000  
E26  25259391.909 4 132739002.587 2       -78.312          32.000  
J 2  37556823.005 4 197362443.01022       357.626          33.000  
G30  25251442.491 8 132697233.77135     -2513.171          29.000  
J 1  39019972.650 9                       156.938          28.000  
E27  27837573.701 8 146287395.615 4     -2635.311          28.000  
G 6  23233943.769 8 122095206.298 3      1237.493          33.000  
> 2021  5 21  6 29 36.0050000  0 13                     
G17  23336868.835 9                       828.953          13.000  
G14  21787698.358 4 114495133.871 2      -332.927          34.000  
E 1  26829051.612 4 140987630.515 2      1860.808          31.000  
G28  22133231.777 8 116310921.155 3      1248.388          31.000  
G19  23654107.564 4 124303155.39522      1588.330          34.000  
E21  25220839.964 8 132536415.497 2      -697.079          32.000  
J 3  41306915.526 8 217069296.80623       494.705          32.000  
E26  25259407.946 4 132739083.026 2       -82.012          33.000  
J 2  37556754.006 4 197362085.00522       358.627          33.000  
G30  25251919.056 8 132699746.39524     -2511.670          30.000  
J 1  39019943.212 9                       156.938          29.000  
E27  27838073.144 8 146290029.306 4     -2632.737          28.000  
G 6  23233709.325 4 122093969.224 2      1235.911          35.000  
> 2021  5 21  6 29 37.0050000  0 13                     
G17  23336714.453 9                       813.998          30.000  
G14  21787761.231 4 114495467.565 2      -334.106          33.000  
E 1  26828698.035 4 140985769.578 2      1860.277          32.000  
G28  22132995.362 8 116309672.695 3      1248.030          32.000  
G19  23653805.535 4 124301567.48322      1588.197          33.000  
E21  25220974.627 8 132537112.590 2      -697.713          31.000  
J 3  41306819.654 8 217068802.60422       494.995          32.000  
E26  25259422.604 4 132739165.102 2       -82.340          33.000  
J 2  37556685.340 4 197361726.19422       357.998          34.000  
G30  25252394.557 9                     -2512.494          31.000  
J 1  39019910.667 9                       156.938          29.000  
E27  27838573.389 8 146292661.883 4     -2632.988          30.000  
G 6  23233474.288 4 122092733.677 2      1235.912          35.000  
> 2021  5 21  6 29 38.0050000  0 13                     
G17  23336570.506 9 122634505.46033       814.962          31.000  
G14  21787827.088 4 114495801.806 2      -334.090          32.000  
E 1  26828343.395 4 140983909.387 2      1860.438          31.000  
G28  22132762.017 8 116308424.914 3      1248.644          31.000  
G19  23653499.214 8 124299980.09423      1587.066          33.000  
E21  25221107.458 8 132537810.006 2      -698.063          30.000  
J 3  41306725.528 8 217068308.66623       494.050          31.000  
E26  25259432.272 4 132739247.629 3       -82.353          31.000  
J 2  37556618.488 4 197361367.11622       358.882          33.000  
G30  25252875.642 9 132704739.13534     -2509.631          31.000  
J 1  39019880.496 9                       160.723          29.000  
E27  27839078.835 9                     -2632.377          29.000  
G 6  23233238.780 4 122091498.500 2      1235.098          34.000  
> 2021  5 21  6 29 39.0050000  0 14                     
G17  23336416.124 8 122633691.86523       814.175          31.000  
G14  21787888.548 4 114496136.568 2      -334.474          32.000  
E 1  26827990.097 4 140982049.763 2      1859.239          31.000  
G28  22132524.537 8 116307177.611 3      1247.402          31.000  
G19  23653199.873 8 124298392.71723      1587.690          32.000  
E21  25221236.659 8 132538507.930 3      -698.625          30.000  
J 3  41306631.331 8 217067814.05323       495.533          30.000  
E26  25259450.595 8 132739330.408 3       -82.335          31.000  
J 2  37556550.293 4 197361008.16122       358.082          33.000  
E 7  28990661.125 9                      2008.615          26.000  
G30  25253355.646 8 132707250.68924     -2511.377          31.000  
J 1  39019846.660 9                       172.686          28.000  
E27  27839576.934 8 146297989.31215     -2632.319          29.000  
G 6  23233005.226 4 122090264.178 2      1234.040          34.000  
> 2021  5 21  6 29 40.0050000  0 14                     
G17  23336264.150 8 122632877.34923       814.331          32.000  
G14  21787952.486 4 114496471.708 2      -336.612          32.000  
E 1  26827636.277 4 140980190.540 2      1858.438          31.000  
G28  22132290.460 8 116305930.483 3      1246.010          31.000  
G19  23652900.898 8 124296805.18122      1588.069          32.000  
E21  25221368.164 8 132539206.318 2      -697.917          30.000  
J 3  41306537.432 8 217067318.14223       495.358          31.000  
E26  25259469.057 8 132739413.428 3       -82.516          31.000  
J 2  37556482.568 4 197360649.12022       358.943          33.000  
E 7  28990279.681 9                      2010.233          26.000  
G30  25253833.380 8 132709763.21424     -2512.531          31.000  
J 1  39019813.749 9                       172.686          28.000  
E27  27840081.193 8                     -2631.786          29.000  
G 6  23232770.713 4 122089031.088 2      1232.198          34.000  
> 2021  5 21  6 29 41.0050000  0 14                     
G17  23336105.807 8 122632062.60323       814.694          31.000  
G14  21788016.842 4 114496807.375 2      -335.903          32.000  
E 1  26827282.317 4 140978331.969 3      1857.518          31.000  
G28  22132050.834 8 116304683.884 3      1246.425          31.000  
G19  23652597.579 4 124295217.87522      1586.856          33.000  
E21  25221502.391 8 132539905.492 3      -699.142          30.000  
J 3  41306443.811 8 217066821.64423       496.356          31.000  
E26  25259481.237 8 132739496.915 3       -83.644          31.000  
J 2  37556414.111 8 197360290.31523       358.911          33.000  
E 7  28989900.505 9                      2010.768          26.000  
G30  25254305.496 8 132712276.33525     -2513.617          30.000  
J 1  39019778.988 9                       172.686          28.000  
E27  27840574.196 8 146303253.995 5     -2632.456          28.000  
G 6  23232536.984 4 122087799.109 2      1230.500          34.000  
> 2021  5 21  6 29 42.0050000  0 13                     
G17  23335954.374 8                       823.948          32.000  
G14  21788081.129 4 114497143.616 3      -336.235          32.000  
E 1  26826928.915 4 140976473.973 3      1858.125          31.000  
G28  22131811.312 8 116303437.698 2      1246.020          31.000  
G19  23652293.788 4 124293630.54222      1587.473          33.000  
E21  25221640.126 8 132540605.369 3      -699.692          31.000  
J 3  41306348.830 8 217066323.95923       497.991          31.000  
E26  25259500.083 8 132739580.755 3       -84.367          31.000  
J 2  37556344.363 4 197359931.62022       359.567          33.000  
E 7  28989512.464 9                      2009.753          26.000  
J 1  39019744.646 9                       172.686          28.000  
E27  27841085.121 9                     -2635.179          28.000  
G 6  23232302.174 4 122086568.462 2      1230.214          35.000  
> 2021  5 21  6 29 43.0050000  0 14                     
G17  23335801.108 9                       815.693          32.000  
G14  21788144.316 8 114497480.284 3      -337.442          32.000  
E 1  26826575.321 4 140974616.618 3      1856.838          31.000  
G28  22131571.895 8 116302191.846 3      1246.205          31.000  
G19  23651995.250 4 124292042.91212      1586.332          32.000  
E21  25221775.295 8 132541305.634 3      -700.792          30.000  
J 3  41306255.384 8 217065825.561 3       500.079          31.000  
E26  25259518.982 8 132739664.894 3       -84.150          31.000  
G 3  23837006.960 9                     -1612.451          27.000  
J 2  37556275.818 4 197359572.91622       358.210          33.000  
E 7  28989124.406 9                      2011.855          25.000  
J 1  39019714.317 9                       172.686          29.000  
E27  27841585.053 9                     -2632.111          28.000  
G 6  23232068.481 4 122085338.620 2      1229.737          34.000  
> 2021  5 21  6 29 44.0050000  0 15                     
G17  23335644.807 9                       815.565          31.000  
G14  21788209.039 8 114497817.584 3      -338.455          31.000  
E 1  26826222.268 4 140972759.636 3      1856.250          30.000  
G28  22131334.782 8 116300946.733 3      1244.189          31.000  
G19  23651691.651 4 124290456.037 2      1586.278          32.000  
E21  25221904.689 8 132542006.125 3      -700.591          30.000  
J 3  41306159.128 9                       501.611          30.000  
E26  25259530.150 8 132739749.154 3       -83.922          31.000  
G 3  23837301.398 9                     -1610.060          28.000  
J 2  37556205.912 8 197359214.08524       358.426          32.000  
E 7  28988740.292 9                      2012.224          25.000  
G30  25255747.111 9                     -2514.224          25.000  
J 1  39019683.465 9                       172.686          28.000  
E27  27842080.691 9                     -2625.548          26.000  
G 6  23231834.631 4 122084108.582 2      1230.354          34.000  
> 2021  5 21  6 29 45.0050000  0 14                     
G17  23335491.280 9                       815.687          30.000  
G14  21788272.383 8 114498154.874 4      -337.087          25.000  
E 1  26825864.835 8 140970901.825 4      1858.172          29.000  
G28  22131098.034 8 116299701.421 4      1244.971          30.000  
G19  23651383.026 8 124288868.284 4      1588.273          30.000  
E21  25222037.310 8 132542706.178 4      -700.208          29.000  
J 3  41306063.501 9 217064828.11935       496.952          29.000  
E26  25259551.963 8 132739832.523 3       -82.284          30.000  
G 3  23837611.837 9                     -1611.370          27.000  
J 2  37556137.752 9                       359.316          31.000  
G30  25256225.369 9                     -2510.834          25.000  
J 1  39019651.497 9                       172.686          26.000  
E27  27842582.001 9                     -2621.354          23.000  
G 6  23231600.937 4 122082877.192 3      1232.699          30.000  
> 2021  5 21  6 29 46.0050000  0 14                     
G17  23335335.100 9                       812.730          29.000  
G14  21788339.357 8 114498492.351 4      -337.438          27.000  
E 1  26825510.352 8 140969042.268 4      1860.050          29.000  
G28  22130862.212 8 116298455.654 5      1244.719          28.000  
G19  23651086.076 8 124287278.747 4      1590.062          29.000  
E21  25222174.870 8 132543405.483 5      -699.011          28.000  
J 3  41305969.933 9 217064331.19725       496.142          28.000  
E26  25259567.162 8 132739914.117 4       -80.779          28.000  
G 3  23837922.748 9                     -1614.339          26.000  
J 2  37556074.408 9                       358.410          30.000  
G30  25256703.295 9                     -2502.494          25.000  
J 1  39019620.610 9                       172.686          25.000  
E27  27843082.177 9                     -2632.183          23.000  
G 6  23231365.778 9                      1240.385          19.000  
> 2021  5 21  6 29 47.0050000  0 12                     
G17  23335183.789 9                       815.535          25.000  
G14  21788402.963 9                      -339.489          26.000  
E 1  26825157.857 9                      1862.913          26.000  
G28  22130622.307 9                      1243.659          25.000  
G19  23650777.835 9                      1585.818          26.000  
E21  25222312.081 9                      -704.771          26.000  
J 3  41305877.587 9                       487.049          25.000  
E26  25259577.719 9                      -106.832          15.000  
J 2  37556007.067 9                       355.184          19.000  
J 1  39019587.507 9                       172.686          22.000  
E27  27843581.637 9                     -2620.436          20.000  
G 6  23231129.101 9                      1230.971          16.000  
> 2021  5 21  6 29 48.0050000  0 12                     
G17  23335031.763 9                       829.048          25.000  
G14  21788469.693 9                      -340.065          26.000  
E 1  26824800.337 9                      1863.319          25.000  
G28  22130384.251 9                      1250.221          24.000  
G19  23650480.588 9                      1584.477          25.000  
E21  25222445.314 9                      -701.522          25.000  
J 3  41305783.547 9                       495.971          24.000  
E26  25259593.512 9                       -76.570          27.000  
J 2  37555941.542 9                       352.395          23.000  
J 1  39019555.712 9                       172.686          21.000  
E27  27844082.685 9                     -2641.920          20.000  
G 6  23230892.301 9                      1233.887          17.000  
> 2021  5 21  6 29 49.0050000  0 12                     
G17  23334875.985 9                       822.776          23.000  
G14  21788538.446 9                      -341.096          25.000  
E 1  26824450.373 9                      1867.726          23.000  
G28  22130149.214 9                      1246.482          21.000  
G19  23650177.809 9                      1605.865          23.000  
E21  25222579.017 9                      -702.763          23.000  
J 3  41305690.084 9                       509.862          20.000  
E26  25259609.287 9                       -72.052          25.000  
J 2  37555873.748 9                       349.387          22.000  
J 1  39019522.801 9                       172.686          20.000  
E27  27844587.258 9                     -2642.714          18.000  
G 6  23230657.823 9                      1230.561          16.000  
> 2021  5 21  6 29 50.0050000  0 11                     
G17  23334718.252 9                       822.875          22.000  
G14  21788603.117 9                      -340.896          24.000  
E 1  26824096.553 9                      1868.297          22.000  
G28  22129912.310 9                      1256.065          21.000  
G19  23649871.174 9                      1610.593          23.000  
E21  25222709.353 9                      -703.420          22.000  
J 3  41305592.101 9                       498.057          20.000  
E26  25259620.839 9                       -64.024          24.000  
J 2  37555805.273 9                       345.403          22.000  
E27  27845091.621 9                     -2650.859          17.000  
G 6  23230424.409 9                      1230.561          14.000  
> 2021  5 21  6 29 51.0050000  0 11                     
G17  23334555.913 9                       830.675          23.000  
G14  21788667.735 9                      -346.636          24.000  
E 1  26823742.191 9                      1880.690          22.000  
G28  22129675.685 9                      1252.034          22.000  
G19  23649565.411 9                      1607.270          23.000  
E21  25222840.910 9                      -700.492          21.000  
J 3  41305496.282 9                       501.449          21.000  
E26  25259633.298 9                       -59.520          23.000  
J 2  37555739.922 9                       342.419          22.000  
E27  27845599.213 9                     -2650.798          17.000  
G 6  23230189.215 9                      1230.561          13.000  
> 2021  5 21  6 29 52.0050000  0 11                     
G17  23334395.354 9                       832.133          25.000  
G14  21788732.371 9                      -343.998          23.000  
E 1  26823381.338 9                      1874.567          23.000  
G28  22129437.419 9                      1237.019          23.000  
G19  23649260.155 9                      1611.388          26.000  
E21  25222975.312 9                      -700.492          17.000  
J 3  41305400.393 9                       509.841          22.000  
E26  25259646.875 9                       -75.110          22.000  
J 2  37555675.531 9                       333.015          23.000  
E27  27846104.502 9                     -2650.798          16.000  
G 6  23229955.434 9                      1235.300          20.000  
> 2021  5 21  6 29 53.0050000  0 11                     
G17  23334234.410 9                       837.745          25.000  
G14  21788795.104 9                      -338.217          23.000  
E 1  26823023.259 9                      1872.891          23.000  
G28  22129198.247 9                      1243.964          23.000  
G19  23648953.101 9 124276087.64035      1612.755          26.000  
E21  25223108.300 9                      -700.492          15.000  
J 3  41305301.991 9                       508.609          22.000  
E26  25259661.637 9                       -76.518          22.000  
J 2  37555610.127 9                       329.305          23.000  
E27  27846610.558 9                     -2652.108          18.000  
G 6  23229720.240 9                      1234.045          21.000  
> 2021  5 21  6 29 54.0050000  0 11                     
G17  23334073.659 9                       838.740          23.000  
G14  21788859.286 9                      -354.763          21.000  
E 1  26822664.518 9                      1874.106          22.000  
G28  22128961.657 9                      1255.654          21.000  
G19  23648647.582 9                      1621.470          24.000  
E21  25223241.375 9                      -700.492          11.000  
J 3  41305204.392 9                       502.220          20.000  
E26  25259676.069 9                       -69.322          21.000  
J 2  37555549.505 9                       327.112          20.000  
E27  27847114.870 9                     -2656.271          16.000  
G 6  23229484.575 9                      1238.218          22.000  
> 2021  5 21  6 29 55.0050000  0 11                     
G17  23333916.694 9                       820.007          22.000  
G14  21788926.173 9                      -358.055          22.000  
E 1  26822307.905 9                      1870.501          21.000  
G28  22128722.659 9                      1251.612          20.000  
G19  23648340.633 9                      1606.898          23.000  
E21  25223375.829 9                      -706.520          15.000  
J 3  41305108.782 9                       493.886          20.000  
E26  25259690.762 9                       -78.291          21.000  
J 2  37555488.447 9                       327.112          18.000  
E27  27847622.810 9                     -2656.271          14.000  
G 6  23229252.243 9                      1227.516          23.000  
> 2021  5 21  6 29 56.0050000  0 11                     
G17  23333757.653 9                       830.586          24.000  
G14  21788993.566 9                      -355.099          22.000  
E 1  26821952.462 9                      1863.587          22.000  
G28  22128485.632 9                      1235.250          21.000  
G19  23648035.464 9                      1605.990          25.000  
E21  25223513.267 9                      -703.652          20.000  
J 3  41305013.679 9                       504.037          21.000  
E26  25259706.554 9                       -61.634          21.000  
J 2  37555427.127 9                       327.112          15.000  
E27  27848129.582 9                     -2656.271          11.000  
G 6  23229018.811 9                      1226.256          25.000  
> 2021  5 21  6 29 57.0050000  0 10                     
G17  23333600.043 9                       826.791          25.000  
G14  21789056.526 9                      -344.926          23.000  
E 1  26821595.936 9                      1868.713          23.000  
G28  22128251.380 9                      1235.947          22.000  
G19  23647729.387 9 124269655.81235      1598.994          26.000  
E21  25223647.093 9                      -721.770          22.000  
J 3  41304916.097 9                       498.535          22.000  
E26  25259717.967 9                       -81.455          22.000  
J 2  37555363.782 9                       327.112          11.000  
G 6  23228782.308 9                      1223.832          26.000  
> 2021  5 21  6 29 58.0050000  0  9                     
G17  23333442.170 8                       827.053          26.000  
G14  21789121.807 9                      -346.173          24.000  
E 1  26821242.831 9                      1857.854          25.000  
G28  22128014.703 9                      1238.431          24.000  
G19  23647424.322 8 124268057.94624      1596.540          27.000  
E21  25223782.751 9                      -721.600          24.000  
J 3  41304819.266 9                       506.408          22.000  
E26  25259731.875 9                       -83.443          23.000  
G 6  23228549.924 9 122066852.92935      1221.525          27.000  
> 2021  5 21  6 29 59.0050000  0  9                     
G17  23333284.804 8 122617240.30535       823.846          26.000  
G14  21789189.881 9                      -349.871          23.000  
E 1  26820890.756 9                      1854.416          24.000  
G28  22127778.689 9                      1233.555          24.000  
G19  23647120.182 9                      1594.472          26.000  
E21  25223919.944 9                      -706.381          24.000  
J 3  41304720.271 9                       516.040          22.000  
E26  25259748.732 9                       -85.486          24.000  
G 6  23228318.656 8 122065633.40024      1218.136          27.000  
> 2021  5 21  6 30  0.0050000  0  9                     
G17  23333126.513 8 122616416.52625       822.723          26.000  
G14  21789256.436 9                      -349.741          24.000  
E 1  26820537.371 9                      1853.552          24.000  
G28  22127542.413 9                      1238.184          24.000  
G19  23646817.334 9                      1592.436          26.000  
E21  25224057.156 9                      -710.152          24.000  
J 3  41304623.789 9                       506.724          22.000  
E26  25259764.768 9                       -83.201          24.000  
G 6  23228087.790 8 122064415.79424      1216.931          27.000  
> 2021  5 21  6 30  1.0050000  0  9                     
G17  23332970.439 8                       821.032          25.000  
G14  21789323.043 9                      -348.837          24.000  
E 1  26820185.296 9                      1851.755          24.000  
G28  22127308.598 9                      1240.295          24.000  
G19  23646514.590 8                      1590.686          26.000  
E21  25224193.564 9                      -714.587          24.000  
J 3  41304527.062 9                       496.250          21.000  
E26  25259780.718 9                       -87.039          25.000  
G 6  23227857.098 4 122063198.01724      1217.676          27.000  
> 2021  5 21  6 30  2.0050000  0 10                     
G17  23332814.120 4 122614766.28334       819.116          26.000  
G14  21789391.832 9 114504026.11235      -349.135          27.000  
E 1  26819835.070 9                      1848.833          25.000  
G28  22127072.636 9                      1236.593          25.000  
G19  23646211.323 8 124261678.51535      1587.298          27.000  
E21  25224330.147 9                      -712.263          26.000  
J 3  41304431.609 9                       513.256          23.000  
E26  25259795.690 9 132741132.50615       -88.326          27.000  
J 1  39019147.447 9                       175.171          21.000  
G 6  23227623.684 4 122061980.56423      1216.537          28.000  
> 2021  5 21  6 30  3.0050000  0 10                     
G17  23332655.270 4 122613947.90624       817.452          27.000  
G14  21789457.445 8 114504375.45723      -349.168          30.000  
E 1  26819483.779 8 140937348.62215      1846.069          27.000  
G28  22126837.197 9 116277313.86035      1235.616          26.000  
G19  23645908.718 8 124260093.09724      1583.947          28.000  
E21  25224462.768 9 132555456.08715      -712.469          27.000  
J 3  41304335.232 9 217055746.33335       505.713          29.000  
E26  25259810.732 8 132741222.098 4       -90.165          30.000  
J 1  39019113.245 9                       175.171          23.000  
G 6  23227393.131 4 122060765.46823      1214.096          30.000  
> 2021  5 21  6 30  4.0050000  0 11                     
G17  23332502.581 4 122613129.56223       818.884          28.000  
G14  21789524.052 8 114504725.14023      -350.320          29.000  
E 1  26819131.320 4 140935502.875 4      1844.991          27.000  
G28  22126602.283 8 116276079.28224      1234.371          27.000  
G19  23645608.313 4 124258508.82524      1584.716          28.000  
E21  25224598.234 8 132556168.483 4      -712.986          27.000  
J 3  41304241.890 9 217055239.82824       507.297          29.000  
E26  25259830.887 8 132741313.105 3       -91.655          30.000  
G 3  23843447.068 9                     -1610.702          25.000  
J 1  39019078.903 9                       175.171          25.000  
G 6  23227159.019 8 122059552.63623      1211.624          31.000  
> 2021  5 21  6 30  5.0050000  0 11                     
G17  23332348.984 4 122612308.58823       823.374          28.000  
G14  21789590.258 4 114505075.79223      -351.103          28.000  
E 1  26818779.803 4 140933656.758 4      1846.941          27.000  
G28  22126367.385 8 116274844.65125      1234.534          26.000  
G19  23645308.152 4 124256923.07224      1587.296          28.000  
E21  25224735.323 4 132556882.604 3      -714.199          26.000  
J 3  41304146.106 8 217054731.03424       509.875          28.000  
E26  25259849.978 8 132741403.782 3       -90.160          29.000  
G 3  23843754.349 9 125299774.67335     -1606.775          26.000  
J 1  39019045.538 9                       175.171          25.000  
G 6  23226932.131 8 122058341.86423      1210.759          29.000  
> 2021  5 21  6 30  6.0050000  0 11                     
G17  23332187.413 4 122611485.85823       822.385          29.000  
G14  21789651.683 4 114505427.14323      -352.158          28.000  
E 1  26818427.745 4 140931809.732 3      1846.503          28.000  
G28  22126133.901 4 116273609.78624      1234.091          27.000  
G19  23645000.400 4 124255335.56523      1587.400          29.000  
E21  25224872.604 4 132557597.735 3      -715.090          27.000  
J 3  41304051.334 8 217054220.82723       509.925          28.000  
E26  25259856.522 8 132741493.618 3       -89.841          28.000  
G 3  23844060.583 8 125301382.28624     -1608.134          28.000  
J 1  39019014.180 9                       175.171          25.000  
G 6  23226703.359 4 122057131.83823      1209.310          29.000  
> 2021  5 21  6 30  7.0050000  0 10                     
G17  23332030.378 4 122610663.17923       823.417          29.000  
G14  21789724.503 4 114505779.27323      -352.834          28.000  
E 1  26818076.193 4 140929963.233 3      1846.497          27.000  
G28  22125900.557 4 116272375.56124      1234.446          27.000  
G19  23644698.790 4 124253748.26223      1587.540          28.000  
E21  25225009.082 4 132558313.548 3      -715.942          26.000  
J 3  41303955.934 4 217053710.70624       509.710          28.000  
E26  25259873.832 8 132741583.837 3       -90.078          28.000  
G 3  23844370.778 8 125302990.64823     -1608.713          28.000  
G 6  23226471.742 4 122055921.78513      1210.156          29.000  
> 2021  5 21  6 30  8.0050000  0 11                     
G17  23331871.965 4 122609840.43023       823.202          29.000  
G14  21789794.339 4 114506131.87623      -352.663          28.000  
E 1  26817723.559 4 140928116.944 3      1846.427          28.000  
G28  22125669.656 4 116271141.76524      1233.652          27.000  
G19  23644399.083 4 124252160.85323      1587.728          29.000  
E21  25225144.374 4 132559029.632 4      -715.876          26.000  
J 3  41303860.411 4 217053200.26024       510.876          27.000  
E26  25259891.073 4 132741673.995 3       -90.008          28.000  
G 3  23844676.802 4 125304599.43923     -1609.296          28.000  
J 1  39018946.822 9                       171.135          26.000  
G 6  23226248.327 8 122054712.601 3      1209.609          29.000  
> 2021  5 21  6 30  9.0050000  0 12                     
G17  23331715.890 4 122609016.86023       823.606          30.000  
G14  21789864.977 4 114506484.33723      -352.302          28.000  
E 1  26817370.925 4 140926270.178 3      1847.477          27.000  
G28  22125436.486 4 116269907.71024      1233.868          27.000  
G19  23644097.787 4 124250572.68223      1588.468          29.000  
E21  25225280.416 4 132559745.396 4      -715.985          27.000  
J 3  41303762.411 4 217052688.94523       511.906          27.000  
E26  25259908.506 4 132741763.488 3       -88.909          28.000  
G 3  23844983.123 4 125306207.98623     -1608.841          28.000  
G22  26376144.623 9                     -2916.399          10.000  
J 1  39018915.324 9                       174.529          25.000  
G 6  23226009.853 4 122053502.970 3      1209.785          29.000  
> 2021  5 21  6 30 10.0050000  0 13                     
G17  23331562.660 8 122608193.43323       822.587          30.000  
G14  21789930.014 4 114506837.37024      -353.118          28.000  
E 1  26817020.036 4 140924424.005 3      1845.381          27.000  
G28  22125199.372 4 116268674.12124      1232.884          27.000  
G19  23643795.270 8 124248984.61923      1587.336          30.000  
E21  25225417.121 4 132560461.678 3      -716.673          26.000  
J 3  41303667.342 4 217052177.68523       510.720          27.000  
E26  25259932.046 4 132741853.263 3       -90.247          28.000  
G 3  23845280.998 4 125307817.20224     -1609.998          28.000  
J 2  37554458.186 9                       369.668          13.000  
G22  26376700.988 9                     -2916.399          10.000  
J 1  39018880.459 9                       173.515          25.000  
G 6  23225776.892 4 122052293.861 2      1208.352          29.000  
> 2021  5 21  6 30 11.0050000  0 13                     
G17  23331410.389 4 122607370.82822       822.747          30.000  
G14  21789995.086 4 114507192.10124      -354.922          28.000  
E 1  26816669.530 4 140922578.939 3      1844.815          27.000  
G28  22124964.527 4 116267442.06124      1231.282          27.000  
G19  23643494.376 8 124247397.44523      1586.772          30.000  
E21  25225553.023 4 132561179.320 3      -718.153          26.000  
J 3  41303569.359 4 217051667.15323       510.216          27.000  
E26  25259948.711 4 132741943.999 3       -90.544          28.000  
G 3  23845586.656 4 125309427.90223     -1611.275          28.000  
J 2  37554393.847 9                       369.668          13.000  
G22  26377254.317 9                     -2916.399          11.000  
J 1  39018847.408 9                       172.046          25.000  
G 6  23225549.254 4 122051085.957 2      1207.699          29.000  
> 2021  5 21  6 30 12.0050000  0 13                     
G17  23331251.034 4 122606548.05623       823.646          30.000  
G14  21790063.910 8 114507547.19924      -354.201          29.000  
E 1  26816317.560 2 140920734.115 2      1845.051          28.000  
G28  22124727.553 4 116266210.18024      1232.424          27.000  
G19  23643194.215 4 124245810.08923      1588.826          30.000  
E21  25225689.117 4 132561897.257 3      -717.950          27.000  
J 3  41303472.859 4 217051156.36723       511.600          27.000  
E26  25259964.608 4 132742034.759 3       -90.154          29.000  
G 3  23845891.721 4 125311038.99023     -1610.938          28.000  
J 2  37554325.948 9                       369.668          13.000  
G22  26377810.194 9                     -2916.399          11.000  
J 1  39018812.717 9                       173.133          26.000  
G 6  23225317.009 8 122049878.393 3      1206.780          30.000  
> 2021  5 21  6 30 13.0050000  0 12                     
G17  23331088.468 9                       824.697          30.000  
G14  21790129.208 8 114507901.44114      -355.261          28.000  
E 1  26815968.712 2 140918888.596 2      1845.448          28.000  
G28  22124492.307 4 116264977.28014      1231.976          27.000  
G19  23642891.680 8 124244221.819 3      1588.113          30.000  
E21  25225825.735 4 132562614.573 3      -717.875          27.000  
J 3  41303377.407 2 217050643.98113       511.835          28.000  
E26  25259985.601 8 132742124.638 3       -90.118          29.000  
G 3  23846196.542 4 125312649.66523     -1611.151          28.000  
J 2  37554261.190 9                       356.362          13.000  
J 1  39018776.298 9                       173.799          26.000  
G 6  23225085.148 8 122048670.046 3      1207.843          30.000  
> 2021  5 21  6 30 14.0050000  0 12                     
G17  23330936.162 9 122604896.84435       823.014          29.000  
G14  21790193.792 4 114508257.538 3      -356.496          28.000  
E 1  26815617.684 4 140917044.287 3      1843.598          27.000  
G28  22124257.078 4 116263746.257 4      1230.562          26.000  
G19  23642593.142 8 124242634.337 3      1587.418          30.000  
E21  25225964.325 4 132563333.121 3      -719.163          26.000  
J 3  41303280.471 4 217050132.789 3       510.265          27.000  
E26  25260002.562 8 132742215.376 3       -90.912          29.000  
G 3  23846499.896 4 125314261.69324     -1612.528          28.000  
J 2  37554195.595 9                       356.362          12.000  
J 1  39018742.358 9                       172.362          25.000  
G 6  23224857.231 4 122047462.998 3      1206.373          29.000  
> 2021  5 21  6 30 15.0050000  0 12                     
G17  23330780.000 8 122604074.31424       822.997          29.000  
G14  21790260.067 4 114508614.649 4      -357.106          28.000  
E 1  26815267.807 4 140915200.676 3      1843.661          27.000  
G28  22124022.634 9                      1231.183          26.000  
G19  23642293.278 8 124241047.291 3      1587.843          31.000  
E21  25226101.710 4 132564052.589 4      -719.030          27.000  
J 3  41303184.163 4 217049621.864 3       511.069          27.000  
E26  25260017.953 8 132742306.779 3       -91.339          28.000  
G 3  23846807.648 4 125315874.74923     -1613.179          28.000  
J 2  37554125.410 9                       356.362          10.000  
J 1  39018709.185 9                       172.374          25.000  
G 6  23224627.760 4 122046256.696 3      1206.415          29.000  
> 2021  5 21  6 30 16.0050000  0 11                     
G17  23330622.285 8 122603250.87623       823.942          29.000  
G14  21790326.815 4 114508971.518 3      -356.437          28.000  
E 1  26814918.611 4 140913356.619 3      1843.900          27.000  
G28  22123788.941 9                      1230.480          25.000  
G19  23641989.138 8 124239459.387 3      1589.050          30.000  
E21  25226239.323 4 132564771.624 4      -718.388          26.000  
J 3  41303087.262 4 217049110.000 3       512.217          27.000  
E26  25260033.920 4 132742397.351 3       -90.222          28.000  
G 3  23847112.451 4 125317487.48523     -1612.073          27.000  
J 1  39018674.598 9                       175.958          25.000  
G 6  23224396.877 4 122045049.940 3      1207.188          29.000  
> 2021  5 21  6 30 17.0050000  0 12                     
G17  23330459.701 8 122602427.30023       822.759          29.000  
G14  21790398.500 4 114509328.839 3      -358.174          28.000  
E 1  26814571.037 4 140911512.608 3      1843.355          27.000  
G28  22123555.021 9                      1228.722          25.000  
G19  23641687.197 8 124237871.336 4      1587.293          30.000  
E21  25226375.644 4 132565490.842 4      -719.541          26.000  
J 3  41302990.710 4 217048597.813 4       510.994          27.000  
E26  25260055.227 4 132742487.854 3       -91.180          28.000  
G 3  23847417.708 4 125319100.58324     -1613.806          27.000  
J 1  39018639.140 9                       170.486          26.000  
G 6  23224171.420 4 122043843.417 3      1205.064          29.000  
G 4  27177606.564 9                      1550.000          17.000  
> 2021  5 21  6 30 18.0050000  0 12                     
G17  23330307.099 4 122601604.17723       823.279          29.000  
G14  21790469.034 4 114509687.158 3      -357.428          28.000  
E 1  26814221.701 4 140909669.515 3      1843.563          27.000  
G28  22123322.270 9                      1229.600          26.000  
G19  23641383.406 8 124236283.739 3      1587.973          30.000  
E21  25226512.541 4 132566211.110 4      -720.375          26.000  
J 3  41302893.687 4 217048085.992 3       511.669          27.000  
E26  25260072.730 4 132742579.012 2       -90.802          28.000  
G 3  23847724.029 4 125320714.76624     -1614.026          27.000  
J 1  39018605.321 9                       171.122          26.000  
G 6  23223942.892 8 122042637.721 3      1205.687          30.000  
G 4  27177310.382 9                      1550.000          18.000  
> 2021  5 21  6 30 19.0050000  0 12                     
G17  23330150.030 4 122600779.96323       824.551          29.000  
G14  21790537.107 4 114510045.177 3      -357.448          28.000  
E 1  26813870.341 4 140907825.772 3      1843.849          27.000  
G28  22123088.978 9                      1230.803          26.000  
G19  23641078.428 8 124234695.134 3      1590.156          30.000  
E21  25226649.717 4 132566930.734 4      -719.880          26.000  
J 3  41302796.280 4 217047573.008 4       513.319          27.000  
E26  25260089.691 4 132742669.245 2       -89.838          28.000  
G 3  23848030.455 4 125322328.51123     -1613.552          27.000  
J 1  39018571.206 8                       175.285          26.000  
G 6  23223711.851 8 122041431.362 3      1206.691          30.000  
G 4  27177018.492 9                      1550.000          18.000  
> 2021  5 21  6 30 20.0050000  0 12                     
G17  23329993.117 4 122599955.44422       824.663          29.000  
G14  21790604.605 4 114510403.474 3      -358.906          28.000  
E 1  26813522.960 4 140905981.950 3      1843.676          27.000  
G28  22122853.365 9                      1230.498          25.000  
G19  23640779.471 8 124233106.274 3      1588.625          30.000  
E21  25226786.265 4 132567650.400 4      -719.782          26.000  
J 3  41302694.597 4 217047059.621 4       513.129          27.000  
E26  25260106.810 4 132742759.273 3       -89.740          28.000  
G 3  23848337.195 4 125323942.44423     -1614.334          27.000  
J 1  39018536.969 9                       175.124          25.000  
G 6  23223487.860 4 122040225.062 3      1206.258          29.000  
G 4  27176721.646 9                      1550.000          19.000  
> 2021  5 21  6 30 21.0050000  0 12                     
G17  23329832.715 4 122599131.00923       824.171          29.000  
G14  21790673.725 4 114510762.452 3      -359.803          28.000  
E 1  26813170.640 4 140904138.677 3      1842.820          27.000  
G28  22122618.991 9                      1228.753          25.000  
G19  23640477.582 4 124231517.469 2      1588.381          30.000  
E21  25226923.947 4 132568370.674 4      -720.850          26.000  
J 3  41302596.335 4 217046546.185 3       512.984          27.000  
E26  25260123.109 4 132742849.567 3       -90.692          28.000  
G 3  23848644.493 4 125325557.07323     -1615.080          28.000  
J 1  39018504.546 9                       176.460          25.000  
G 6  23223255.475 8 122039019.287 3      1205.250          30.000  
G 4  27176431.641 9                      1550.000          19.000  
> 2021  5 21  6 30 22.0050000  0 12                     
G17  23329678.473 4 122598307.13522       823.568          29.000  
G14  21790739.617 4 114511122.568 3      -361.228          28.000  
E 1  26812821.984 4 140902296.206 2      1842.246          28.000  
G28  22122384.216 9 116253912.83335      1227.698          27.000  
G19  23640176.688 4 124229929.212 2      1588.046          31.000  
E21  25227062.292 4 132569091.876 4      -721.247          27.000  
J 3  41302498.317 4 217046033.177 3       512.605          28.000  
E26  25260142.251 4 132742940.496 3       -91.623          29.000  
G 3  23848954.130 2 125327172.81623     -1616.120          28.000  
J 1  39018472.141 8 205043454.36635       173.841          26.000  
G 6  23223024.748 8 122037814.406 3      1204.268          31.000  
G 4  27176137.779 9                      1550.000          20.000  
> 2021  5 21  6 30 23.0050000  0 12                     
G17  23329524.178 8 122597483.62223       823.455          29.000  
G14  21790808.266 2 114511483.666 2      -361.645          28.000  
E 1  26812470.275 4 140900454.530 3      1841.395          28.000  
G28  22122150.453 8 116252685.71125      1226.426          26.000  
G19  23639874.642 4 124228341.380 3      1587.871          30.000  
E21  25227198.055 4 132569813.967 4      -722.347          27.000  
J 3  41302399.880 4 217045520.473 3       512.579          28.000  
E26  25260160.347 8 132743031.938 3       -91.611          29.000  
G 3  23849265.040 2 125328789.56423     -1617.406          28.000  
J 1  39018440.399 8                       172.969          26.000  
G 6  23222799.187 8 122036610.307 3      1203.597          30.000  
G 4  27175845.000 9                      1550.000          21.000  
> 2021  5 21  6 30 24.0050000  0 11                     
G17  23329368.155 4 122596660.50523       822.559          29.000  
G14  21790878.102 2 114511845.792 2      -363.231          28.000  
E 1  26812118.863 4 140898613.570 3      1840.273          28.000  
G28  22121915.957 8 116251459.31825      1225.815          26.000  
G19  23639567.187 8 124226754.001 3      1586.751          30.000  
E21  25227333.975 4 132570536.874 4      -723.500          27.000  
J 3  41302303.939 2 217045008.083 3       511.663          28.000  
E26  25260176.122 4 132743123.921 2       -92.394          29.000  
G 3  23849575.462 4 125330407.19623     -1617.965          29.000  
J 1  39018407.174 8 205043108.31025       172.404          26.000  
G 6  23222565.616 8 122035407.009 4      1202.751          30.000  
> 2021  5 21  6 30 25.0050000  0 11                     
G17  23329210.353 4 122595838.34613       820.353          29.000  
G14  21790946.646 2 114512209.918 3      -365.178          28.000  
E 1  26811770.260 4 140896774.373 3      1838.735          27.000  
G28  22121683.939 4 116250234.96124      1223.723          26.000  
G19  23639268.404 8 124225168.041 3      1584.405          30.000  
E21  25227472.128 4 132571261.752 4      -725.959          26.000  
J 3  41302206.061 2 217044496.984 3       510.531          28.000  
E26  25260188.407 4 132743217.486 2       -94.600          29.000  
G 3  23849889.688 2 125332026.890 2     -1620.543          29.000  
J 1  39018377.002 4 205042937.04025       170.282          26.000  
G 6  23222337.629 8 122034205.585 3      1199.510          30.000  
> 2021  5 21  6 30 26.0050000  0 11                     
G17  23329057.384 8 122595017.354 3       820.865          30.000  
G14  21791016.377 4 114512575.381 3      -365.825          28.000  
E 1  26811417.800 4 140894936.257 3      1838.629          27.000  
G28  22121451.798 4 116249011.79724      1222.665          26.000  
G19  23638970.058 8 124223582.760 3      1585.814          30.000  
E21  25227611.713 4 132571987.657 4      -726.718          26.000  
J 3  41302109.526 2 217043986.470 3       510.270          28.000  
E26  25260209.365 4 132743311.843 2       -94.388          29.000  
G 3  23850201.855 2 125333647.855 2     -1621.130          29.000  
J 1  39018344.597 4 205042766.43325       170.401          26.000  
G 6  23222106.954 4 122033005.165 3      1200.249          30.000  
> 2021  5 21  6 30 27.0050000  0 11                     
G17  23328903.700 8 122594195.592 3       822.578          30.000  
G14  21791085.288 4 114512940.713 3      -364.740          28.000  
E 1  26811064.067 4 140893097.814 3      1839.085          27.000  
G28  22121217.285 4 116247788.32525      1224.460          25.000  
G19  23638664.383 8 124221996.808 3      1587.033          30.000  
E21  25227750.494 4 132572713.265 4      -724.885          26.000  
J 3  41302013.027 4 217043475.117 3       512.304          27.000  
E26  25260228.700 4 132743405.613 2       -92.751          29.000  
G 3  23850516.203 2 125335268.673 2     -1620.452          29.000  
J 1  39018311.826 4 205042595.17525       172.023          26.000  
G 6  23221875.181 4 122031804.381 3      1201.448          29.000  
> 2021  5 21  6 30 28.0050000  0 11                     
G17  23328747.573 4 122593372.959 3       822.213          30.000  
G14  21791154.618 4 114513305.738 4      -365.235          28.000  
E 1  26810713.806 4 140891258.737 3      1838.279          27.000  
G28  22120985.598 4 116246564.46325      1222.958          25.000  
G19  23638363.715 8 124220409.914 3      1586.428          29.000  
E21  25227890.567 4 132573438.465 4      -725.742          26.000  
J 3  41301916.701 2 217042962.716 3       511.841          28.000  
E26  25260246.778 4 132743498.617 3       -93.397          28.000  
G 3  23850828.911 4 125336889.127 3     -1622.366          29.000  
J 1  39018280.991 4 205042422.96225       172.194          26.000  
G 6  23221645.064 4 122030603.091 3      1200.729          29.000  
> 2021  5 21  6 30 29.0050000  0 11                     
G17  23328590.923 8 122592550.958 3       821.280          30.000  
G14  21791224.611 4 114513672.048 4      -366.658          28.000  
E 1  26810362.289 4 140889420.666 3      1838.163          27.000  
G28  22120751.469 9                      1222.033          25.000  
G19  23638058.860 8 124218823.700 3      1586.458          30.000  
E21  25228027.987 4 132574164.698 5      -726.352          26.000  
J 3  41301818.806 4 217042450.882 3       511.836          27.000  
E26  25260265.590 4 132743592.385 3       -94.149          29.000  
G 3  23851134.709 4 125338510.798 3     -1622.209          29.000  
J 1  39018250.907 4 205042251.54424       171.593          26.000  
G 6  23221412.244 4 122029402.812 3      1200.300          29.000  
> 2021  5 21  6 30 30.0050000  0 11                     
G17  23328431.096 8 122591729.245 3       821.018          30.000  
G14  21791294.167 4 114514039.178 4      -366.642          28.000  
E 1  26810010.789 4 140887583.208 3      1837.615          27.000  
G28  22120520.376 9                      1224.118          25.000  
G19  23637758.053 8 124217237.893 3      1584.787          30.000  
E21  25228163.192 4 132574891.570 4      -726.143          26.000  
J 3  41301723.981 4 217041939.171 3       512.173          28.000  
E26  25260280.911 4 132743686.488 2       -93.508          29.000  
G 3  23851444.049 4 125340133.267 3     -1622.308          29.000  
J 1  39018219.898 4 205042080.43824       171.383          26.000  
G 6  23221186.386 4 122028203.198 3      1199.791          29.000  
> 2021  5 21  6 30 31.0050000  0 11                     
G17  23328277.936 8 122590906.374 4       823.274          30.000  
G14  21791362.764 4 114514405.965 4      -367.452          28.000  
E 1  26809660.162 4 140885744.985 3      1838.679          27.000  
G28  22120288.933 9                      1222.554          25.000  
G19  23637456.845 8 124215650.852 3      1587.064          30.000  
E21  25228300.769 4 132575617.961 5      -726.235          26.000  
J 3  41301625.911 4 217041426.351 3       512.881          28.000  
E26  25260299.687 2 132743779.804 2       -93.592          29.000  
G 3  23851753.843 4 125341755.313 3     -1622.423          29.000  
J 1  39018188.767 4 205041908.29624       172.302          26.000  
G 6  23220956.461 4 122027002.936 3      1200.446          29.000  
> 2021  5 21  6 30 32.0050000  0 11                     
G17  23328120.535 8 122590083.854 3       822.014          30.000  
G14  21791433.560 4 114514773.517 3      -367.731          28.000  
E 1  26809309.971 4 140883907.485 4      1837.524          27.000  
G28  22120055.868 9                      1220.146          25.000  
G19  23637155.515 4 124214064.145 3      1586.985          29.000  
E21  25228438.853 4 132576345.039 3      -727.172          26.000  
J 3  41301529.010 4 217040913.640 3       512.823          28.000  
E26  25260317.591 2 132743873.363 2       -93.629          29.000  
G 3  23852065.852 4 125343378.105 3     -1622.587          29.000  
J 1  39018156.257 4 205041736.45124       172.153          26.000  
G 6  23220731.301 4 122025803.344 3      1199.124          30.000  
> 2021  5 21  6 30 33.0050000  0 11                     
G17  23327961.266 8 122589261.491 3       824.710          30.000  
G14  21791504.565 4 114515141.972 3      -368.854          28.000  
E 1  26808959.815 4 140882070.590 3      1836.896          27.000  
G28  22119823.187 9                      1221.546          25.000  
G19  23636853.050 4 124212477.734 3      1586.938          29.000  
E21  25228576.116 4 132577072.824 3      -728.328          26.000  
J 3  41301431.568 4 217040401.088 3       512.476          28.000  
E26  25260336.350 2 132743967.372 2       -93.810          29.000  
G 3  23852369.888 4 125345001.836 3     -1623.807          29.000  
J 1  39018124.934 4 205041564.96424       171.653          26.000  
G 6  23220502.337 8 122024604.315 3      1199.881          30.000  
> 2021  5 21  6 30 34.0050000  0 11                     
G17  23327805.837 8 122588438.776 3       823.587          30.000  
G14  21791576.355 4 114515510.565 4      -368.207          27.000  
E 1  26808609.327 4 140880233.485 3      1837.328          27.000  
G28  22119590.803 9                      1222.670          25.000  
G19  23636551.318 4 124210890.901 3      1587.451          29.000  
E21  25228715.578 4 132577800.501 4      -727.017          26.000  
J 3  41301332.625 4 217039887.933 3       513.915          28.000  
E26  25260354.830 2 132744061.021 2       -93.223          29.000  
G 3  23852672.492 4 125346625.583 3     -1623.400          29.000  
J 1  39018093.663 9                       172.958          26.000  
G 6  23220277.247 8 122023405.286 4      1199.074          30.000  
> 2021  5 21  6 30 35.0050000  0 11                     
G17  23327650.373 8 122587615.384 3       821.169          30.000  
G14  21791643.678 8                      -368.860          27.000  
E 1  26808259.782 4 140878396.052 3      1837.102          27.000  
G28  22119357.912 9                      1221.420          26.000  
G19  23636248.889 4 124209303.412 3      1586.255          29.000  
E21  25228854.569 4 132578527.976 4      -728.169          25.000  
J 3  41301234.991 4 217039374.009 4       513.010          28.000  
E26  25260371.617 4 132744154.120 3       -93.528          29.000  
G 3  23852980.907 4 125348249.261 3     -1624.607          29.000  
J 1  39018061.241 9                       170.799          26.000  
G 6  23220052.331 8 122022205.882 4      1198.105          30.000  
> 2021  5 21  6 30 36.0050000  0 11                     
G17  23327492.920 8 122586792.812 3       823.109          30.000  
G14  21791714.735 8 114516229.66535      -370.565          27.000  
E 1  26807914.023 4 140876560.010 3      1836.185          27.000  
G28  22119126.522 9                      1219.450          26.000  
G19  23635947.052 4 124207716.901 2      1586.053          29.000  
E21  25228992.932 4 132579256.916 4      -729.343          26.000  
J 3  41301135.961 4 217038860.979 4       512.972          28.000  
E26  25260391.057 2 132744248.364 2       -94.552          29.000  
G 3  23853289.898 4 125349874.490 3     -1625.542          29.000  
J 1  39018029.691 9                       169.682          26.000  
G 6  23219828.759 8 122021008.016 3      1195.646          31.000  
> 2021  5 21  6 30 37.0050000  0 11                     
G17  23327339.707 8 122585970.478 4       822.441          30.000  
G14  21791786.106 4 114516600.50524      -370.745          27.000  
E 1  26807562.890 4 140874724.410 3      1836.429          27.000  
G28  22118894.190 9                      1219.289          26.000  
G19  23635641.970 4 124206130.470 2      1586.655          29.000  
E21  25229134.925 4 132579986.370 4      -729.575          26.000  
J 3  41301037.542 4 217038347.932 4       512.994          27.000  
E26  25260411.316 2 132744342.785 2       -93.749          29.000  
G 3  23853596.411 4 125351500.412 3     -1625.752          29.000  
J 1  39017995.907 9                       173.495          26.000  
G 6  23219601.330 8 122019810.435 4      1197.355          31.000  
> 2021  5 21  6 30 38.0050000  0 11                     
G17  23327179.584 8 122585147.150 4       822.814          30.000  
G14  21791856.623 4 114516971.01324      -370.754          27.000  
E 1  26807213.816 4 140872888.210 3      1836.256          27.000  
G28  22118661.858 9                      1221.183          26.000  
G19  23635341.948 4 124204543.108 2      1587.645          29.000  
E21  25229274.823 4                      -727.667          26.000  
J 3  41300941.095 4 217037833.769 4       514.507          27.000  
E26  25260428.871 2 132744436.404 2       -93.400          29.000  
G 3  23853906.292 4 125353125.907 2     -1625.681          29.000  
J 1  39017962.315 9                       172.048          26.000  
G 6  23219368.614 8 122018612.267 3      1198.703          30.000  
> 2021  5 21  6 30 39.0050000  0 11                     
G17  23327023.649 8 122584324.078 3       824.490          30.000  
G14  21791928.535 4 114517342.48724      -372.960          27.000  
E 1  26806864.829 2 140871052.729 2      1835.075          27.000  
G28  22118427.833 9                      1217.837          26.000  
G19  23635039.274 2 124202956.178 2      1586.420          29.000  
E21  25229411.196 9                      -730.727          26.000  
J 3  41300840.215 4 217037319.898 3       513.391          27.000  
E26  25260445.187 2 132744530.565 2       -95.020          29.000  
G 3  23854215.824 4 125354752.391 3     -1627.244          29.000  
J 1  39017928.305 9                       170.153          26.000  
G 6  23219142.808 8 122017415.009 3      1197.126          30.000  
> 2021  5 21  6 30 40.0050000  0 11                     
G17  23326867.277 8 122583501.702 3       822.289          30.000  
G14  21791998.894 4 114517715.03224      -372.462          27.000  
E 1  26806517.029 4 140869218.038 3      1834.713          28.000  
G28  22118194.576 9                      1216.955          26.000  
G19  23634736.827 4 124201369.722 3      1586.709          29.000  
E21  25229550.816 9                      -730.110          26.000  
J 3  41300743.925 4 217036806.474 4       513.341          27.000  
E26  25260463.300 4 132744625.296 3       -94.781          29.000  
G 3  23854525.757 4 125356379.924 3     -1627.776          29.000  
J 1  39017893.317 9                       170.579          26.000  
G 6  23218911.069 8 122016218.642 3      1195.319          31.000  
> 2021  5 21  6 30 41.0050000  0 11                     
G17  23326709.266 9 122582683.57234       824.330          30.000  
G14  21792070.423 4 114518087.62423      -372.173          27.000  
E 1  26806168.984 4 140867383.170 4      1835.668          28.000  
G28  22117962.156 9                      1218.518          26.000  
G19  23634433.560 2 124199782.724 2      1587.859          29.000  
E21  25229688.690 9                      -728.742          26.000  
J 3  41300644.441 4 217036292.248 3       514.809          27.000  
E26  25260483.194 2 132744719.602 2       -93.702          29.000  
G 3  23854834.138 2 125358007.442 2     -1627.003          29.000  
J 1  39017858.696 9                       173.336          26.000  
G 6  23218685.822 8 122015021.995 3      1197.302          31.000  
> 2021  5 21  6 30 42.0050000  0 11                     
G17  23326552.755 8 122581860.10823       822.899          31.000  
G14  21792139.665 4 114518459.93423      -372.510          28.000  
E 1  26805818.165 4 140865548.066 3      1834.438          28.000  
G28  22117730.365 9                      1218.138          27.000  
G19  23634130.450 4 124198195.320 3      1586.568          29.000  
E21  25229830.386 9                      -729.993          26.000  
J 3  41300546.248 4 217035777.435 3       514.351          28.000  
E26  25260500.138 2 132744813.410 2       -94.608          29.000  
G 3  23855142.902 2 125359635.046 2     -1628.656          29.000  
J 1  39017825.261 9                       172.542          26.000  
G 6  23218456.264 8                      1194.842          31.000  
> 2021  5 21  6 30 43.0050000  0 11                     
G17  23326393.801 8 122581041.19223       815.379          30.000  
G14  21792211.403 4 114518832.74713      -374.671          30.000  
E 1  26805469.789 4 140863716.506 3      1829.592          28.000  
G28  22117500.371 8 116228240.79335      1214.686          27.000  
G19  23633833.988 8 124196612.030 4      1578.958          29.000  
E21  25229968.138 8 132584387.23615      -729.354          27.000  
J 3  41300447.428 4 217035265.668 3       509.415          28.000  
E26  25260518.356 8 132744909.905 4       -98.355          29.000  
G 3  23855455.679 8 125361267.188 4     -1636.363          30.000  
J 1  39017791.146 8 205039875.44734       175.150          33.000  
G 6  23218231.802 8 122012630.69434      1195.970          33.000  
> 2021  5 21  6 30 44.0050000  0 11                     
G17  23326238.686 8 122580228.28724       810.499          30.000  
G14  21792281.762 8 114519205.985 4      -372.284          31.000  
E 1  26805124.117 4 140861887.967 3      1828.299          28.000  
G28  22117270.046 4 116227027.12324      1213.362          28.000  
G19  23633532.954 8 124195033.188 5      1577.997          28.000  
E21  25230105.558 8 132585115.299 4      -726.080          27.000  
J 3  41300349.672 4 217034758.595 3       505.677          29.000  
E26  25260535.475 8 132745008.410 4       -98.591          29.000  
G 3  23855765.700 8 125362906.273 3     -1641.674          31.000  
J 1  39017756.700 9                       170.221          27.000  
G 6  23218002.960 8 122011431.88823      1199.839          33.000  
> 2021  5 21  6 30 45.0050000  0 10                     
G17  23326085.002 8 122579419.77524       806.832          29.000  
G14  21792353.500 8 114519578.344 3      -370.712          30.000  
E 1  26804774.956 4 140860060.517 5      1827.938          28.000  
G28  22117040.471 4 116225814.20224      1212.262          28.000  
G19  23633228.779 8 124193457.153 4      1574.780          28.000  
E21  25230241.652 8 132585840.489 5      -723.700          27.000  
J 3  41300251.514 4 217034255.227 4       500.739          28.000  
E26  25260553.187 8 132745107.358 4       -98.460          29.000  
G 3  23856080.223 8 125364551.619 3     -1649.443          30.000  
G 6  23217774.135 8 122010229.33024      1203.822          32.000  
> 2021  5 21  6 30 46.0050000  0 10                     
G17  23325933.115 8 122578615.63624       801.585          30.000  
G14  21792426.617 8 114519951.213 3      -373.955          30.000  
E 1  26804430.593 9                      1827.421          28.000  
G28  22116811.524 8 116224602.48525      1210.825          27.000  
G19  23632930.555 8                      1573.327          29.000  
E21  25230378.741 8 132586564.268 5      -724.133          26.000  
J 3  41300158.592 4 217033756.124 4       496.771          28.000  
E26  25260570.148 8 132745206.568 4      -100.167          29.000  
G 3  23856398.550 8 125366203.900 4     -1656.465          30.000  
G 6  23217541.401 8                      1207.509          31.000  
> 2021  5 21  6 30 47.0050000  0 10                     
G17  23325782.031 8 122577815.49124       798.306          31.000  
G14  21792494.411 4 114520324.595 3      -373.623          30.000  
E 1  26804083.770 9                      1825.265          29.000  
G28  22116580.745 4 116223392.21024      1209.374          28.000  
G19  23632633.675 9                      1571.255          29.000  
E21  25230517.017 4 132587286.876 5      -721.643          27.000  
J 3  41300065.914 4 217033261.181 3       493.019          29.000  
E26  25260591.490 8 132745306.158 4       -99.118          30.000  
G 3  23856712.322 8 125367862.663 3     -1661.614          30.000  
G 6  23217310.762 8 122007794.36535      1210.349          31.000  
> 2021  5 21  6 30 48.0050000  0 10                     
G17  23325632.116 8 122577017.44823       798.374          31.000  
G14  21792568.365 8 114520698.435 3      -373.976          30.000  
E 1  26803734.609 9                      1825.569          29.000  
G28  22116352.705 8 116222182.52723      1209.487          29.000  
G19  23632334.560 9                      1571.639          30.000  
E21  25230656.374 4 132588008.765 4      -721.813          27.000  
J 3  41299970.321 8 217032768.749 3       492.388          30.000  
E26  25260615.292 8                      -100.406          30.000  
G 3  23857026.077 8 125369526.070 4     -1664.705          29.000  
G 6  23217084.293 8 122006583.48224      1210.865          32.000  
> 2021  5 21  6 30 49.0050000  0 10                     
G17  23325477.647 8 122576217.299 3       801.583          32.000  
G14  21792636.822 8 114521072.292 4      -373.747          30.000  
E 1  26803389.479 8 140852766.41415      1830.859          30.000  
G28  22116119.832 9                      1211.449          30.000  
G19  23632036.895 9                      1577.663          30.000  
E21  25230793.132 4 132588730.046 4      -721.121          28.000  
J 3  41299874.939 4 217032275.897 2       492.921          31.000  
E26  25260636.442 9                       -95.129          31.000  
G 3  23857340.146 8 125371190.362 4     -1664.380          29.000  
G 6  23216852.327 8 122005369.65925      1214.799          36.000  
> 2021  5 21  6 30 50.0050000  0 10                     
G17  23325325.847 8 122575415.458 3       801.824          31.000  
G14  21792708.560 8 114521446.834 4      -376.057          30.000  
E 1  26803040.178 8 140850934.753 4      1831.642          30.000  
G28  22115891.845 8 116219781.89635      1210.483          30.000  
G19  23631731.149 8                      1581.272          30.000  
E21  25230930.098 4 132589451.481 3      -721.784          28.000  
J 3  41299781.109 4 217031783.110 2       491.116          32.000  
E26  25260654.031 9 132745644.71815       -93.555          31.000  
G 3  23857660.322 8 125372856.022 5     -1666.153          28.000  
G 6  23216622.299 9                      1216.938          33.000  
> 2021  5 21  6 30 51.0050000  0 10                     
G17  23325175.112 8 122574613.017 3       803.626          30.000  
G14  21792781.676 8 114521822.763 3      -376.282          30.000  
E 1  26802698.206 8 140849101.425 4      1835.222          30.000  
G28  22115661.415 8 116218570.52324      1209.721          31.000  
G19  23631433.204 9                      1581.765          31.000  
E21  25231065.896 4 132590173.931 3      -722.936          29.000  
J 3  41299689.652 4 217031291.222 2       491.615          31.000  
E26  25260671.377 9                       -92.065          32.000  
G 3  23857976.608 4 125374523.949 4     -1668.161          28.000  
G 6  23216391.275 9 122002958.90735      1218.025          36.000  
> 2021  5 21  6 30 52.0050000  0 10                     
G17  23325018.741 4 122573809.086 3       805.322          29.000  
G14  21792851.913 8 114522200.090 3      -378.002          30.000  
E 1  26802349.550 8 140847266.452 5      1835.419          30.000  
G28  22115431.630 8 116217359.08123      1210.310          31.000  
G19  23631131.508 8 124182433.28835      1583.451          31.000  
E21  25231206.632 4 132590897.464 3      -723.899          29.000  
J 3  41299594.653 8 217030799.302 3       492.036          31.000  
E26  25260693.417 9                       -89.644          32.000  
G 3  23858294.917 8 125376192.806 5     -1668.522          27.000  
G 6  23216162.032 9                      1189.103          28.000  
> 2021  5 21  6 30 53.0050000  0 11                     
G17  23324869.018 8 122573004.036 4       807.275          33.000  
G14  21792923.494 4 114522579.131 2      -380.259          32.000  
E 1  26802033.195 9                      1819.909          22.000  
G28  22115201.130 4 116216148.20722      1210.851          33.000  
G19  23630829.828 8 124180849.39523      1584.452          35.000  
E13  26972636.191 9                     -1549.883          25.000  
E21  25231344.925 8 132591622.779 3      -725.360          31.000  
J 3  41299504.313 8 217030307.428 3       491.619          32.000  
E26  25260706.138 9                       -90.529          31.000  
G 3  23858612.145 8 125377862.500 4     -1669.910          27.000  
G 6  23215928.338 9                      1211.475          25.000  
> 2021  5 21  6 30 54.0050000  0 12                     
G17  23324712.437 9                       805.281          29.000  
G14  21792997.082 8 114522958.804 3      -379.578          29.000  
E 1  26801697.052 9                      1826.537          21.000  
G28  22114968.292 8 116214937.36123      1210.679          28.000  
G19  23630526.386 8 124179254.24134      1584.704          32.000  
E13  26972930.419 9                     -1549.336          24.000  
E21  25231480.339 8 132592348.356 3      -725.338          30.000  
J 3  41299409.070 4 217029815.672 3       490.927          30.000  
E26  25260721.965 9                       -89.844          30.000  
G 3  23858930.157 8                     -1670.489          25.000  
G30  25289340.368 9                     -2497.061          28.000  
G 6  23215698.135 9                      1211.475          20.000  
> 2021  5 21  6 30 55.0050000  0 12                     
G17  23324562.016 9                       805.102          31.000  
G14  21793071.961 4 114523338.608 2      -379.554          33.000  
E 1  26801324.716 9                      1845.940          22.000  
G28  22114736.675 8 116213726.61023      1210.850          31.000  
G19  23630236.224 9                      1602.486          27.000  
E13  26973225.642 9                     -1550.381          25.000  
E21  25231618.666 8 132593073.323 3      -725.372          30.000  
J 3  41299314.734 8 217029324.616 3       490.533          31.000  
E26  25260737.705 9 132746095.71315       -89.895          31.000  
G 3  23859249.584 9                     -1673.103          25.000  
G30  25289803.898 9 132898816.36234     -2491.003          31.000  
G 6  23215473.847 9                      1212.896          18.000  
> 2021  5 21  6 30 56.0050000  0 11                     
G17  23324414.789 9                       808.685          34.000  
G14  21793142.512 4 114523718.869 2      -381.423          34.000  
E 1  26800940.847 9 140839905.14614      1838.308          33.000  
G28  22114507.729 4 116212515.50322      1210.879          31.000  
G19  23629961.104 9                      1601.849          26.000  
E13  26973522.261 9                     -1550.352          25.000  
E21  25231759.210 8 132593798.517 2      -726.038          31.000  
J 3  41299222.109 8 217028832.997 2       490.683          31.000  
E26  25260753.847 8 132746183.373 4       -87.593          30.000  
G 3  23859567.509 8 125382872.96335     -1673.291          28.000  
G 6  23215241.236 9                      1220.462          18.000  
> 2021  5 21  6 30 57.0050000  0 11                     
G17  23324258.993 9                       804.541          32.000  
G14  21793216.536 4 114524101.488 2      -383.238          34.000  
E 1  26800593.448 9 140838067.434 3      1837.257          33.000  
G28  22114275.187 8 116211306.09723      1207.899          31.000  
G19  23629665.253 9                      1613.858          23.000  
E21  25231897.032 8 132594526.320 2      -729.845          32.000  
J 3  41299127.493 8 217028341.669 3       492.371          31.000  
E26  25260762.781 8 132746272.066 3       -89.679          31.000  
G 3  23859889.012 8 125384546.66425     -1672.735          28.000  
J 2  37551311.039 9                       352.391          32.000  
G 6  23215008.502 9                      1218.754          20.000  
> 2021  5 21  6 30 58.0050000  0 11                     
G17  23324107.805 9                       808.358          31.000  
G14  21793290.141 4 114524485.017 2      -382.548          34.000  
E 1  26800249.853 9                      1837.543          25.000  
G28  22114049.678 8 116210096.82122      1209.660          32.000  
G19  23629373.730 9                      1556.572          21.000  
E21  25232031.731 8 132595255.613 2      -729.513          32.000  
J 3  41299033.821 8 217027848.537 3       495.032          32.000  
E26  25260783.058 4 132746360.620 2       -88.708          32.000  
G 3  23860206.187 8 125386218.36924     -1669.096          28.000  
J 2  37551263.941 9                       345.264          34.000  
G 6  23214770.516 9 121994441.70135      1214.548          34.000  
> 2021  5 21  6 30 59.0050000  0 14                     
G17  23323955.813 9                       814.893          35.000  
G14  21793362.454 4 114524869.266 1      -384.165          36.000  
E 1  26799900.866 9                      1837.543          22.000  
G28  22113819.440 8 116208887.69922      1209.094          33.000  
G19  23629064.896 9                      1586.489          22.000  
E13  26974421.192 9                     -1540.645          32.000  
E21  25232173.060 4 132595986.310 2      -731.211          35.000  
J 3  41298938.891 8 217027352.861 4       496.889          34.000  
E26  25260802.428 9                       -90.720          26.000  
G 3  23860522.629 8 125387887.27025     -1668.177          30.000  
J 2  37551194.088 9 197332856.02833       348.675          35.000  
G30  25291758.252 9                     -2496.211          24.000  
E27  27879771.190 9                     -2647.144          29.000  
G 6  23214537.922 8 121993228.45522      1211.132          35.000  
> 2021  5 21  6 31  0.0050000  0 14                     
G17  23323791.624 9                       811.279          34.000  
G14  21793435.414 4 114525253.303 2      -384.867          37.000  
E 1  26799557.184 9                      1837.543          16.000  
G28  22113587.387 8 116207678.18623      1208.972          33.000  
G19  23628757.981 9                      1597.243          21.000  
E13  26974715.001 9                     -1536.957          31.000  
E21  25232311.283 9                      -730.444          24.000  
J 3  41298842.723 8 217026853.702 4       500.069          34.000  
E26  25260824.590 9                       -89.397          22.000  
G 3  23860839.455 9                     -1660.352          30.000  
J 2  37551130.115 8 197332507.83822       348.338          37.000  
G30  25292238.657 9                     -2496.211          24.000  
E27  27880278.293 9                     -2646.534          28.000  
G 6  23214307.143 4 121992017.81022      1208.906          39.000  
> 2021  5 21  6 31  1.0050000  0 13                     
G17  23323637.818 9                       815.989          34.000  
G14  21793508.600 4 114525637.548 2      -385.287          37.000  
E 1  26799211.425 9                      1837.975          14.000  
G28  22113357.480 8 116206468.27713      1209.084          34.000  
G19  23628452.812 9                      1594.671          20.000  
E13  26975002.982 9                     -1531.428          31.000  
E21  25232450.030 9                      -727.351          22.000  
J 3  41298749.277 8 217026350.694 3       504.469          34.000  
E26  25260840.819 9                       -89.397          19.000  
G 3  23861152.495 9                     -1657.719          29.000  
J 2  37551066.230 8 197332160.09422       347.869          37.000  
E27  27880791.556 9 146514508.63315     -2647.768          29.000  
G 6  23214077.533 4 121990810.75621      1204.617          37.000  
> 2021  5 21  6 31  2.0050000  0 12                     
G17  23323479.736 9 122565712.63835       818.661          34.000  
G14  21793582.083 4 114526023.563 2      -387.254          34.000  
E 1  26798864.183 9                      1836.020          16.000  
G28  22113128.167 8 116205260.613 3      1207.100          34.000  
E13  26975291.800 9                     -1527.613          31.000  
E21  25232594.151 9                      -745.418          20.000  
J 3  41298653.092 8 217025844.999 3       506.606          34.000  
E26  25260859.037 9                       -99.704          14.000  
G 3  23861470.368 9 125392872.12735     -1652.888          29.000  
E33  28442988.589 9 149468923.61715      1327.102          30.000  
E27  27881299.148 9                     -2648.903          28.000  
G 6  23213849.564 4 121989610.12421      1197.321          38.000  
> 2021  5 21  6 31  3.0050000  0 13                     
G17  23323324.552 8 122564893.88123       820.031          34.000  
G14  21793655.967 4 114526410.683 2      -387.051          30.000  
E 1  26798516.470 9                      1835.599          17.000  
G28  22112897.178 4 116204053.976 3      1206.970          33.000  
G19  23627847.377 9                      1592.906          18.000  
E13  26975584.039 9                     -1522.744          30.000  
E21  25232735.044 9                      -745.418          17.000  
J 3  41298553.992 4 217025335.353 2       510.850          34.000  
E26  25260877.761 9                       -99.704          13.000  
G 3  23861780.650 9                     -1647.668          30.000  
E33  28442735.491 9                      1319.925          30.000  
E27  27881804.349 9 146519880.44414     -2650.008          28.000  
G 6  23213621.577 4 121988415.31521      1192.481          37.000  
> 2021  5 21  6 31  4.0050000  0 15                     
G17  23323168.041 4 122564073.61522       820.349          34.000  
G14  21793728.316 8 114526798.183 3      -387.352          29.000  
E 1  26798170.432 9                      1831.496          19.000  
G28  22112668.022 4 116202848.038 2      1205.591          33.000  
G19  23627545.819 9                      1587.607          18.000  
E13  26975867.117 9                     -1520.441          30.000  
E21  25232876.775 9                      -746.638          17.000  
J 3  41298457.196 4 217024822.916 2       514.180          34.000  
E26  25260898.230 9                       -99.704          14.000  
G 3  23862100.059 9 125396150.29735     -1645.427          31.000  
E33  28442491.973 9 149466277.19015      1315.128          34.000  
G22  26406616.141 9                     -2915.767          19.000  
J 1  39017151.735 9                       167.517          30.000  
E27  27882310.074 9                     -2655.386          26.000  
G 6  23213394.863 4 121987224.30122      1189.865          35.000  
> 2021  5 21  6 31  5.0050000  0 16                     
G17  23323015.212 4 122563251.41922       821.770          38.000  
G14  21793804.416 8 114527214.90934      -387.663          30.000  
E 1  26797826.454 9                      1822.881          20.000  
G28  22112438.447 4 116201641.673 2      1205.114          31.000  
G19  23627244.314 9                      1587.292          18.000  
E13  26976154.958 9                     -1517.253          29.000  
E21  25233020.338 9                      -743.558          17.000  
J 3  41298358.899 4 217024307.785 2       515.160          36.000  
E26  25260918.978 9                      -108.613          17.000  
G 3  23862409.033 9                     -1643.565          30.000  
E33  28442237.200 8 149464962.235 3      1314.129          34.000  
G22  26407176.554 9                     -2914.302          20.000  
G30  25294621.920 9                     -2528.412          30.000  
J 1  39017109.314 9 205036346.74335       169.852          34.000  
E27  27882818.050 9                     -2655.113          22.000  
G 6  23213168.708 4 121986034.73422      1187.953          38.000  
> 2021  5 21  6 31  6.0050000  0 17                     
G17  23322856.764 4 122562429.37121       821.719          36.000  
G14  21793874.374 8 114527603.39924      -388.929          29.000  
E 1  26797483.871 9                      1817.772          22.000  
G28  22112209.291 4 116200436.462 2      1204.756          35.000  
G19  23626945.288 9                      1586.130          22.000  
E13  26976456.725 9                     -1519.877          29.000  
E21  25233160.358 9                      -741.223          17.000  
J 3  41298260.532 4 217023792.323 2       515.064          35.000  
E26  25260939.517 9                      -100.172          19.000  
G 3  23862723.608 8 125399458.85735     -1644.010          33.000  
E33  28441995.096 8 149463650.009 2      1310.990          34.000  
G22  26407751.452 9                     -2914.302          28.000  
J 2  37550755.215 9                       344.522          27.000  
G30  25295104.140 9 132926662.65534     -2528.302          30.000  
J 1  39017077.153 8 205036177.31824       169.200          30.000  
E27  27883329.184 9                     -2655.113          19.000  
G 6  23212942.431 2 121984847.52521      1186.138          36.000  
> 2021  5 21  6 31  7.0050000  0 14                     
G17  23322700.253 4 122561607.75821       821.553          38.000  
G14  21793943.337 9                      -390.716          27.000  
E 1  26797142.650 9                      1824.949          27.000  
G28  22111980.117 4 116199232.328 2      1204.178          36.000  
G19  23626646.330 9                      1586.842          26.000  
E21  25233301.984 9                      -741.223          17.000  
J 3  41298162.514 2 217023276.915 1       514.896          35.000  
E26  25260957.927 9                      -105.070          18.000  
G 3  23863039.492 8 125401103.23323     -1644.422          36.000  
E33  28441744.301 8 149462338.701 2      1312.385          33.000  
J 2  37550693.528 9                       343.609          26.000  
G30  25295583.497 8 132929190.59025     -2527.722          30.000  
E27  27883835.834 9                     -2640.523          16.000  
G 6  23212716.800 2 121983661.505 1      1187.329          39.000  
> 2021  5 21  6 31  8.0050000  0 14                     
G17  23322542.921 4 122560785.32921       824.320          35.000  
G14  21794021.427 9                      -389.037          26.000  
E 1  26796794.902 9                      1825.835          24.000  
G28  22111750.996 4 116198027.609 2      1203.965          35.000  
G19  23626346.501 9                      1583.018          25.000  
E21  25233444.797 9                      -763.703          16.000  
J 3  41298064.252 4 217022761.123 2       517.417          35.000  
E26  25260978.815 9                      -101.474          20.000  
G 3  23863353.229 8 125402748.13123     -1642.705          32.000  
E33  28441493.053 4 149461025.369 3      1313.773          32.000  
G22  26408875.281 9                     -2916.129          27.000  
G30  25296065.839 8 132931718.29624     -2525.623          34.000  
E27  27884344.211 9                     -2647.742          15.000  
G 6  23212490.576 2 121982473.884 1      1187.631          40.000  
> 2021  5 21  6 31  9.0050000  0 14                     
G17  23322387.161 2 122559962.29021       823.081          36.000  
G14  21794093.322 8 114528744.58335      -390.291          26.000  
E 1  26796446.037 9                      1823.582          21.000  
G28  22111521.909 4 116196823.217 2      1203.718          35.000  
G19  23626047.753 9                      1584.385          25.000  
E13  26977305.852 9 141766709.43615     -1516.274          29.000  
E21  25233589.128 9                      -763.703          15.000  
J 3  41297965.675 4 217022244.091 2       516.521          35.000  
E26  25260998.132 9                       -97.783          23.000  
G 3  23863665.012 8 125404392.24023     -1644.920          32.000  
E33  28441238.891 8 149459714.031 3      1310.109          32.000  
G30  25296550.641 8 132934244.76223     -2526.263          32.000  
E27  27884850.826 9                     -2647.742          14.000  
G 6  23212265.328 1 121981287.860 1      1184.810          42.000  
> 2021  5 21  6 31 10.0050000  0 14                     
G17  23322230.789 4 122559139.94022       822.482          33.000  
G14  21794165.897 9                      -392.323          26.000  
E 1  26796097.608 9                      1823.582          16.000  
G28  22111292.788 4 116195620.202 2      1203.013          32.000  
G19  23625749.162 9                      1581.442          24.000  
E13  26977594.147 9 141768225.755 4     -1516.604          29.000  
E21  25233732.481 9                      -763.703          14.000  
J 3  41297867.413 4 217021727.550 2       515.490          33.000  
E26  25261019.352 9                      -101.127          25.000  
G 3  23863980.338 8 125406037.12823     -1645.756          31.000  
E33  28440990.696 8 149458403.933 4      1309.459          30.000  
G30  25297030.120 8 132936771.53123     -2526.593          31.000  
E27  27885356.516 9                     -2647.742          13.000  
G 6  23212040.325 1 121980103.278 1      1183.920          40.000  
> 2021  5 21  6 31 11.0050000  0 13                     
G17  23322074.313 4 122558317.79922       822.568          34.000  
G14  21794242.940 9                      -391.096          26.000  
E 1  26795751.030 9                      1823.582          12.000  
G28  22111063.963 4 116194417.803 2      1202.595          33.000  
G19  23625448.198 9                      1590.635          23.000  
E13  26977877.190 8 141769742.120 4     -1516.150          28.000  
E21  25233877.423 9                      -763.703          10.000  
J 3  41297768.802 4 217021210.948 2       517.410          33.000  
E26  25261038.320 9                       -98.963          24.000  
G 3  23864293.604 4 125407682.77422     -1645.712          31.000  
E33  28440740.076 8 149457094.218 3      1309.557          30.000  
G30  25297509.321 4 132939298.44222     -2526.294          31.000  
G 6  23211815.043 1 121978919.241 1      1184.480          40.000  
> 2021  5 21  6 31 12.0050000  0 11                     
G17  23321917.907 4 122557494.50522       823.926          34.000  
G14  21794316.475 9                      -391.418          26.000  
G28  22110834.981 4 116193214.785 2      1203.645          33.000  
G19  23625145.873 9                      1585.196          22.000  
E13  26978162.309 8 141771257.287 3     -1514.731          27.000  
J 3  41297670.069 4 217020693.244 2       517.879          33.000  
E26  25261056.678 9                       -97.828          24.000  
G 3  23864604.776 4 125409327.83922     -1645.006          31.000  
E33  28440491.131 4 149455783.463 2      1311.395          29.000  
G30  25297990.493 8 132941824.17623     -2525.421          30.000  
G 6  23211589.568 1 121977734.505 1      1184.706          40.000  
> 2021  5 21  6 31 13.0050000  0 11                     
G17  23321761.431 4 122556671.23712       822.272          32.000  
G14  21794391.092 9                      -394.182          25.000  
G28  22110606.122 4 116192012.635 2      1201.031          33.000  
G19  23624843.950 9                      1587.909          21.000  
E13  26978470.043 8 141772773.088 3     -1517.094          32.000  
J 3  41297571.545 4 217020176.002 2       516.026          33.000  
E26  25261077.932 9                       -99.288          25.000  
G 3  23864919.840 4 125410973.64012     -1648.367          31.000  
E33  28440246.758 4 149454472.865 2      1309.900          30.000  
G30  25298468.350 4 132944350.62022     -2527.850          31.000  
G 6  23211364.339 1 121976550.138 1      1183.853          40.000  
> 2021  5 21  6 31 14.0050000  0 12                     
G17  23321604.937 4 122555849.140 2       821.886          35.000  
G14  21794467.472 9                      -394.828          26.000  
E 1  26794709.775 9                      1823.582          13.000  
G28  22110377.716 4 116190811.457 2      1201.421          32.000  
G19  23624539.321 9                      1586.629          29.000  
E13  26978764.673 9                     -1516.369          29.000  
J 3  41297473.719 4 217019660.002 3       516.000          29.000  
E26  25261098.105 9                       -99.486          23.000  
G 3  23865231.204 8 125412622.429 3     -1649.170          31.000  
E33  28439993.573 8 149453161.971 3      1312.754          30.000  
G30  25298947.864 8                     -2528.967          29.000  
G 6  23211139.004 1 121975366.045 1      1184.012          36.000  
> 2021  5 21  6 31 15.0050000  0 13                     
G17  23321448.322 4 122555026.301 2       822.751          35.000  
G14  21794542.630 9                      -393.084          26.000  
E 1  26794364.261 9                      1820.062          20.000  
G28  22110149.188 4 116189610.269 2      1201.647          32.000  
G19  23624237.659 9                      1580.799          25.000  
E13  26979048.832 9                     -1515.925          28.000  
E21  25234455.705 9                      -746.994          12.000  
J 3  41297377.306 8 217019181.52834       515.397          31.000  
E26  25261116.759 9                       -99.486          20.000  
G 3  23865540.509 8 125414272.165 5     -1649.136          30.000  
E33  28439751.050 8 149451849.218 3      1314.348          31.000  
G30  25299429.560 9                     -2525.364          27.000  
G 6  23210913.093 2 121974180.525 1      1188.605          33.000  
> 2021  5 21  6 31 16.0050000  0 14                     
G17  23321291.078 4 122554200.721 2       825.978          35.000  
G14  21794620.545 8 114531488.54435      -395.936          30.000  
E 1  26794017.263 9                      1829.434          22.000  
G28  22109921.567 8 116188407.492 3      1202.926          35.000  
G19  23623935.509 9                      1593.469          24.000  
E13  26979326.587 9                     -1513.594          30.000  
E21  25234594.190 9                      -740.521          16.000  
J 3  41297279.655 8 217018665.06523       517.397          33.000  
E26  25261133.668 9                       -98.997          18.000  
G 3  23865854.125 9                     -1664.298          30.000  
E33  28439491.932 8 149450532.714 4      1316.770          31.000  
G22  26413340.128 9                     -2921.552          29.000  
G30  25299911.675 9                     -2521.282          25.000  
G 6  23210686.799 8 121972992.161 3      1188.210          38.000  
> 2021  5 21  6 31 17.0050000  0 13                     
G17  23321133.328 4 122553372.539 2       829.339          35.000  
G14  21794695.564 8 114531884.98925      -396.560          30.000  
E 1  26793671.156 9                      1816.135          21.000  
G28  22109693.912 9                      1202.103          32.000  
G19  23623632.311 9                      1605.448          21.000  
E13  26979612.230 9 141778840.59314     -1510.758          32.000  
E21  25234733.652 9                      -750.253          18.000  
J 3  41297178.705 8 217018147.46623       518.687          33.000  
E26  25261152.322 9                      -107.452          19.000  
G 3  23866173.115 9                     -1647.136          34.000  
E33  28439246.302 8 149449218.408 4      1311.498          30.000  
G30  25300391.154 9                     -2518.240          22.000  
G 6  23210460.871 8 121971805.315 4      1185.685          36.000  
> 2021  5 21  6 31 18.0050000  0 14                     
G17  23320974.897 8 122552541.407 3       832.490          34.000  
G14  21794772.816 4 114532282.93623      -398.304          35.000  
E 1  26793324.350 9                      1825.226          20.000  
G28  22109462.434 9                      1198.626          36.000  
G19  23623333.564 9                      1584.039          20.000  
E13  26979911.815 9 141780347.976 5     -1504.450          30.000  
E21  25234871.893 9                      -750.635          21.000  
J 3  41297082.782 4 217017626.15722       524.416          32.000  
E26  25261170.593 9                      -110.331          21.000  
G 3  23866484.775 9 125419230.70834     -1643.940          34.000  
E33  28438996.450 9                      1304.168          29.000  
G30  25300871.192 9                     -2532.176          19.000  
J 1  39016715.724 9                       165.480          19.000  
G 6  23210235.938 4 121970622.875 3      1179.382          35.000  
> 2021  5 21  6 31 19.0050000  0 13                     
G17  23320815.891 8 122551713.76335       834.206          29.000  
G14  21794848.934 8 114532679.95223      -395.437          34.000  
E 1  26792981.802 9                      1827.963          30.000  
G28  22109234.395 9                      1203.291          34.000  
G19  23623035.147 9                      1584.715          19.000  
E13  26980214.018 9                     -1509.580          30.000  
E21  25234997.971 9 132610819.27515      -750.637          30.000  
J 3  41296984.554 4 217017100.03922       527.694          34.000  
E26  25261190.434 9                       -97.639          22.000  
G 3  23866795.616 8 125420868.97223     -1634.668          36.000  
E33  28438750.123 9                      1297.076          28.000  
G30  25301352.958 9                     -2525.510          19.000  
G 6  23210011.772 4 121969445.765 3      1175.568          35.000  
> 2021  5 21  6 31 20.0050000  0 14                     
G17  23320659.031 9                       831.254          29.000  
G14  21794922.870 4 114533075.99722      -396.189          36.000  
E 1  26792637.335 9                      1800.208          21.000  
G28  22109000.614 8 116183610.06634      1198.876          31.000  
G19  23622735.492 9                      1577.444          21.000  
E13  26980494.181 9                     -1509.448          24.000  
E21  25235144.012 8 132611570.674 3      -751.625          36.000  
J 3  41296883.762 8 217016571.42024       528.156          30.000  
E26  25261208.233 9                      -107.222          21.000  
G 3  23867104.764 8 125422503.97223     -1634.170          33.000  
E33  28438503.621 9                      1293.521          27.000  
G30  25301833.851 9                     -2521.559          19.000  
J 1  39016647.372 9                       165.480          20.000  
G 6  23209788.758 4 121968273.727 2      1169.147          35.000  
> 2021  5 21  6 31 21.0050000  0 15                     
G17  23320505.486 9                       822.247          30.000  
G14  21794997.086 4 114533473.06021      -397.602          36.000  
E 1  26792294.648 9                      1800.208          18.000  
G28  22108774.617 8 116182412.64623      1197.194          34.000  
G19  23622436.919 9                      1565.979          21.000  
E13  26980760.629 9 141784863.69214     -1503.671          33.000  
E21  25235281.938 8 132612323.211 2      -752.573          34.000  
J 3  41296779.724 8 217016043.25023       529.154          35.000  
E26  25261229.871 9                      -107.222          19.000  
G 3  23867418.641 4 125424139.33522     -1635.092          35.000  
E33  28438258.219 8                      1288.435          26.000  
G30  25302314.081 9                     -2512.537          18.000  
J 1  39016619.486 9                       165.480          19.000  
E27  27890900.328 9                     -2651.166          27.000  
G 6  23209566.425 4 121967105.531 2      1166.660          36.000  
> 2021  5 21  6 31 22.0050000  0 16                     
G17  23320345.817 9 122549244.15535       829.568          33.000  
G14  21795075.787 4                      -397.372          32.000  
E 1  26791952.711 9                      1800.208          14.000  
G28  22108549.160 8 116181215.62423      1197.727          30.000  
G19  23622133.460 9                      1597.229          19.000  
E13  26981053.356 9 141786364.055 4     -1497.883          30.000  
E21  25235427.735 8 132613076.434 3      -753.928          30.000  
J 3  41296679.559 8 217015512.97223       532.048          31.000  
E26  25261249.031 9                      -108.796          15.000  
G 3  23867727.597 8 125425772.24023     -1631.600          31.000  
E33  28438014.596 9                      1298.278          23.000  
J 2  37549708.289 9 197325048.33835       343.637          29.000  
G30  25302793.037 9                     -2523.649          16.000  
J 1  39016591.077 9                       165.480          18.000  
E27  27891399.421 9 146570303.38914     -2650.023          30.000  
G 6  23209344.231 9                      1163.876          26.000  
> 2021  5 21  6 31 23.0050000  0 16                     
G17  23320187.107 8 122548413.51424       830.201          34.000  
G14  21795149.357 4 114534293.18233      -398.159          33.000  
E 1  26791610.233 9                      1800.208          12.000  
G28  22108321.975 4 116180018.87622      1195.263          32.000  
G19  23621832.409 9                      1603.740          17.000  
E13  26981330.186 8 141787860.526 4     -1495.629          30.000  
E21  25235569.378 8 132613830.451 3      -755.079          29.000  
J 3  41296576.272 8 217014979.37423       534.933          32.000  
E26  25261269.780 9                      -108.796          13.000  
G 3  23868039.747 8 125427401.12722     -1628.761          33.000  
E33  28437769.211 9                      1287.240          20.000  
J 2  37549635.801 9                       341.597          30.000  
G30  25303272.569 9                     -2523.649          14.000  
J 1  39016562.756 9                       165.480          19.000  
E27  27891902.773 9 146572953.250 4     -2649.802          29.000  
G 6  23209126.226 9                      1161.335          27.000  
> 2021  5 21  6 31 24.0050000  0 15                     
G17  23320028.973 9                       824.854          31.000  
G14  21795226.312 4 114534692.08622      -399.720          34.000  
G28  22108095.018 4 116178823.78622      1194.302          33.000  
G19  23621529.822 9                      1603.740          16.000  
E13  26981610.070 8 141789355.972 3     -1494.724          33.000  
E21  25235717.217 8 132614586.921 3      -757.370          29.000  
J 3  41296478.324 8 217014445.30523       535.225          33.000  
E26  25261289.010 9                      -108.796          12.000  
G 3  23868351.966 4 125429029.24422     -1628.307          33.000  
E33  28437523.757 9                      1287.240          17.000  
J 2  37549568.111 8 197324326.22033       340.198          34.000  
G30  25303755.155 9                     -2545.762          14.000  
J 1  39016535.202 9                       165.480          19.000  
E27  27892405.339 9 146575604.667 4     -2653.897          30.000  
G 6  23208906.789 9 121963621.67335      1157.919          28.000  
> 2021  5 21  6 31 25.0050000  0 16                     
G17  23319866.564 9 122546725.51434       833.585          34.000  
G14  21795301.750 4 114535091.92822      -400.452          34.000  
E 1  26790919.256 9                      1800.208          10.000  
G28  22107867.781 8 116177628.82922      1193.619          33.000  
G19  23621227.444 9                      1606.664          17.000  
E13  26981895.434 8 141790848.634 3     -1491.317          32.000  
E21  25235856.626 8 132615344.816 3      -759.785          29.000  
J 3  41296372.697 8 217013908.96112       537.130          33.000  
E26  25261296.356 9                      -108.810          29.000  
G 3  23868658.811 4 125430655.16612     -1624.871          33.000  
E33  28437278.197 9                      1287.240          15.000  
J 2  37549501.626 8 197323986.42923       340.212          32.000  
G30  25304241.248 9                     -2548.764          17.000  
J 1  39016503.268 9                       165.480          19.000  
E27  27892911.884 8 146578258.158 4     -2652.577          30.000  
G 6  23208687.999 8 121962464.70324      1154.861          28.000  
> 2021  5 21  6 31 26.0050000  0 16                     
G17  23319709.791 8 122545892.08023       833.416          35.000  
G14  21795377.867 4 114535492.94522      -401.152          34.000  
E 1  26790551.092 9                      1811.321          29.000  
G28  22107639.969 8 116176434.21723      1194.614          32.000  
G19  23620925.154 9                      1618.801          19.000  
E13  26982185.090 8 141792340.072 4     -1490.138          28.000  
E21  25236003.924 8 132616103.941 3      -759.138          30.000  
J 3  41296270.299 8 217013372.497 3       536.595          32.000  
E26  25261304.261 9 132749126.94315      -108.126          29.000  
G 3  23868966.161 4 125432281.303 2     -1625.778          33.000  
E33  28437032.760 9                      1287.240          14.000  
J 2  37549441.789 8 197323648.36725       338.775          29.000  
G30  25304727.446 9                     -2548.764          17.000  
J 1  39016474.789 9                       165.480          17.000  
E27  27893414.695 9                     -2652.760          22.000  
G 6  23208468.963 8 121961309.67624      1154.531          27.000  
> 2021  5 21  6 31 27.0050000  0 15                     
G17  23319550.192 8                       833.075          32.000  
G14  21795453.182 4 114535894.36221      -401.804          34.000  
E 1  26790177.692 9 140783344.34815      1811.732          30.000  
G28  22107411.318 8 116175239.31922      1195.070          31.000  
G19  23620621.015 9                      1584.003          20.000  
E13  26982475.008 9                     -1491.588          16.000  
E21  25236151.919 8 132616863.169 2      -759.294          30.000  
J 3  41296169.769 8 217012835.781 4       535.688          31.000  
E26  25261327.226 8 132749233.952 3      -106.618          30.000  
G 3  23869273.303 4 125433908.250 2     -1626.828          33.000  
E33  28436788.492 9                      1287.240          12.000  
G22  26419415.107 9                     -2892.977          22.000  
G30  25305213.435 9                     -2548.764          15.000  
E27  27893922.862 9                     -2652.760          18.000  
G 6  23208249.126 8 121960154.06425      1155.945          27.000  
> 2021  5 21  6 31 28.0050000  0 15                     
G17  23319418.600 9                       831.483          28.000  
G14  21795529.108 4 114536295.95622      -403.194          33.000  
E 1  26789834.952 9 140781531.346 5      1813.669          23.000  
G28  22107183.994 8 116174043.81623      1195.354          30.000  
G19  23620320.033 9                      1594.405          20.000  
E13  26982751.699 9                     -1490.583          22.000  
E21  25236292.515 8 132617621.975 3      -758.778          30.000  
J 3  41296071.053 8                       536.344          30.000  
E26  25261351.517 8                      -104.247          30.000  
G 3  23869587.197 8 125435536.295 3     -1630.642          33.000  
E33  28436545.305 9                      1277.858          13.000  
G22  26419959.397 9                     -2892.949          24.000  
G30  25305698.935 9                     -2532.946          11.000  
E27  27894430.262 9                     -2652.760          13.000  
G 6  23208028.625 8 121958997.47825      1155.729          26.000  
> 2021  5 21  6 31 29.0050000  0 14                     
G17  23319246.785 9                       836.609          32.000  
G14  21795606.203 8                      -404.060          30.000  
E 1  26789489.839 9                      1801.524          20.000  
G28  22106960.073 8 116172849.75025      1193.737          28.000  
G19  23620018.197 9                      1580.398          20.000  
E13  26983026.173 9                     -1492.613          25.000  
E21  25236441.540 8 132618382.395 4      -761.012          29.000  
J 3  41295962.896 8 217011763.878 5       534.568          29.000  
E26  25261369.839 9                       -94.089          22.000  
G 3  23869897.584 8 125437167.323 3     -1632.733          29.000  
E33  28436301.596 9                      1277.858          13.000  
G22  26420505.554 9                     -2895.958          24.000  
G30  25306181.782 9                     -2532.946          10.000  
G 6  23207807.949 9                      1156.135          23.000  
> 2021  5 21  6 31 30.0050000  0 15                     
G17  23319073.644 8 122542634.94133       833.720          33.000  
G14  21795686.440 8 114537088.62133      -405.222          32.000  
G 1  25953703.958 9                     -2969.934          25.000  
E 1  26789157.430 9                      1801.524          17.000  
G28  22106728.753 8 116171656.83224      1192.845          29.000  
G19  23619695.629 9                      1586.711          33.000  
E13  26983314.468 9 141798284.20115     -1495.207          27.000  
E21  25236582.712 8 132619143.597 3      -761.115          30.000  
J 3  41295862.976 4 217011230.798 4       532.615          29.000  
E26  25261389.209 9                      -106.218          30.000  
G 3  23870208.233 8 125438801.698 3     -1636.041          31.000  
E33  28436057.869 9                      1283.553          15.000  
G22  26421052.636 9                     -2899.943          26.000  
G30  25306663.147 9                     -2551.001          16.000  
G 6  23207588.024 9                      1159.576          21.000  
> 2021  5 21  6 31 31.0050000  0 15                     
G17  23318917.045 8 122541801.39923       834.527          34.000  
G14  21795765.559 4 114537493.73922      -405.238          35.000  
G 1  25954265.332 9                     -2974.627          31.000  
E 1  26788837.864 9                      1819.726          16.000  
G28  22106503.296 8 116170463.10813      1193.960          30.000  
G19  23619375.331 9                      1588.616          31.000  
E13  26983597.633 8 141799779.652 3     -1496.276          29.000  
E21  25236730.306 8 132619904.003 2      -759.536          31.000  
J 3  41295763.964 8 217010698.311 3       532.017          30.000  
E26  25261404.740 9 132749610.54414      -103.504          32.000  
G 3  23870516.334 4 125440438.061 2     -1636.975          32.000  
E33  28435815.799 9                      1283.553          15.000  
G22  26421599.770 8 138846468.21434     -2901.438          27.000  
G30  25307143.952 9                     -2535.150          19.000  
G 6  23207369.094 9                      1160.815          19.000  
> 2021  5 21  6 31 32.0050000  0 15                     
G17  23318759.226 8 122540968.94324       832.117          36.000  
G14  21795837.314 4 114537898.80521      -405.621          35.000  
G 1  25954831.329 9 136393561.26335     -2980.136          24.000  
E 1  26788505.891 9                      1816.281          19.000  
G28  22106275.990 8 116169269.801 3      1192.760          31.000  
G19  23619094.155 9                      1584.540          26.000  
E13  26983883.275 8 141801277.520 3     -1499.738          31.000  
E21  25236869.716 4 132620663.261 2      -759.112          32.000  
J 3  41295662.822 8 217010167.410 3       528.613          31.000  
E26  25261427.460 8 132749713.533 3      -102.698          33.000  
G 3  23870832.707 4 125442077.894 2     -1643.318          33.000  
E33  28435570.955 9                      1283.553          15.000  
G22  26422139.610 8 138849372.36724     -2906.078          31.000  
G30  25307626.608 9                     -2546.492          22.000  
G 6  23207149.500 9                      1162.138          18.000  
> 2021  5 21  6 31 33.0050000  0 14                     
G17  23318601.406 4 122540139.48922       828.432          36.000  
G14  21795916.800 4 114538305.15421      -406.761          35.000  
E 1  26788165.123 9                      1806.084          21.000  
G28  22106051.022 8 116168077.926 3      1191.606          31.000  
G19  23618773.368 9                      1585.890          29.000  
E13  26984171.658 8 141802780.157 2     -1505.162          32.000  
E21  25237016.403 4 132621422.506 2      -758.947          33.000  
J 3  41295560.512 8 217009640.029 3       525.342          31.000  
E26  25261452.204 8 132749817.046 3      -103.166          32.000  
G 3  23871142.413 4 125443723.241 2     -1648.260          33.000  
E33  28435326.216 9                      1296.224          16.000  
G22  26422689.152 8 138852282.81125     -2914.729          24.000  
G30  25308110.625 9                     -2533.284          21.000  
G 6  23206927.656 9                      1171.347          18.000  
> 2021  5 21  6 31 34.0050000  0 14                     
G17  23318442.208 4 122539313.22722       824.688          36.000  
G14  21795994.296 4 114538712.00222      -407.241          35.000  
E 1  26787817.637 9                      1808.387          22.000  
G28  22105823.889 8 116166887.016 3      1190.979          31.000  
G19  23618460.730 9                      1585.606          29.000  
E13  26984455.939 4 141804288.059 2     -1509.951          32.000  
E21  25237162.548 4 132622180.529 2      -757.255          33.000  
J 3  41295460.034 8 217009116.275 3       522.602          31.000  
E26  25261468.189 8 132749920.285 3      -103.152          33.000  
G 3  23871455.383 4 125445374.730 2     -1654.447          33.000  
E33  28435081.267 9                      1296.224          15.000  
G22  26423244.680 9                     -2922.126          24.000  
G30  25308593.542 9                     -2535.471          21.000  
G 6  23206703.473 9                      1171.649          24.000  
> 2021  5 21  6 31 35.0050000  0 15                     
G17  23318286.953 4 122538488.37721       824.126          36.000  
G14  21796071.601 4 114539118.12722      -405.885          35.000  
G 1  25956539.688 9                     -2991.113          17.000  
E 1  26787471.128 9                      1814.220          22.000  
G28  22105593.878 8 116165695.703 3      1192.013          31.000  
G19  23618161.337 9                      1585.114          27.000  
E13  26984747.759 4 141805799.000 2     -1511.825          32.000  
E21  25237307.978 4 132622936.553 2      -755.482          33.000  
J 3  41295360.934 8 217008594.217 3       521.156          31.000  
E26  25261488.291 8 132750022.153 2      -101.664          33.000  
G 3  23871769.905 4 125447029.944 2     -1656.215          35.000  
E33  28434834.556 9                      1305.819          16.000  
G22  26423809.404 9                     -2930.713          23.000  
G30  25309071.852 9                     -2523.411          20.000  
G 6  23206478.888 9                      1179.555          25.000  
> 2021  5 21  6 31 36.0050000  0 15                     
G17  23318129.360 4 122537665.58522       822.178          36.000  
G14  21796149.429 4 114539524.99922      -408.010          35.000  
G 1  25957111.724 9                     -2991.113          18.000  
E 1  26787120.449 9                      1816.378          22.000  
G28  22105371.737 8 116164505.362 4      1189.027          31.000  
G19  23617878.695 9 124112789.55135      1585.208          27.000  
E13  26985038.131 4 141807313.156 2     -1514.257          32.000  
E21  25237450.739 4 132623692.249 2      -756.607          32.000  
J 3  41295268.029 4 217008074.334 2       519.650          32.000  
E26  25261497.610 8 132750124.245 3      -102.688          32.000  
G 3  23872082.683 4 125448689.040 2     -1659.963          32.000  
E33  28434588.229 9                      1305.819          16.000  
G22  26424359.347 9                     -2930.713          22.000  
G30  25309552.309 9                     -2523.268          19.000  
G 6  23206254.653 9                      1174.316          26.000  
> 2021  5 21  6 31 37.0050000  0 15                     
G17  23317972.936 2 122536843.837 1       820.969          35.000  
G14  21796226.681 2 114539932.62711      -408.277          35.000  
G 1  25957682.800 9                     -2991.113          18.000  
E 1  26786774.899 9                      1812.824          23.000  
G28  22105147.118 8 116163316.217 3      1188.857          31.000  
G19  23617590.627 8 124111205.03124      1584.142          28.000  
E13  26985325.379 4 141808828.452 2     -1514.361          32.000  
E21  25237595.279 4 132624448.967 2      -757.361          32.000  
J 3  41295167.062 8 217007555.459 3       518.976          32.000  
E26  25261517.014 8 132750227.158 2      -103.333          32.000  
G 3  23872398.166 4 125450349.951 2     -1661.294          32.000  
E33  28434340.645 9                      1305.819          14.000  
G22  26424909.727 9                     -2930.713          21.000  
G30  25310034.686 9                     -2526.953          18.000  
G 6  23206033.192 8 121948517.17535      1172.825          27.000  
> 2021  5 21  6 31 38.0050000  0 15                     
G17  23317816.513 2 122536021.645 1       822.123          35.000  
G14  21796304.561 2 114540341.022 1      -408.313          35.000  
G 1  25958255.359 9                     -2991.113          18.000  
E 1  26786428.425 9                      1819.566          23.000  
G28  22104916.949 8 116162127.194 3      1188.937          31.000  
G19  23617295.422 8 124109620.04223      1585.524          29.000  
E13  26985613.796 4 141810343.362 2     -1514.852          32.000  
E21  25237739.522 4 132625205.725 2      -756.754          32.000  
J 3  41295070.213 8 217007036.061 3       520.087          32.000  
E26  25261534.604 8 132750329.812 2      -102.595          31.000  
G 3  23872718.168 4 125452011.024 2     -1661.348          32.000  
E33  28434091.613 9                      1305.819          11.000  
G22  26425464.417 9                     -2930.713          21.000  
G30  25310517.341 9                     -2523.950          19.000  
G 6  23205808.538 8 121947343.53824      1174.550          27.000  
> 2021  5 21  6 31 39.0050000  0 14                     
G17  23317659.827 2 122535199.328 1       823.003          35.000  
G14  21796382.599 2 114540749.921 1      -409.493          35.000  
G 1  25958825.510 9                     -2991.113          18.000  
E 1  26786083.452 9                      1815.413          25.000  
G28  22104691.318 8 116160938.569 3      1188.406          31.000  
G19  23616992.032 9                      1584.747          30.000  
E13  26985901.341 4 141811858.072 2     -1514.651          32.000  
E21  25237883.993 4 132625962.831 2      -757.690          32.000  
J 3  41294971.899 8 217006516.470 2       519.349          32.000  
E26  25261559.331 8 132750432.465 2      -102.583          32.000  
G 3  23873034.819 4 125453672.518 2     -1661.137          33.000  
G22  26426020.835 9                     -2930.713          21.000  
G30  25310996.803 9                     -2525.942          20.000  
G 6  23205585.455 4 121946170.28424      1172.809          27.000  
> 2021  5 21  6 31 40.0050000  0 14                     
G17  23317503.089 2 122534376.695 1       822.206          35.000  
G14  21796460.531 2 114541159.045 1      -409.463          35.000  
G 1  25959396.673 9                     -2991.113          19.000  
E 1  26785737.083 9                      1812.687          25.000  
G28  22104465.006 8 116159750.043 4      1188.436          30.000  
G19  23616693.005 9 124106544.61233      1585.737          30.000  
E13  26986189.042 4 141813372.340 2     -1514.503          31.000  
E21  25238027.660 4 132626719.985 2      -757.482          32.000  
J 3  41294871.316 4 217005996.379 2       519.568          32.000  
E26  25261583.378 4 132750534.861 2      -102.199          32.000  
G 3  23873350.825 4 125455334.279 2     -1662.563          33.000  
G22  26426577.951 9                     -2930.713          21.000  
G30  25311476.580 9                     -2526.383          20.000  
G 6  23205363.174 4 121944996.92224      1173.437          27.000  
> 2021  5 21  6 31 41.0050000  0 14                     
G17  23317346.473 2 122533554.295 1       822.539          35.000  
G14  21796538.464 2 114541569.036 1      -410.009          35.000  
G 1  25959966.911 9                     -2991.113          19.000  
E 1  26785392.301 9                      1813.431          26.000  
G28  22104238.642 8 116158562.301 3      1188.149          31.000  
G19  23616394.659 8 124104959.52723      1585.331          30.000  
E13  26986477.198 4 141814886.800 2     -1514.165          32.000  
E21  25238172.253 4 132627477.859 2      -758.124          32.000  
J 3  41294774.240 4 217005476.396 2       520.599          32.000  
E26  25261601.369 4 132750637.672 2      -102.616          32.000  
G 3  23873667.896 4 125456996.828 2     -1662.614          33.000  
G22  26427135.939 9                     -2930.713          21.000  
G30  25311956.775 9                     -2526.050          20.000  
G 6  23205138.938 4 121943824.33924      1172.196          27.000  
> 2021  5 21  6 31 42.0050000  0 14                     
G17  23317189.736 2 122532731.179 1       822.799          36.000  
G14  21796616.623 2 114541978.899 1      -409.839          35.000  
G 1  25960535.125 9                     -2991.113          19.000  
E 1  26785046.700 9                      1813.613          26.000  
G28  22104015.052 8 116157374.298 2      1188.176          31.000  
G19  23616089.245 8 124103373.69622      1585.701          31.000  
E13  26986764.446 2 141816400.437 2     -1512.920          32.000  
E21  25238316.182 4 132628235.434 2      -757.348          32.000  
J 3  41294671.929 4 217004955.650 2       520.560          32.000  
E26  25261619.622 4 132750739.853 2      -101.484          32.000  
G 3  23873984.303 4 125458659.205 1     -1662.695          34.000  
G22  26427690.995 9                     -2930.713          22.000  
G30  25312436.760 9                     -2525.916          20.000  
G 6  23204917.041 4 121942651.41124      1171.953          27.000  
> 2021  5 21  6 31 43.0050000  0 14                     
G17  23317032.841 2 122531908.474 1       821.901          35.000  
G14  21796694.783 2 114542389.817 1      -411.771          35.000  
G 1  25961104.962 9                     -2991.113          19.000  
E 1  26784703.908 9                      1811.139          26.000  
G28  22103786.664 8 116156187.232 3      1185.569          31.000  
G19  23615789.677 8 124101788.31623      1584.786          31.000  
E13  26987052.985 4 141817914.527 2     -1514.531          32.000  
E21  25238460.548 2 132628993.902 2      -759.542          32.000  
J 3  41294575.639 4 217004435.128 2       520.478          32.000  
E26  25261638.677 4 132750842.640 2      -103.436          32.000  
G 3  23874300.780 4 125460322.624 2     -1664.227          33.000  
G22  26428246.349 9                     -2930.713          23.000  
G30  25312916.589 9                     -2529.152          20.000  
G 6  23204696.000 4 121941479.125 4      1171.259          27.000  
> 2021  5 21  6 31 44.0050000  0 15                     
G17  23316876.051 2 122531086.574 2       821.914          35.000  
G14  21796773.344 2 114542802.172 2      -412.848          35.000  
G 1  25961674.869 9                     -2991.113          20.000  
E 1  26784358.882 9                      1810.112          26.000  
G28  22103562.080 8 116155001.500 3      1184.561          31.000  
G19  23615486.375 8 124100203.81723      1584.268          30.000  
E13  26987340.914 2 141819429.368 2     -1515.507          32.000  
E21  25238605.036 4 132629753.611 2      -760.279          32.000  
J 3  41294472.979 4 217003915.426 2       519.563          32.000  
E26  25261658.344 4 132750946.387 2      -104.154          31.000  
G 3  23874617.798 4 125461987.397 2     -1664.990          33.000  
E33  28432603.633 9                      1305.819          10.000  
G22  26428804.616 9                     -2930.713          23.000  
G30  25313397.779 9                     -2525.454          19.000  
G 6  23204474.364 4 121940308.155 4      1170.831          27.000  
> 2021  5 21  6 31 45.0050000  0 14                     
G17  23316719.574 2 122530264.515 1       823.270          35.000  
G14  21796851.992 4 114543215.004 2      -412.312          35.000  
G 1  25962242.943 9                     -2992.466          19.000  
E 1  26784015.147 9                      1812.926          26.000  
G28  22103335.907 8 116153816.100 3      1185.474          31.000  
G19  23615183.090 8 124098619.12023      1585.741          30.000  
E13  26987628.808 4 141820943.930 2     -1513.505          32.000  
E21  25238749.489 4 132630513.615 2      -759.545          32.000  
J 3  41294374.892 4 217003395.393 2       520.866          32.000  
E26  25261678.115 4 132751050.048 2      -102.993          31.000  
G 3  23874933.752 4 125463652.612 2     -1664.897          33.000  
G22  26429358.678 9                     -2914.573          22.000  
G30  25313878.148 9                     -2529.565          19.000  
G 6  23204252.729 4 121939137.459 4      1171.471          27.000  
> 2021  5 21  6 31 46.0050000  0 14                     
G17  23316562.941 2 122529441.441 1       823.254          35.000  
G14  21796930.553 2 114543627.393 1      -413.566          35.000  
G 1  25962815.153 9                     -3000.140          20.000  
E 1  26783673.978 9                      1812.074          26.000  
G28  22103112.126 4 116152630.105 2      1185.095          32.000  
G19  23614876.211 4 124097033.44623      1585.859          30.000  
E13  26987911.449 4 141822457.452 2     -1513.765          32.000  
E21  25238894.064 4 132631273.027 2      -759.996          32.000  
J 3  41294273.454 4 217002874.244 2       520.996          32.000  
E26  25261698.008 4 132751152.794 2      -102.586          32.000  
G 3  23875253.143 4 125465317.359 2     -1665.963          34.000  
G22  26429913.595 9                     -2928.138          22.000  
G30  25314362.532 9                     -2522.892          20.000  
G 6  23204029.855 4 121937966.028 4      1170.971          27.000  
> 2021  5 21  6 31 47.0050000  0 14                     
G17  23316406.308 2 122528619.000 1       821.934          35.000  
G14  21797009.620 2 114544041.003 1      -413.968          35.000  
G 1  25963387.258 9                     -2993.541          19.000  
E 1  26783334.467 9                      1811.873          26.000  
G28  22102884.627 8 116151445.221 3      1184.457          32.000  
G19  23614568.633 4 124095448.47923      1584.525          30.000  
E13  26988201.576 8 141823971.556 2     -1514.608          32.000  
E21  25239033.281 4 132632033.525 2      -761.091          32.000  
J 3  41294175.855 4 217002353.636 2       519.853          32.000  
E26  25261717.814 2 132751256.304 2      -103.012          33.000  
G 3  23875570.598 4 125466983.275 1     -1666.439          34.000  
G22  26430469.489 9                     -2924.420          22.000  
G30  25314846.897 9                     -2529.243          20.000  
G 6  23203806.597 4 121936795.666 3      1170.237          27.000  
> 2021  5 21  6 31 48.0050000  0 14                     
G17  23316249.431 2 122527796.862 1       821.680          35.000  
G14  21797088.408 2 114544455.577 1      -415.304          35.000  
G 1  25963958.788 9                     -2999.623          20.000  
E 1  26782991.500 9                      1809.619          26.000  
G28  22102658.821 4 116150261.242 2      1183.557          32.000  
G19  23614264.441 4 124093863.74922      1584.478          29.000  
E13  26988486.782 4 141825485.892 2     -1514.700          32.000  
E21  25239176.426 4 132632794.746 2      -761.318          32.000  
J 3  41294076.894 4 217001833.234 2       519.695          33.000  
E26  25261738.231 2 132751360.334 2      -104.343          32.000  
G 3  23875889.169 4 125468650.124 1     -1667.317          34.000  
G22  26431028.035 9                     -2927.397          23.000  
G30  25315327.633 9                     -2531.117          20.000  
G 6  23203581.873 4 121935626.006 4      1169.060          27.000  
> 2021  5 21  6 31 49.0050000  0 14                     
G17  23316092.675 4 122526974.596 2       822.019          34.000  
G14  21797167.562 2 114544870.577 1      -415.117          36.000  
G 1  25964532.097 9                     -2991.133          20.000  
E 1  26782647.940 9                      1810.335          25.000  
G28  22102434.691 4 116149077.573 2      1183.357          32.000  
G19  23613965.240 4 124092278.909 2      1584.728          29.000  
E13  26988779.266 4 141827000.042 2     -1514.229          33.000  
E21  25239324.665 4 132633556.321 2      -761.709          32.000  
J 3  41293978.021 4 217001312.484 2       521.703          33.000  
E26  25261758.142 2 132751464.283 2      -103.711          32.000  
G 3  23876202.592 4 125470317.378 2     -1668.130          34.000  
G22  26431587.559 9                     -2924.560          23.000  
G30  25315808.893 9                     -2524.471          19.000  
G 6  23203360.342 4 121934456.595 3      1168.852          27.000  
> 2021  5 21  6 31 50.0050000  0 14                     
G17  23315936.286 4 122526152.170 2       822.973          34.000  
G14  21797246.402 2 114545286.141 1      -415.984          35.000  
G 1  25965106.489 9                     -2989.127          20.000  
E 1  26782305.933 9                      1810.805          25.000  
G28  22102208.763 4 116147894.266 2      1183.274          32.000  
G19  23613666.283 4 124090694.017 3      1585.475          28.000  
E13  26989071.469 4 141828514.018 2     -1513.945          33.000  
E21  25239474.283 4 132634318.234 2      -762.480          32.000  
J 3  41293881.103 4 217000791.627 2       521.510          33.000  
E26  25261778.541 4 132751568.277 2      -103.360          32.000  
G 3  23876522.228 4 125471985.098 2     -1668.328          34.000  
G22  26432144.745 9                     -2928.942          23.000  
G30  25316289.978 9                     -2522.386          20.000  
G 6  23203138.323 4 121933287.438 3      1169.290          27.000  
> 2021  5 21  6 31 51.0050000  0 14                     
G17  23315779.566 4 122525329.458 2       822.732          34.000  
G14  21797325.486 2 114545701.910 1      -415.559          35.000  
G 1  25965678.542 9                     -2995.490          20.000  
E 1  26781963.525 9                      1810.996          25.000  
G28  22101983.812 4 116146711.152 3      1182.740          31.000  
G19  23613364.254 4 124089108.835 2      1585.164          28.000  
E13  26989357.601 4 141830027.596 2     -1513.706          32.000  
E21  25239616.084 4 132635080.172 2      -761.741          32.000  
J 3  41293780.345 8 217000270.255 3       522.172          32.000  
E26  25261798.452 4 132751672.036 2      -103.519          32.000  
G 3  23876840.956 4 125473652.988 2     -1667.687          33.000  
G22  26432702.750 9                     -2924.487          23.000  
G30  25316770.156 9                     -2525.077          21.000  
G 6  23202915.554 4 121932118.261 4      1169.482          26.000  
> 2021  5 21  6 31 52.0050000  0 14                     
G17  23315623.107 4 122524507.096 2       822.001          34.000  
G14  21797404.902 4 114546118.669 2      -416.813          34.000  
G 1  25966250.228 9                     -2988.558          19.000  
E 1  26781622.705 9                      1809.824          24.000  
G28  22101758.879 4 116145528.831 3      1181.487          30.000  
G19  23613060.987 4 124087523.973 2      1584.814          27.000  
E13  26989647.676 4 141831541.421 2     -1513.950          32.000  
E21  25239758.198 4 132635842.949 2      -763.412          31.000  
J 3  41293679.483 4 216999749.138 2       521.704          32.000  
E26  25261818.432 2 132751776.274 2      -104.372          32.000  
G 3  23877157.555 4 125475321.877 2     -1669.288          33.000  
G22  26433260.023 9                     -2921.797          23.000  
G30  25317251.188 9                     -2519.248          20.000  
G 6  23202690.237 9                      1177.936          24.000  
> 2021  5 21  6 31 53.0050000  0 14                     
G17  23315466.422 2 122523684.226 1       823.388          35.000  
G14  21797484.196 2 114546535.578 2      -416.670          35.000  
G 1  25966823.904 9                     -2994.470          20.000  
E 1  26781281.169 9                      1808.818          24.000  
G28  22101533.858 4 116144346.514 3      1183.348          31.000  
G19  23612758.767 4 124085938.655 3      1585.938          28.000  
E13  26989934.941 4 141833054.764 2     -1512.447          33.000  
E21  25239899.528 8 132636605.720 2      -762.734          32.000  
J 3  41293583.175 4 216999227.503 2       521.777          32.000  
E26  25261838.884 4 132751880.199 2      -103.859          33.000  
G 3  23877475.045 4 125476990.782 2     -1667.944          34.000  
G22  26433817.889 9                     -2928.387          24.000  
G30  25317731.907 9                     -2524.659          21.000  
G 6  23202467.886 9                      1162.581          24.000  
> 2021  5 21  6 31 54.0050000  0 14                     
G17  23315309.719 2 122522860.569 1       823.927          34.000  
G14  21797563.210 2 114546952.280 1      -416.940          35.000  
G 1  25967395.277 9                     -2999.733          20.000  
E 1  26780938.796 9                      1810.653          24.000  
G28  22101308.942 4 116143163.917 3      1182.560          31.000  
G19  23612457.401 4 124084352.541 3      1586.478          28.000  
E13  26990222.817 4 141834567.295 2     -1513.368          32.000  
E21  25240049.146 8 132637368.070 2      -762.122          31.000  
J 3  41293487.094 4 216998704.860 2       522.747          32.000  
E26  25261859.248 2 132751983.382 2      -103.031          32.000  
G 3  23877792.918 4 125478659.562 2     -1669.730          32.000  
G22  26434375.860 9                     -2930.878          24.000  
G30  25318211.736 9                     -2522.808          20.000  
G 6  23202245.274 9                      1165.528          24.000  
> 2021  5 21  6 31 55.0050000  0 14                     
G17  23315153.225 2 122522037.036 1       822.900          35.000  
G14  21797642.434 4 114547369.692 2      -418.414          35.000  
G 1  25967969.354 9                     -2998.806          20.000  
E 1  26780595.882 9                      1809.943          22.000  
G28  22101086.295 4 116141981.979 2      1180.528          31.000  
G19  23612154.692 4 124082766.646 3      1584.886          28.000  
E13  26990510.938 4 141836079.752 2     -1513.211          32.000  
E21  25240195.396 8 132638131.005 2      -764.198          32.000  
J 3  41293388.448 4 216998182.274 2       521.887          32.000  
E26  25261879.525 4 132752086.829 2      -104.157          33.000  
G 3  23878110.547 4 125480328.877 2     -1669.843          33.000  
G22  26434934.668 9                     -2937.993          23.000  
G30  25318691.215 9                     -2527.501          19.000  
G 6  23202021.719 9                      1167.711          23.000  
> 2021  5 21  6 31 56.0050000  0 14                     
G17  23314996.854 2 122521214.904 1       821.519          35.000  
G14  21797722.112 4 114547789.122 2      -419.720          35.000  
G 1  25968543.222 9                     -3002.315          20.000  
E 1  26780251.223 9                      1796.918          21.000  
G28  22100861.379 8 116140801.865 3      1179.614          30.000  
G19  23611853.676 4 124081182.113 3      1584.250          28.000  
E13  26990799.006 4 141837593.629 2     -1514.559          32.000  
E21  25240341.873 4 132638895.805 2      -765.739          31.000  
J 3  41293283.520 4 216997660.980 2       520.797          32.000  
E26  25261899.802 2 132752191.849 2      -105.668          32.000  
G 3  23878428.542 4 125482000.281 2     -1672.005          33.000  
G22  26435491.696 9                     -2935.175          23.000  
G30  25319172.440 9                     -2522.248          17.000  
G 6  23201797.763 9                      1163.243          22.000  
> 2021  5 21  6 31 57.0050000  0 14                     
G17  23314840.500 2 122520392.683 1       822.408          35.000  
G14  21797801.964 4 114548209.123 2      -420.310          35.000  
G 1  25969116.182 9                     -2995.812          19.000  
E 1  26779908.361 9                      1815.607          20.000  
G28  22100633.916 8 116139622.252 3      1179.854          30.000  
G19  23611551.857 4 124079597.523 4      1584.662          28.000  
E13  26991087.703 4 141839107.339 2     -1513.220          32.000  
E21  25240486.919 4 132639660.954 3      -764.985          31.000  
J 3  41293185.555 4 216997139.482 2       521.600          32.000  
E26  25261920.429 2 132752296.873 2      -104.548          33.000  
G 3  23878746.694 4 125483672.142 2     -1672.048          33.000  
G22  26436048.358 9                     -2922.629          23.000  
G30  25319651.117 9                     -2529.949          18.000  
G 6  23201573.231 9                      1162.723          22.000  
> 2021  5 21  6 31 58.0050000  0 14                     
G17  23314684.198 2 122519569.797 1       822.665          35.000  
G14  21797881.782 2 114548629.017 1      -420.031          35.000  
G 1  25969688.078 9                     -2990.212          20.000  
E 1  26779567.314 9                      1801.973          20.000  
G28  22100409.104 8 116138442.393 3      1179.070          30.000  
G19  23611251.364 4 124078012.214 3      1585.597          28.000  
E13  26991375.579 4 141840620.348 2     -1512.967          32.000  
E21  25240633.990 4 132640425.836 2      -764.902          32.000  
J 3  41293087.537 4 216996617.237 2       521.933          32.000  
E26  25261940.828 2 132752401.324 2      -103.395          33.000  
G 3  23879064.899 4 125485343.848 2     -1671.294          34.000  
G22  26436605.980 9                     -2932.211          22.000  
G30  25320131.050 9                     -2527.686          19.000  
G 6  23201348.193 9                      1163.823          22.000  
> 2021  5 21  6 31 59.0050000  0 14                     
G17  23314527.757 2 122518746.981 1       821.939          36.000  
G14  21797961.651 2 114549049.619 1      -421.167          35.000  
G 1  25970259.381 9                     -2994.044          20.000  
E 1  26779224.365 9                      1802.295          19.000  
G28  22100182.758 8 116137263.083 3      1179.311          31.000  
G19  23610950.121 4 124076427.076 3      1584.589          28.000  
E13  26991663.542 4 141842133.345 2     -1513.553          32.000  
E21  25240778.844 4 132641191.244 2      -765.595          32.000  
J 3  41292988.245 4 216996094.952 2       521.142          33.000  
E26  25261961.070 2 132752506.050 2      -105.115          33.000  
G 3  23879383.104 4 125487016.273 2     -1673.772          34.000  
G22  26437166.010 9                     -2933.617          23.000  
G30  25320611.961 9                     -2528.117          20.000  
G 6  23201123.382 9                      1165.872          23.000  
> 2021  5 21  6 32  0.0050000  0 14                     
G17  23314371.700 2 122517925.600 1       821.145          36.000  
G14  21798042.149 2 114549472.249 1      -423.309          36.000  
G 1  25970828.136 9                     -2996.973          20.000  
E 1  26778878.641 9                      1808.881          18.000  
G28  22099959.482 8 116136085.749 3      1176.819          31.000  
G19  23610649.838 4 124074843.410 3      1582.985          29.000  
E13  26991951.541 4 141843647.767 2     -1515.010          33.000  
E21  25240924.745 4 132641958.602 2      -768.097          32.000  
J 3  41292889.180 4 216995573.957 2       520.001          33.000  
E26  25261981.452 2 132752612.299 2      -107.012          34.000  
G 3  23879701.588 2 125488690.654 1     -1674.940          35.000  
G22  26437722.619 9                     -2931.946          25.000  
G30  25321094.599 9                     -2523.493          21.000  
G 6  23200897.157 9                      1167.847          23.000  
> 2021  5 21  6 32  1.0050000  0 14                     
G17  23314215.486 2 122517104.690 1       821.617          37.000  
G14  21798123.118 2 114549895.976 1      -423.376          36.000  
G 1  25971400.643 9                     -2991.271          20.000  
E 1  26778532.202 9                      1800.871          18.000  
G28  22099731.739 8 116134909.391 2      1176.523          31.000  
G19  23610347.478 4 124073260.193 3      1583.570          29.000  
E13  26992239.888 4 141845162.567 2     -1514.318          33.000  
E21  25241071.502 4 132642726.797 2      -767.505          33.000  
J 3  41292789.871 4 216995053.359 2       520.948          33.000  
E26  25262001.677 2 132752719.164 1      -106.551          34.000  
G 3  23880020.525 2 125490366.092 1     -1675.204          35.000  
G22  26438282.998 9                     -2934.759          25.000  
G30  25321577.813 9                     -2523.648          22.000  
G 6  23200673.375 9                      1166.411          24.000  
> 2021  5 21  6 32  2.0050000  0 14                     
G17  23314059.219 2 122516282.985 1       822.205          36.000  
G14  21798203.668 2 114550319.488 1      -423.383          36.000  
G 1  25971971.021 9                     -2996.479          21.000  
E 1  26778186.269 9                      1800.871          17.000  
G28  22099511.483 8 116133732.652 3      1176.586          31.000  
G19  23610047.107 4 124071676.144 3      1584.895          28.000  
E13  26992528.183 4 141846676.438 2     -1512.869          33.000  
E21  25241217.752 4 132643494.643 2      -767.834          33.000  
J 3  41292690.649 4 216994531.808 2       521.700          33.000  
E26  25262022.059 2 132752825.306 1      -105.757          34.000  
G 3  23880339.236 4 125492041.277 2     -1675.415          34.000  
G22  26438842.330 9                     -2933.608          26.000  
G30  25322058.200 9                     -2518.764          22.000  
G 6  23200449.856 9                      1163.648          24.000  
> 2021  5 21  6 32  3.0050000  0 14                     
G17  23313903.162 2 122515461.248 1       821.536          36.000  
G14  21798284.411 2 114550743.648 1      -424.772          36.000  
G 1  25972540.613 9                     -2995.137          19.000  
E 1  26777838.521 9                      1802.692          16.000  
G28  22099286.829 8 116132556.406 3      1175.668          31.000  
G19  23609743.037 4 124070092.195 3      1584.062          28.000  
E13  26992816.181 4 141848190.321 2     -1514.023          33.000  
E21  25241364.351 4 132644262.953 2      -768.961          32.000  
J 3  41292591.322 4 216994010.129 2       521.767          33.000  
E26  25262042.318 2 132752931.608 2      -106.740          34.000  
G 3  23880657.947 4 125493716.985 2     -1675.740          34.000  
G22  26439402.098 9                     -2934.191          25.000  
G30  25322538.028 9                     -2529.493          23.000  
G 6  23200226.405 9                      1163.370          24.000  
> 2021  5 21  6 32  4.0050000  0 14                     
G17  23313746.790 2 122514638.605 1       822.426          36.000  
G14  21798365.292 2 114551168.394 1      -425.590          35.000  
G 1  25973110.293 9                     -2995.137          16.000  
E 1  26777494.594 9                      1801.742          18.000  
G28  22099064.321 8 116131380.611 4      1173.684          30.000  
G19  23609444.150 9                      1584.874          28.000  
E13  26993103.552 2 141849702.664 2     -1511.874          33.000  
E21  25241510.881 4 132645032.101 2      -769.764          33.000  
J 3  41292489.308 4 216993487.298 2       524.114          32.000  
E26  25262062.107 4 132753037.981 2      -106.953          33.000  
G 3  23880976.850 4 125495391.884 2     -1675.308          34.000  
G22  26439961.395 9                     -2929.377          23.000  
G30  25323018.590 9                     -2532.690          23.000  
G 6  23200013.251 9                      1162.971          31.000  
> 2021  5 21  6 32  5.0050000  0 14                     
G17  23313590.087 2 122513814.147 1       826.491          36.000  
G14  21798446.261 4 114551594.127 2      -425.693          35.000  
G 1  25973677.041 9                     -2983.770          18.000  
E 1  26777148.557 9                      1804.592          19.000  
G28  22098842.424 8 116130205.078 3      1176.146          31.000  
G19  23609144.181 9                      1588.526          31.000  
E13  26993390.468 4 141851211.838 2     -1505.780          33.000  
E21  25241657.480 4 132645802.894 2      -771.414          33.000  
J 3  41292385.567 8 216992962.368 3       527.407          32.000  
E26  25262082.314 4 132753144.819 2      -106.199          33.000  
G 3  23881296.887 4 125497064.063 2     -1669.201          31.000  
G22  26440519.034 9                     -2925.239          26.000  
G30  25323497.738 9                     -2522.861          22.000  
G 6  23199800.847 8                      1158.470          30.000  
> 2021  5 21  6 32  6.0050000  0 14                     
G17  23313432.372 4 122512985.265 2       831.176          34.000  
G14  21798527.318 4 114552019.886 2      -426.060          35.000  
G 1  25974237.699 9                     -2979.855          23.000  
E 1  26776790.059 9                      1804.819          22.000  
G28  22098619.532 8 116129028.801 4      1176.208          30.000  
G19  23608847.335 9                      1577.631          27.000  
E13  26993676.530 4 141852714.468 2     -1500.066          32.000  
E21  25241804.219 4 132646575.146 2      -773.268          32.000  
J 3  41292287.898 8 216992432.621 3       532.666          31.000  
E26  25262114.091 9                      -110.060          32.000  
G 3  23881607.675 4 125498730.504 2     -1663.506          32.000  
G22  26441082.118 9 138948786.09335     -2919.153          30.000  
G30  25323978.701 9                     -2536.839          19.000  
G 6  23199583.888 9                      1162.643          29.000  
> 2021  5 21  6 32  7.0050000  0 14                     
G17  23313273.977 4 122512154.096 3       833.126          30.000  
G14  21798608.775 4 114552447.239 2      -428.684          34.000  
G 1  25974799.142 9                     -2975.104          25.000  
E 1  26776431.126 9                      1801.263          25.000  
G28  22098396.588 8 116127853.246 4      1175.230          30.000  
G19  23608555.533 9                      1581.187          26.000  
E13  26993962.172 4 141854213.170 3     -1497.256          32.000  
E21  25241951.848 4 132647349.920 2      -776.032          32.000  
J 3  41292186.634 8 216991900.484 4       532.524          31.000  
E26  25262140.232 9                      -104.254          32.000  
G 3  23881929.579 8 125500393.729 4     -1661.580          29.000  
G22  26441634.749 9                     -2913.544          28.000  
G30  25324459.524 9                     -2536.839          18.000  
G 6  23199359.845 9                      1150.877          28.000  
> 2021  5 21  6 32  8.0050000  0 14                     
G17  23313115.686 8 122511320.866 4       831.695          30.000  
G14  21798690.739 4 114552876.360 3      -430.799          32.000  
G 1  25975362.575 8                     -2970.997          24.000  
E 1  26776084.023 9                      1783.566          25.000  
G28  22098175.023 8 116126678.483 4      1173.850          28.000  
G19  23608253.679 9                      1577.415          23.000  
E13  26994243.365 8 141855708.355 3     -1494.207          30.000  
E21  25242099.756 4 132648127.398 3      -779.108          28.000  
J 3  41292078.303 8 216991366.216 3       534.928          29.000  
E26  25262155.658 9                       -98.084          30.000  
G 3  23882248.203 8 125502054.436 4     -1660.079          29.000  
G22  26442190.556 9                     -2916.485          26.000  
G30  25324940.190 9                     -2534.813          17.000  
G 6  23199151.943 9                      1148.650          26.000  
> 2021  5 21  6 32  9.0050000  0 14                     
G17  23312952.369 8 122510484.399 4       838.417          29.000  
G14  21798772.301 4 114553305.851 3      -428.870          31.000  
G 1  25975924.699 9                     -2965.125          22.000  
E 1  26775735.403 9                      1806.894          26.000  
G28  22097946.791 8 116125503.104 4      1176.227          27.000  
G19  23607910.206 9                      1593.249          30.000  
E13  26994524.209 8 141857199.610 3     -1487.574          28.000  
E21  25242248.275 4 132648905.901 3      -778.906          28.000  
J 3  41291980.320 4 216990829.458 3       537.717          28.000  
E26  25262164.836 9 132753582.29915      -103.969          29.000  
G 3  23882560.352 8 125503712.499 4     -1655.995          28.000  
G22  26442746.590 9                     -2908.030          26.000  
G30  25325422.602 9                     -2544.247          15.000  
G 6  23198928.615 9                      1149.358          26.000  
> 2021  5 21  6 32 10.0050000  0 14                     
G17  23312795.526 4 122509644.864 3       840.390          29.000  
G14  21798853.445 4 114553735.928 3      -431.053          30.000  
G 1  25976486.282 9                     -2958.737          21.000  
E 1  26775392.611 9                      1811.788          26.000  
G28  22097724.493 8 116124327.062 4      1175.846          26.000  
G19  23607585.615 9 124058811.10033      1594.512          31.000  
E13  26994808.386 8 141858687.366 3     -1486.339          28.000  
E21  25242396.514 4 132649685.318 3      -780.267          28.000  
J 3  41291876.108 4 216990290.187 3       539.701          28.000  
E26  25262182.670 9 132753686.843 5      -102.458          29.000  
G 3  23882875.870 4 125505368.190 3     -1655.302          28.000  
G22  26443300.233 9 138960479.73935     -2904.595          27.000  
G30  25325907.421 9                     -2544.247          12.000  
G 6  23198704.048 9 121910043.47135      1148.851          31.000  
> 2021  5 21  6 32 11.0050000  0 13                     
G17  23312635.264 4 122508803.781 3       841.990          30.000  
G14  21798933.855 8 114554168.158 3      -433.699          30.000  
G 1  25977050.395 9                     -2966.067          19.000  
E 1  26775038.529 9                      1806.678          27.000  
G28  22097499.141 8 116123151.834 4      1175.035          26.000  
G19  23607281.073 8 124057215.38025      1596.212          30.000  
E13  26995089.142 4 141860173.269 3     -1485.359          28.000  
E21  25242543.009 4 132650467.230 3      -782.886          28.000  
J 3  41291772.192 4 216989750.459 2       540.072          29.000  
E26  25262204.588 8 132753791.130 4      -104.235          29.000  
G 3  23883187.513 4 125507023.733 2     -1655.569          30.000  
G22  26443854.870 8 138963383.40424     -2902.984          28.000  
G 6  23198483.408 8 121908896.41024      1147.764          31.000  
> 2021  5 21  6 32 12.0050000  0 13                     
G17  23312477.374 8 122507961.220 4       843.933          30.000  
G14  21799018.960 4 114554601.408 3      -432.559          29.000  
G 1  25977614.875 9                     -2967.307          17.000  
E 1  26774691.810 9                      1808.654          27.000  
G28  22097277.907 8 116121976.419 5      1176.243          27.000  
G19  23606974.264 9                      1599.785          30.000  
E13  26995374.139 4 141861658.080 3     -1483.116          28.000  
E21  25242694.128 4 132651250.031 4      -781.647          27.000  
J 3  41291673.563 4 216989210.541 3       541.101          29.000  
E26  25262218.251 8 132753893.801 4      -100.928          29.000  
G 3  23883503.379 8 125508679.862 3     -1655.262          31.000  
G22  26444405.809 8 138966286.84325     -2902.933          27.000  
G 6  23198262.802 8 121907748.84723      1147.152          31.000  
> 2021  5 21  6 32 13.0050000  0 13                     
G17  23312312.696 8 122507116.196 4       846.564          31.000  
G14  21799098.620 4 114555034.701 3      -433.707          28.000  
G 1  25978180.244 9                     -2967.307          14.000  
E 1  26774342.213 8 140700168.88415      1811.244          27.000  
G28  22097053.497 4 116120799.897 4      1176.844          27.000  
G19  23606674.870 8 124053886.17335      1601.570          29.000  
E13  26995653.604 8 141863141.120 4     -1482.948          27.000  
E21  25242839.802 4 132652032.582 4      -781.995          27.000  
J 3  41291569.874 4 216988669.335 2       541.280          29.000  
E26  25262239.488 8 132753994.108 3       -99.294          28.000  
G 3  23883820.642 8 125510335.653 3     -1655.483          31.000  
G22  26444955.386 9                     -2896.155          24.000  
G 6  23198045.565 9                      1150.426          30.000  
> 2021  5 21  6 32 14.0050000  0 13                     
G17  23312153.341 8 122506271.334 3       845.035          32.000  
G14  21799181.177 8 114555469.120 4      -435.009          28.000  
G 1  25978745.474 9                     -2967.307          14.000  
E 1  26773995.355 8                      1809.773          26.000  
G28  22096831.635 4 116119623.849 4      1176.692          28.000  
G19  23606372.336 8                      1602.655          27.000  
E13  26995939.421 8                     -1485.246          27.000  
E21  25242989.473 4 132652815.818 4      -783.142          26.000  
J 3  41291470.826 4 216988129.060 3       540.518          29.000  
E26  25262256.712 8 132754093.736 4       -99.039          29.000  
G 3  23884133.507 8 125511993.642 3     -1659.206          30.000  
G22  26445505.975 9                     -2903.858          23.000  
G 6  23197828.431 8 121905401.65435      1152.147          30.000  
> 2021  5 21  6 32 15.0050000  0 14                     
G17  23311991.682 8 122505427.724 3       842.504          31.000  
G14  21799263.595 8 114555904.506 4      -436.125          27.000  
G 1  25979310.896 9                     -2967.307          14.000  
E 1  26773648.723 8                      1810.015          27.000  
G28  22096608.464 4 116118448.726 4      1174.618          28.000  
G19  23606063.153 8 124050721.67035      1602.933          29.000  
E13  26996220.579 9                     -1487.414          26.000  
E21  25243138.550 4 132653599.274 4      -783.362          26.000  
J 3  41291366.073 8 216987590.504 3       537.403          29.000  
E26  25262277.425 8 132754193.304 3       -99.777          29.000  
G 3  23884453.893 8 125513654.661 4     -1662.837          30.000  
G22  26446059.444 9                     -2903.141          20.000  
J 2  37546311.290 9                       316.601          23.000  
G 6  23197604.720 9                      1152.154          29.000  
> 2021  5 21  6 32 16.0050000  0 14                     
G17  23311833.321 8 122504585.290 3       841.790          31.000  
G14  21799350.444 4 114556339.879 4      -434.334          28.000  
G 1  25979874.486 9                     -2956.944          13.000  
E 1  26773302.546 4 140694736.230 4      1811.421          28.000  
G28  22096381.856 4 116117273.803 3      1175.151          28.000  
G19  23605756.587 8 124049120.40024      1601.852          30.000  
E13  26996504.983 9                     -1486.151          26.000  
E21  25243288.849 4 132654381.881 4      -781.702          27.000  
J 3  41291262.715 8 216987053.185 3       536.605          29.000  
E26  25262295.486 8 132754292.510 3       -98.755          29.000  
G 3  23884766.723 8 125515318.399 4     -1664.438          29.000  
G22  26446611.237 9                     -2903.141          17.000  
J 2  37546249.900 9                       316.601          24.000  
G 6  23197388.285 8                      1155.562          28.000  
> 2021  5 21  6 32 17.0050000  0 15                     
G17  23311671.558 8 122503743.760 4       840.583          30.000  
G14  21799432.844 4 114556775.022 3      -435.607          27.000  
G 1  25980437.151 9                     -2956.944          12.000  
E 1  26772964.640 8 140692925.283 3      1810.675          28.000  
G28  22096157.917 4 116116098.989 4      1173.864          28.000  
G19  23605451.418 8 124047519.33124      1600.323          30.000  
E13  26996788.148 9                     -1491.061          25.000  
E21  25243439.095 8 132655163.423 5      -781.531          26.000  
J 3  41291160.544 4 216986516.482 3       536.551          29.000  
E26  25262312.779 8 132754391.350 3       -99.554          28.000  
G 3  23885084.771 4 125516984.275 4     -1667.023          29.000  
G22  26447162.489 9                     -2889.893          15.000  
J 1  39014813.197 9                       157.492          19.000  
J 2  37546189.854 9                       316.601          25.000  
G 6  23197169.546 9                      1160.606          25.000  
> 2021  5 21  6 32 18.0050000  0 14                     
G17  23311510.335 4 122502904.858 4       837.361          29.000  
G14  21799517.129 4 114557211.444 4      -436.364          27.000  
E 1  26772617.416 8 140691116.270 4      1808.589          28.000  
G28  22095935.130 4 116114925.919 5      1171.525          28.000  
G19  23605144.364 8 124045920.43724      1596.702          30.000  
E13  26997070.702 9                     -1494.586          25.000  
E21  25243587.666 8 132655945.619 5      -783.112          26.000  
J 3  41291052.789 4 216985982.032 3       533.183          28.000  
E26  25262332.393 8 132754491.693 3      -101.544          28.000  
G 3  23885401.440 4 125518653.463 4     -1671.547          29.000  
G22  26447712.538 9                     -2889.893          13.000  
J 1  39014780.879 9                       157.492          21.000  
J 2  37546131.605 9                       316.601          25.000  
G 6  23196951.698 9                      1156.022          24.000  
> 2021  5 21  6 32 19.0050000  0 13                     
G17  23311355.447 8 122502069.165 4       834.587          28.000  
G14  21799601.693 4 114557647.958 4      -435.931          26.000  
E 1  26772265.637 8 140689309.285 5      1805.290          27.000  
G28  22095710.686 4                      1170.339          27.000  
G19  23604845.913 9                      1595.497          29.000  
E13  26997355.803 9                     -1472.205          24.000  
E21  25243734.684 8                      -779.883          25.000  
J 3  41290952.782 8 216985449.670 5       531.989          27.000  
E26  25262355.759 8 132754593.350 4      -102.051          27.000  
G 3  23885715.282 8 125520326.381 5     -1674.903          27.000  
J 1  39014745.944 9                       157.492          21.000  
J 2  37546070.791 9                       316.601          25.000  
G 6  23196728.038 9                      1165.801          23.000  
> 2021  5 21  6 32 20.0050000  0 13                     
G17  23311195.848 9                       809.674          26.000  
G14  21799685.331 8 114558118.67935      -434.449          24.000  
E 1  26771917.924 9                      1811.882          25.000  
G28  22095487.881 9                      1170.055          25.000  
G19  23604541.197 9                      1592.193          27.000  
E13  26997642.650 9                     -1515.912          22.000  
E21  25243882.173 9                      -766.441          23.000  
J 3  41290853.246 9                       532.333          25.000  
E26  25262364.816 9                       -74.035          25.000  
G 3  23886035.336 9                     -1658.109          26.000  
J 1  39014716.086 9                       157.492          20.000  
J 2  37546009.419 9                       316.601          23.000  
G 6  23196511.673 9                      1149.711          22.000  
> 2021  5 21  6 32 21.0050000  0 13                     
G17  23311039.145 9                       836.641          23.000  
G14  21799767.836 9                      -430.782          21.000  
E 1  26771573.421 9                      1803.751          22.000  
G28  22095267.450 9                      1167.263          23.000  
G19  23604244.893 9                      1587.738          23.000  
E13  26997929.811 9                     -1513.214          21.000  
E21  25244032.053 9                      -783.208          20.000  
J 3  41290752.506 9                       526.799          22.000  
E26  25262388.478 9                      -103.701          22.000  
G 3  23886360.608 9                     -1679.386          23.000  
J 1  39014686.630 9                       157.492          18.000  
J 2  37545948.919 9                       316.601          20.000  
G 6  23196289.846 9                      1160.311          21.000  
> 2021  5 21  6 32 22.0050000  0 13                     
G17  23310878.603 9                       826.925          21.000  
G14  21799848.665 9                      -432.679          21.000  
E 1  26771231.676 9                      1799.150          22.000  
G28  22095045.047 9                      1167.024          22.000  
G19  23603939.967 9                      1587.738          20.000  
E13  26998217.931 9                     -1515.971          20.000  
E21  25244181.026 9                      -776.714          20.000  
J 3  41290654.331 9                       527.781          21.000  
E26  25262408.668 9                      -105.766          20.000  
G 3  23886679.284 9                     -1691.453          23.000  
J 1  39014656.424 9                       157.492          18.000  
J 2  37545888.838 9                       316.601          19.000  
G 6  23196070.095 9                      1156.946          21.000  
> 2021  5 21  6 32 23.0050000  0 13                     
G17  23310720.608 9                       812.053          21.000  
G14  21799932.235 9                      -438.496          20.000  
E 1  26770891.537 9                      1802.253          20.000  
G28  22094821.353 9                      1168.700          20.000  
G19  23603638.742 9                      1585.701          16.000  
E13  26998504.656 9                     -1509.452          19.000  
E21  25244326.508 9                      -765.226          19.000  
J 3  41290553.905 9                       532.409          21.000  
E26  25262429.870 9                      -109.526          20.000  
G 3  23887003.701 9                     -1684.047          21.000  
J 1  39014626.340 9                       157.492          16.000  
J 2  37545826.279 9                       316.601          18.000  
G 6  23195849.402 9                      1152.847          21.000  
> 2021  5 21  6 32 24.0050000  0 12                     
G17  23310566.139 9                       822.362          24.000  
G14  21800014.041 9                      -428.116          22.000  
E 1  26770548.884 9                      1796.922          20.000  
G28  22094598.077 9                      1166.193          24.000  
G19  23603342.367 9                      1587.092          16.000  
E13  26998793.248 9                     -1513.526          20.000  
E21  25244473.509 9                      -779.428          21.000  
J 3  41290454.316 9                       524.878          23.000  
E26  25262450.741 9                      -109.359          24.000  
G 3  23887324.401 9                     -1687.175          23.000  
J 1  39014594.371 9                       157.492          17.000  
G 6  23195628.064 9                      1151.383          23.000  
> 2021  5 21  6 32 25.0050000  0 12                     
G17  23310412.385 9                       821.425          24.000  
G14  21800097.558 9                      -437.783          22.000  
E 1  26770209.949 9                      1794.518          19.000  
G28  22094376.512 9                      1164.614          23.000  
G19  23603039.781 9                      1578.048          16.000  
E13  26999080.932 9                     -1498.523          20.000  
E21  25244622.516 9                      -774.249          21.000  
J 3  41290354.885 9                       527.999          23.000  
E26  25262470.599 9                      -106.385          24.000  
G 3  23887645.747 9                     -1689.542          23.000  
J 1  39014563.432 9                       157.492          16.000  
G 6  23195409.744 9                      1154.893          23.000  
> 2021  5 21  6 32 26.0050000  0 12                     
G17  23310258.265 9                       821.562          26.000  
G14  21800180.691 9                      -435.522          23.000  
E 1  26769869.408 9                      1801.089          21.000  
G28  22094154.807 9                      1167.002          25.000  
G19  23602737.909 9                      1580.378          17.000  
E13  26999366.400 9                     -1513.981          21.000  
E21  25244769.918 9                      -782.799          22.000  
J 3  41290254.686 9                       524.932          25.000  
E26  25262492.168 9                      -108.233          25.000  
G 3  23887970.182 9                     -1686.584          25.000  
J 1  39014531.097 9                       157.492          16.000  
G 6  23195189.732 9                      1155.269          25.000  
> 2021  5 21  6 32 27.0050000  0 12                     
G17  23310101.963 9                       823.059          26.000  
G14  21800262.148 9                      -441.090          24.000  
E 1  26769527.523 9                      1799.459          21.000  
G28  22093931.322 9                      1166.427          25.000  
G19  23602434.712 9                      1588.852          17.000  
E13  26999655.951 9                     -1513.055          21.000  
E21  25244917.949 9                      -774.513          22.000  
J 3  41290153.981 9                       525.202          25.000  
E26  25262513.125 9                      -108.021          25.000  
G 3  23888292.365 9                     -1688.781          26.000  
J 1  39014500.489 9                       157.492          17.000  
G 6  23194970.836 9                      1155.615          25.000  
> 2021  5 21  6 32 28.0050000  0 11                     
G17  23309947.040 9                       821.393          26.000  
G14  21800346.276 9                      -439.311          23.000  
E 1  26769186.441 9                      1794.731          21.000  
G28  22093711.519 9                      1163.766          25.000  
G19  23602133.434 9                      1586.945          16.000  
E13  26999941.873 9                     -1511.925          21.000  
E21  25245062.803 9                      -781.474          22.000  
J 3  41290054.200 9                       524.013          24.000  
E26  25262534.031 9                      -110.144          25.000  
G 3  23888616.084 9                     -1691.291          25.000  
G 6  23194751.016 9                      1153.739          24.000  
> 2021  5 21  6 32 29.0050000  0 11                     
G17  23309789.936 9                       822.764          25.000  
G14  21800429.479 9                      -437.697          22.000  
E 1  26768846.860 9                      1794.511          20.000  
G28  22093489.796 9                      1163.015          23.000  
G19  23601833.098 9                      1586.945          15.000  
E13  27000228.092 9                     -1509.135          20.000  
E21  25245211.985 9                      -780.198          21.000  
J 3  41289952.902 9                       520.886          23.000  
E26  25262555.494 9                      -109.860          24.000  
G 3  23888937.499 9                     -1692.059          24.000  
G 6  23194531.422 9                      1149.090          23.000  
> 2021  5 21  6 32 30.0050000  0 11                     
G17  23309634.926 9                       801.964          22.000  
G14  21800510.238 9                      -432.753          20.000  
E 1  26768505.813 9                      1791.311          18.000  
G28  22093267.341 9                      1165.029          20.000  
G19  23601529.377 9                      1586.945          12.000  
E13  27000516.230 9                     -1518.162          17.000  
E21  25245359.212 9                      -778.969          19.000  
J 3  41289856.297 9                       536.226          21.000  
E26  25262574.515 9                      -101.099          21.000  
G 3  23889258.409 9                     -1690.795          22.000  
G 6  23194309.525 9                      1162.893          20.000  
> 2021  5 21  6 32 31.0050000  0 11                     
G17  23309477.455 9                       817.686          23.000  
G14  21800594.592 9                      -455.434          20.000  
E 1  26768166.284 9                      1790.941          17.000  
G28  22093046.090 9                      1167.487          21.000  
G19  23601229.094 9                      1586.945          13.000  
E13  27000803.268 9                     -1510.204          18.000  
E21  25245507.399 9                      -781.303          19.000  
J 3  41289754.179 9                       528.409          22.000  
E26  25262596.118 9                      -110.963          22.000  
G 3  23889581.831 9                     -1694.585          22.000  
G 6  23194090.857 9                      1151.325          20.000  
> 2021  5 21  6 32 32.0050000  0 11                     
G17  23309322.218 9                       813.083          24.000  
G14  21800679.278 9                      -445.114          21.000  
E 1  26767824.835 9                      1783.110          17.000  
G28  22092822.919 9                      1162.429          22.000  
G19  23600926.210 9                      1583.562          13.000  
E13  27001090.115 9                     -1507.924          18.000  
E21  25245656.477 9                      -776.959          20.000  
J 3  41289653.439 9                       523.475          23.000  
E26  25262617.059 9                      -105.926          23.000  
G 3  23889904.852 9                     -1694.101          22.000  
G 6  23193871.089 9                      1152.840          21.000  
> 2021  5 21  6 32 33.0050000  0 11                     
G17  23309163.229 9                       823.265          24.000  
G14  21800765.221 9                      -443.930          22.000  
E 1  26767482.986 9                      1795.046          18.000  
G28  22092602.610 9                      1170.101          23.000  
G19  23600626.014 9                      1583.562          14.000  
E13  27001377.712 9                     -1518.857          18.000  
E21  25245803.373 9                      -783.845          21.000  
J 3  41289552.803 9                       526.876          23.000  
E26  25262641.000 9                      -111.618          24.000  
G 3  23890227.315 9                     -1688.628          23.000  
G 6  23193650.378 9                      1154.666          22.000  
> 2021  5 21  6 32 34.0050000  0 11                     
G17  23309006.822 9                       821.186          23.000  
G14  21800849.366 9                      -437.686          21.000  
E 1  26767141.101 9                      1794.032          18.000  
G28  22092382.423 9                      1163.039          22.000  
G19  23600326.010 9                      1583.562          14.000  
E13  27001665.361 9                     -1508.550          18.000  
E21  25245954.055 9                      -779.440          20.000  
J 3  41289452.133 9                       523.475          22.000  
E26  25262661.068 9                      -110.927          22.000  
G 3  23890548.940 9                     -1696.119          22.000  
G 6  23193431.116 9                      1142.806          21.000  
> 2021  5 21  6 32 35.0050000  0 11                     
G17  23308850.277 9                       818.424          22.000  
G14  21800933.336 9                      -440.236          20.000  
E 1  26766797.401 9                      1789.991          17.000  
G28  22092161.608 9                      1158.845          21.000  
G19  23600023.685 9                      1583.276          14.000  
E13  27001954.965 9                     -1512.431          17.000  
E21  25246103.638 9                      -798.806          18.000  
J 3  41289351.358 9                       522.656          21.000  
E26  25262681.555 9                      -111.873          21.000  
G 3  23890869.762 9                     -1690.713          21.000  
G 6  23193211.156 9                      1144.643          20.000  
> 2021  5 21  6 32 36.0050000  0 11                     
G17  23308695.284 9                       819.113          21.000  
G14  21801016.103 9                      -441.484          20.000  
E 1  26766456.040 9                      1806.127          16.000  
G28  22091941.421 9                      1150.942          21.000  
G19  23599722.355 9                      1583.276          13.000  
E13  27002243.260 9                     -1521.305          17.000  
E21  25246253.990 9                      -790.921          18.000  
J 3  41289252.014 9                       513.265          22.000  
E26  25262702.844 9                      -118.016          21.000  
G 3  23891190.829 9                     -1697.848          21.000  
G 6  23192991.964 9                      1151.389          20.000  
> 2021  5 21  6 32 37.0050000  0 11                     
G17  23308537.848 9                       822.968          23.000  
G14  21801100.387 9                      -446.416          21.000  
E 1  26766115.918 9                      1796.355          18.000  
G28  22091721.828 9                      1161.231          23.000  
G19  23599420.640 9                      1583.276          11.000  
E13  27002529.618 9                     -1512.692          20.000  
E21  25246404.096 9                      -784.752          20.000  
J 3  41289152.879 9                       530.421          22.000  
E26  25262723.086 9                      -112.103          23.000  
G 3  23891511.494 9                     -1699.606          23.000  
G 6  23192774.028 9                      1149.407          22.000  
> 2021  5 21  6 32 38.0050000  0 11                     
G17  23308378.999 9                       824.684          25.000  
G14  21801184.358 9                      -448.101          23.000  
E 1  26765776.442 9                      1792.353          20.000  
G28  22091500.786 9                      1160.583          25.000  
G19  23599118.926 9                      1583.276          11.000  
E13  27002818.297 9                     -1506.761          20.000  
E21  25246554.447 9                      -781.100          21.000  
J 3  41289055.734 9                       534.588          24.000  
E26  25262743.730 9                      -111.354          25.000  
G 3  23891833.642 9                     -1694.569          24.000  
G 6  23192556.686 9                      1149.931          23.000  
> 2021  5 21  6 32 39.0050000  0 11                     
G17  23308219.608 9                       822.718          25.000  
G14  21801266.670 9                      -445.899          23.000  
E 1  26765435.761 9                      1786.119          21.000  
G28  22091282.012 9                      1156.938          25.000  
G19  23598817.124 9                      1583.276          12.000  
E13  27003105.371 9                     -1503.658          20.000  
E21  25246703.769 9                      -787.504          21.000  
J 3  41288954.435 9                       526.604          24.000  
E26  25262763.274 9                      -111.172          25.000  
G 3  23892154.936 9                     -1695.290          25.000  
G 6  23192337.668 9                      1159.589          24.000  
> 2021  5 21  6 32 40.0050000  0 11                     
G17  23308063.359 9                       818.776          23.000  
G14  21801350.641 9                      -442.900          21.000  
E 1  26765095.621 9                      1794.692          19.000  
G28  22091061.564 9                      1156.712          23.000  
G19  23598514.939 9                      1583.276          11.000  
E13  27003394.818 9                     -1519.445          20.000  
E21  25246852.043 9                      -779.388          20.000  
J 3  41288854.062 9                       523.907          22.000  
E26  25262784.389 9                      -110.780          23.000  
G 3  23892478.969 9                     -1695.856          23.000  
G 6  23192118.336 9                      1153.129          22.000  
> 2021  5 21  6 32 41.0050000  0 10                     
G17  23307908.279 9                       820.028          22.000  
G14  21801437.316 9                      -448.648          21.000  
E 1  26764753.196 9                      1789.670          18.000  
G28  22090841.045 9                      1166.503          22.000  
E13  27003683.793 9                     -1519.445          18.000  
E21  25246999.986 9                      -779.290          19.000  
J 3  41288754.299 9                       529.023          22.000  
E26  25262806.237 9                      -111.502          22.000  
G 3  23892801.955 9                     -1705.595          23.000  
G 6  23191898.638 9                      1145.958          22.000  
> 2021  5 21  6 32 42.0050000  0 10                     
G17  23307751.524 9                       813.304          22.000  
G14  21801523.520 9                      -450.449          21.000  
E 1  26764413.457 9                      1792.203          18.000  
G28  22090620.492 9                      1159.969          22.000  
E13  27003970.361 9                     -1505.100          18.000  
E21  25247146.516 9                      -787.963          19.000  
J 3  41288655.199 9                       525.227          22.000  
E26  25262826.810 9                      -105.337          22.000  
G 3  23893127.052 9                     -1696.119          23.000  
G 6  23191679.847 9                      1150.455          22.000  
> 2021  5 21  6 32 43.0050000  0 11                     
G17  23307595.711 9                       821.297          23.000  
G14  21801607.386 9                      -452.939          21.000  
E 1  26764071.276 9                      1792.203          16.000  
G28  22090401.614 9                      1158.111          23.000  
G19  23597609.081 9                      1585.416          13.000  
E13  27004256.719 9                     -1500.841          20.000  
E21  25247297.984 9                      -794.236          19.000  
J 3  41288555.454 9                       523.979          22.000  
E26  25262846.896 9                      -103.682          23.000  
G 3  23893448.363 9                     -1700.852          24.000  
G 6  23191462.924 9                      1142.505          23.000  
> 2021  5 21  6 32 44.0050000  0 11                     
G17  23307437.647 9                       821.868          23.000  
G14  21801694.445 9                      -432.933          21.000  
E 1  26763730.910 9                      1789.758          15.000  
G28  22090180.363 9                      1156.489          23.000  
G19  23597305.604 9                      1595.885          19.000  
E13  27004544.386 9                     -1501.951          21.000  
E21  25247450.534 9                      -796.347          20.000  
J 3  41288456.162 9                       529.754          22.000  
E26  25262870.296 9                      -111.817          22.000  
G 3  23893771.157 9                     -1694.670          24.000  
G 6  23191243.696 9                      1147.065          22.000  
> 2021  5 21  6 32 45.0050000  0 11                     
G17  23307280.804 9                       833.727          22.000  
G14  21801780.684 9                      -452.543          20.000  
E 1  26763390.072 9                      1796.736          15.000  
G28  22089959.425 9                      1161.463          21.000  
G19  23597003.454 9                      1595.352          21.000  
E13  27004829.592 9                     -1514.416          19.000  
E21  25247601.443 9                      -789.921          19.000  
J 3  41288355.474 9                       530.746          21.000  
E26  25262888.445 9                       -98.738          20.000  
G 3  23894091.700 9                     -1690.167          22.000  
G 6  23191025.796 9                      1142.264          21.000  
> 2021  5 21  6 32 46.0050000  0 11                     
G17  23307124.258 9                       835.781          21.000  
G14  21801868.947 9                      -446.214          19.000  
E 1  26763047.350 9                      1811.419          17.000  
G28  22089738.209 9                      1158.300          20.000  
G19  23596699.698 9                      1594.847          21.000  
E13  27005115.147 9                     -1502.419          19.000  
E21  25247750.887 9                      -789.921          18.000  
J 3  41288255.816 9                       532.438          21.000  
E26  25262907.238 9                      -101.997          20.000  
G 3  23894412.261 9                     -1692.991          21.000  
G 6  23190809.413 9                      1151.367          20.000  
> 2021  5 21  6 32 47.0050000  0 11                     
G17  23306964.466 9                       839.781          21.000  
G14  21801955.413 9                      -457.351          20.000  
E 1  26762705.901 9                      1799.413          19.000  
G28  22089520.151 9                      1152.125          21.000  
G19  23596396.465 9                      1595.765          21.000  
E13  27005400.912 9                     -1490.136          18.000  
E21  25247903.402 9                      -790.090          18.000  
J 3  41288154.448 9                       527.854          20.000  
E26  25262929.330 9                      -100.724          20.000  
G 3  23894731.844 9                     -1686.060          20.000  
G 6  23190590.901 9                      1140.334          21.000  
> 2021  5 21  6 32 48.0050000  0 11                     
G17  23306803.383 9                       843.626          20.000  
G14  21802042.716 9                      -456.261          19.000  
E 1  26762363.319 9                      1799.702          18.000  
G28  22089301.221 9                      1152.750          19.000  
G19  23596093.355 9                      1602.076          20.000  
E13  27005685.752 9                     -1490.136          17.000  
E21  25248055.166 9                      -795.793          18.000  
J 3  41288054.650 9                       531.114          18.000  
E26  25262950.166 9                      -101.699          19.000  
G 3  23895051.916 9                     -1687.459          19.000  
G 6  23190373.123 9                      1143.850          20.000  
> 2021  5 21  6 32 49.0050000  0 11                     
G17  23306642.266 9                       840.147          19.000  
G14  21802128.327 9                      -453.730          19.000  
E 1  26762020.143 9                      1805.923          18.000  
G28  22089081.278 9                      1169.245          19.000  
G19  23595788.098 9                      1602.638          19.000  
E13  27005970.487 9                     -1496.236          16.000  
E21  25248207.402 9                      -793.590          18.000  
J 3  41287949.128 9                       556.160          17.000  
E26  25262968.017 9                      -102.388          18.000  
G 3  23895374.204 9                     -1686.346          17.000  
G 6  23190153.145 9                      1155.284          19.000  
> 2021  5 21  6 32 50.0050000  0 11                     
G17  23306482.771 9                       844.173          23.000  
G14  21802215.648 9                      -457.139          24.000  
E 1  26761675.291 9                      1809.958          21.000  
G28  22088859.172 9                      1157.806          21.000  
G19  23595479.875 9                      1608.919          22.000  
E13  27006254.664 9                     -1488.314          19.000  
E21  25248360.231 9                      -801.593          20.000  
J 3  41287847.847 9                       534.861          22.000  
E26  25262987.387 9                       -97.226          20.000  
G 3  23895695.358 9                     -1686.346          14.000  
G 6  23189935.384 9                      1153.087          23.000  
> 2021  5 21  6 32 51.0050000  0 12                     
G17  23306323.956 8 122475558.03233       843.730          31.000  
G14  21802305.900 9 114571890.77334      -458.226          31.000  
E 1  26761330.301 9                      1811.390          26.000  
G28  22088637.536 9                      1160.816          25.000  
G19  23595173.292 9 123993472.16135      1611.471          26.000  
E13  27006539.801 9                     -1489.330          21.000  
E21  25248510.879 9                      -795.821          25.000  
J 3  41287747.020 9 216968574.80435       534.809          26.000  
E26  25263004.471 9                       -92.389          25.000  
G 3  23896017.629 9                     -1686.346          15.000  
J 2  37544075.498 9                       308.878          22.000  
G 6  23189716.698 9 121862783.11234      1153.637          27.000  
> 2021  5 21  6 32 52.0050000  0 13                     
G17  23306166.381 8 122474713.93224       841.541          24.000  
G14  21802394.181 8 114572349.86023      -460.638          30.000  
E 1  26760982.169 9 140629939.24214      1811.061          23.000  
G28  22088416.442 9 116075413.43835      1158.902          27.000  
G19  23594863.551 9 123991860.38425      1611.938          27.000  
E13  27006824.082 9                     -1491.455          20.000  
E21  25248659.659 9 132682612.17015      -798.468          26.000  
J 3  41287640.800 8 216968040.62025       532.929          26.000  
E26  25263028.413 9                       -91.826          26.000  
G 3  23896339.027 9                     -1690.698          16.000  
G22  26466701.917 9                     -2929.333          19.000  
J 2  37544017.389 9                       308.878          24.000  
G 6  23189498.989 8 121861628.95624      1154.385          29.000  
> 2021  5 21  6 32 53.0050000  0 13                     
G17  23306001.337 8 122473863.64434       842.406          32.000  
G14  21802480.158 8 114572811.35022      -462.161          32.000  
E 1  26760641.558 9 140628130.53315      1810.918          31.000  
G28  22088199.170 8 116074269.71735      1158.498          28.000  
G19  23594559.341 8 123990248.50924      1613.311          29.000  
E13  27007106.200 9                     -1491.455          17.000  
E21  25248812.314 8 132683414.49115      -798.798          27.000  
J 3  41287545.871 9                       531.250          28.000  
E26  25263041.937 9 132758191.63415       -92.550          28.000  
G 3  23896664.194 9                     -1702.186          33.000  
G22  26467258.753 9                     -2923.893          18.000  
J 2  37543957.919 9                       308.878          25.000  
G 6  23189277.039 8 121860475.19423      1153.706          25.000  
> 2021  5 21  6 32 54.0050000  0 12                     
G17  23305841.667 4 122473020.66322       842.615          33.000  
G14  21802569.434 4 114573274.34022      -463.655          32.000  
E 1  26760289.029 8 140626318.704 3      1812.430          30.000  
G28  22087974.899 8 116073111.66123      1157.106          29.000  
G19  23594249.181 8 123988635.45224      1613.446          30.000  
E21  25248965.020 8 132684213.668 4      -799.158          28.000  
J 3  41287443.979 9 216966986.98933       528.736          30.000  
E26  25263061.324 8 132758283.688 3       -91.021          30.000  
G 3  23896989.396 9 125579519.97335     -1704.592          31.000  
G22  26467816.794 9                     -2923.893          14.000  
J 2  37543898.291 9                       308.878          26.000  
G 6  23189055.718 9                      1146.943          24.000  
> 2021  5 21  6 32 55.0050000  0 12                     
G17  23305678.298 4 122472177.88822       841.926          33.000  
G14  21802659.861 4 114573737.97122      -463.312          34.000  
E 1  26759951.786 8 140624505.544 2      1813.988          31.000  
G28  22087757.382 8 116071953.69023      1157.599          31.000  
G19  23593945.076 8 123987021.01923      1615.256          32.000  
E21  25249118.600 4 132685012.612 3      -798.199          29.000  
J 3  41287344.635 8 216966457.69822       529.510          32.000  
E26  25263079.524 8 132758374.500 2       -90.017          31.000  
G 3  23897319.659 8 125581225.91224     -1708.363          25.000  
G22  26468372.601 9                     -2923.893          11.000  
J 2  37543839.379 9                       308.878          28.000  
G 6  23188839.667 9                      1151.937          21.000  
> 2021  5 21  6 32 56.0050000  0 11                     
G17  23305520.374 8 122471336.56523       839.172          28.000  
G14  21802745.943 4 114574202.13521      -465.313          34.000  
E 1  26759606.760 8 140622691.530 2      1813.423          32.000  
G28  22087538.208 4 116070796.06422      1156.747          32.000  
G19  23593640.413 8 123985406.18123      1613.422          32.000  
E21  25249269.509 4 132685810.982 2      -799.171          31.000  
J 3  41287240.667 4 216965930.24922       526.456          32.000  
E26  25263094.636 4 132758464.396 2       -90.025          32.000  
G 3  23897647.776 9                     -1705.707          21.000  
J 2  37543784.690 9 197293919.50534       301.649          31.000  
G 6  23188621.976 9                      1151.937          17.000  
> 2021  5 21  6 32 57.0050000  0 14                     
G17  23305360.111 8 122470493.34935       837.705          33.000  
G14  21802836.928 4 114574668.36321      -466.769          35.000  
E 1  26759258.611 8 140620878.675 3      1811.258          28.000  
G28  22087317.707 4 116069640.31322      1155.697          33.000  
G19  23593333.167 8                      1615.136          27.000  
E13  27008245.542 9                     -1509.452          17.000  
E21  25249420.506 8 132686610.328 2      -798.887          32.000  
J 3  41287143.399 4 216965406.12422       522.369          33.000  
E26  25263113.343 4 132758554.868 2       -89.658          32.000  
G 3  23897973.135 9                     -1705.707          18.000  
G30  25348602.878 9                     -2527.216          19.000  
J 1  39013600.983 9                       130.076          25.000  
J 2  37543731.869 8 197293617.76422       302.104          34.000  
G 6  23188404.982 9                      1159.114          17.000  
> 2021  5 21  6 32 58.0050000  0 13                     
G17  23305200.965 9                       837.621          18.000  
G14  21802925.191 4                      -466.371          32.000  
E 1  26758918.140 9                      1817.099          33.000  
G28  22087097.520 8 116068488.09924      1140.538          21.000  
G19  23593026.060 9                      1615.675          31.000  
E13  27008533.767 9                     -1509.452          16.000  
E21  25249570.560 9                      -800.667          28.000  
J 3  41287044.509 8 216964883.53423       521.020          32.000  
E26  25263124.057 9                       -89.765          27.000  
G30  25349094.660 9                     -2527.216          19.000  
J 1  39013573.882 9                       130.076          24.000  
J 2  37543671.822 8 197293316.61222       300.426          34.000  
G 6  23188182.405 9                      1166.291          26.000  
> 2021  5 21  6 32 59.0050000  0 12                     
G17  23305042.744 9                       839.185          27.000  
G14  21803014.257 9                      -469.045          36.000  
E 1  26758567.931 9 140617233.66614      1815.521          34.000  
G28  22086876.879 9                      1154.709          34.000  
G19  23592715.115 9 123980554.63133      1616.558          35.000  
E13  27008821.574 9                     -1509.452          15.000  
E21  25249725.152 9                      -799.347          34.000  
J 3  41286945.566 9                       519.035          29.000  
E26  25263145.015 9 132758733.37514       -88.131          34.000  
G30  25349578.135 9                     -2527.216          18.000  
J 1  39013546.992 9                       130.076          25.000  
G 6  23187955.709 9 121853529.06834      1163.924          35.000  
> 2021  5 21  6 33  0.0050000  0 13                     
G17  23304882.132 9                       880.396          25.000  
G14  21803102.712 8 114576077.53133      -469.877          36.000  
E 1  26758221.352 8 140615417.763 2      1816.629          35.000  
G28  22086662.032 8 116066166.59432      1153.275          34.000  
G19  23592410.486 8 123978938.60722      1616.949          37.000  
E13  27009110.340 9                     -1509.452          12.000  
E21  25249874.020 9 132689011.25514      -798.770          34.000  
J 3  41286844.250 9 216963830.59635       518.810          29.000  
E26  25263160.214 8 132758821.522 3       -87.622          34.000  
G30  25350061.192 9                     -2527.216          18.000  
J 1  39013522.771 9                       130.076          22.000  
J 2  37543560.769 9 197292742.60335       300.630          34.000  
G 6  23187730.723 8 121852363.59323      1164.865          38.000  
> 2021  5 21  6 33  1.0050000  0 13                     
G17  23304725.359 9                       836.670          35.000  
G14  21803192.127 4 114576547.49422      -470.062          36.000  
E 1  26757878.072 8 140613601.116 2      1817.739          36.000  
G28  22086435.581 8 116065012.57522      1154.521          34.000  
G19  23592103.188 4 123977321.83422      1617.307          36.000  
E13  27009399.612 9                     -1509.452          12.000  
E21  25250026.064 8 132689811.233 3      -800.407          33.000  
J 3  41286744.993 8 216963312.02624       518.699          35.000  
E26  25263176.495 8 132758908.810 3       -84.733          34.000  
G30  25350547.617 9                     -2527.216          18.000  
J 1  39013497.154 9                       130.076          25.000  
J 2  37543499.781 8 197292443.36023       299.258          35.000  
G 6  23187508.495 8 121851196.84323      1166.841          35.000  
> 2021  5 21  6 33  2.0050000  0 12                     
G17  23304563.875 9 122466319.80333       839.521          39.000  
G14  21803283.619 8 114577017.72322      -470.162          36.000  
E 1  26757532.784 4 140611782.097 2      1819.824          35.000  
G28  22086216.755 4 116063857.83922      1155.195          35.000  
G19  23591795.017 4 123975702.22322      1620.167          37.000  
E21  25250181.213 8                      -799.295          33.000  
J 3  41286651.338 8 216962793.23022       517.443          34.000  
E26  25263195.184 4 132758993.849 2       -83.958          35.000  
G30  25351027.987 9                     -2527.216          16.000  
J 1  39013475.620 9                       118.152          26.000  
J 2  37543447.797 8 197292144.89722       297.935          35.000  
G 6  23187287.715 8 121850028.00323      1169.788          37.000  
> 2021  5 21  6 33  3.0050000  0 12                     
G17  23304407.503 9                       834.427          27.000  
G14  21803372.702 4 114577489.28022      -472.704          36.000  
E 1  26757187.933 4 140609961.641 2      1821.302          35.000  
G28  22085998.383 4 116062703.41122      1154.015          34.000  
G19  23591484.805 4 123974080.85022      1622.080          34.000  
E21  25250332.978 8 132691408.55813      -801.477          35.000  
J 3  41286552.849 8 216962274.97023       520.386          31.000  
E26  25263211.448 4 132759077.697 2       -83.576          34.000  
G30  25351511.183 9                     -2527.216          15.000  
J 1  39013452.970 9                       114.537          26.000  
J 2  37543391.816 8 197291848.23423       296.574          34.000  
G 6  23187068.906 8                      1169.974          30.000  
> 2021  5 21  6 33  4.0050000  0 14                     
G17  23304246.944 9                       839.263          41.000  
G14  21803463.705 4 114577962.53721      -473.531          39.000  
E 1  26756842.768 4 140608141.211 2      1820.556          38.000  
G28  22085780.185 2 116061549.90921      1153.358          38.000  
G19  23591174.871 8 123972459.15924      1621.612          34.000  
E13  27010268.266 9                     -1509.452          11.000  
E21  25250486.906 8 132692210.524 3      -802.242          37.000  
J 3  41286451.132 4 216961757.80622       516.580          40.000  
E26  25263228.183 4 132759161.530 2       -84.014          36.000  
G 3  23900394.388 9                     -1674.418          20.000  
G30  25351992.548 9                     -2527.216          13.000  
J 1  39013431.366 9 205016965.00335       112.955          29.000  
J 2  37543332.677 8 197291553.59123       294.634          33.000  
G 6  23186847.027 9                      1169.154          31.000  
> 2021  5 21  6 33  5.0050000  0 14                     
G17  23304087.309 9                       813.391          30.000  
G14  21803553.643 2 114578436.57621      -473.536          37.000  
E 1  26756496.608 4 140606320.359 2      1821.384          35.000  
G28  22085560.644 4 116060396.76921      1154.077          36.000  
G19  23590868.271 9                      1623.223          35.000  
E13  27010558.760 9                     -1509.452          13.000  
E21  25250643.819 8 132693013.188 2      -802.531          34.000  
J 3  41286352.486 8 216961246.19035       518.135          31.000  
E26  25263243.452 4 132759244.769 2       -82.489          34.000  
G 3  23900720.113 9                     -1674.418          20.000  
G30  25352473.999 9                     -2527.216          11.000  
J 1  39013410.199 8 205016852.37124       112.603          29.000  
J 2  37543273.975 8 197291259.73425       295.104          29.000  
G 6  23186622.530 9                      1164.093          26.000  
> 2021  5 21  6 33  6.0050000  0 13                     
G17  23303928.547 9                       841.347          33.000  
G14  21803642.343 4 114578910.47722      -474.087          37.000  
E 1  26756150.413 8 140604499.197 3      1820.604          34.000  
G28  22085341.138 4 116059243.30722      1153.762          36.000  
G19  23590559.699 8 123969225.83734      1624.496          39.000  
E13  27010847.352 9                     -1513.417          13.000  
E21  25250793.437 8 132693815.411 3      -801.303          34.000  
J 3  41286254.311 8 216960728.15324       516.525          32.000  
E26  25263258.965 8 132759327.477 3       -82.705          33.000  
G 3  23901043.937 9                     -1674.418          20.000  
J 1  39013390.114 8 205016739.11223       113.964          29.000  
J 2  37543219.356 8 197290965.29424       294.973          28.000  
G 6  23186399.272 9                      1167.193          26.000  
> 2021  5 21  6 33  7.0050000  0 14                     
G17  23303767.150 9                       839.858          17.000  
G14  21803732.944 8 114579383.729 4      -470.578          31.000  
E 1  26755806.469 9                      1794.592          21.000  
G28  22085122.644 8 116058094.037 5      1122.266          18.000  
G19  23590254.791 9                      1606.073          21.000  
E13  27011134.635 9                     -1501.774          20.000  
E21  25250946.179 9                      -801.205          21.000  
J 3  41286152.105 9                       529.626          26.000  
E26  25263275.194 9                       -90.635          19.000  
G 3  23901365.108 9                     -1674.418          18.000  
E27  27944785.152 9                     -2711.615          25.000  
J 1  39013368.598 8 205016625.29424       113.448          29.000  
J 2  37543164.143 9                       296.423          29.000  
G 6  23186177.846 9                      1140.774          23.000  
> 2021  5 21  6 33  8.0050000  0 12                     
G17  23303605.369 9                       839.858          10.000  
G14  21803822.185 9                      -471.657          22.000  
E 1  26755464.637 9                      1794.592          17.000  
G28  22084909.838 9                      1120.052          11.000  
G19  23589949.587 9                      1606.073          18.000  
E13  27011420.487 9                     -1501.774          15.000  
E21  25251100.316 9                      -801.205          16.000  
J 3  41286050.946 9                       540.800          22.000  
E26  25263285.524 9                       -90.635          14.000  
G 3  23901684.290 9                     -1674.418          15.000  
J 2  37543109.227 9                       299.486          18.000  
G 6  23185961.306 9                      1140.774          19.000  
> 2021  5 21  6 33  9.0050000  0  7                     
G14  21803911.704 9                      -471.657          18.000  
E 1  26755123.485 9                      1794.592          11.000  
G19  23589646.634 9                      1606.073          11.000  
J 3  41285948.705 9                       540.800          18.000  
G 3  23902003.437 9                     -1674.418          11.000  
J 2  37543053.928 9                       299.486          14.000  
G 6  23185742.864 9                      1140.774          11.000  
> 2021  5 21  6 33 10.0050000  0  8                     
G14  21804000.875 9                      -471.657          23.000  
E 1  26754762.615 9                      1820.163          35.000  
G28  22084479.027 9                      1161.827          27.000  
G19  23589326.649 9                      1622.807          39.000  
E26  25263320.093 9                       -81.232          36.000  
G 3  23902321.136 9                     -1674.418          13.000  
J 2  37542997.651 9                       299.486          11.000  
G 6  23185520.234 9                      1157.710          28.000  
> 2021  5 21  6 33 11.0050000  0 10                     
G17  23303125.244 9 122458748.73434       843.435          36.000  
G14  21804089.383 9 114581262.60735      -471.058          35.000  
E 1  26754413.436 9 140595417.42714      1819.439          33.000  
G28  22084245.735 9 116053494.07734      1154.717          36.000  
G19  23589015.477 9                      1622.149          35.000  
E21  25251553.813 9 132697820.73115      -799.870          33.000  
J 3  41285747.330 9                       526.359          22.000  
E26  25263337.840 9 132759735.37813       -82.347          36.000  
G 3  23902636.671 9                     -1727.396          26.000  
G 6  23185302.875 9                      1153.609          26.000  
> 2021  5 21  6 33 12.0050000  0 12                     
G17  23302968.611 8                       839.453          34.000  
G14  21804180.281 8 114581732.93822      -469.788          36.000  
E 1  26754066.107 8 140593599.324 3      1816.623          34.000  
G28  22084022.233 8 116052338.71623      1156.206          36.000  
G19  23588704.566 9 123959490.64833      1622.340          40.000  
E13  27012585.882 9                     -1498.927          18.000  
E21  25251708.422 9 132698619.603 4      -798.369          34.000  
J 3  41285654.756 9 216957579.18435       526.719          37.000  
E26  25263349.252 8 132759817.937 2       -83.078          36.000  
G 3  23902943.760 9                     -1716.047          29.000  
J 1  39013253.793 9 205016032.26435       124.769          32.000  
G 6  23185074.207 9                      1168.790          32.000  
> 2021  5 21  6 33 13.0050000  0 13                     
G17  23302809.465 9                       840.884          29.000  
G14  21804269.102 8 114582203.33222      -471.079          35.000  
E 1  26753725.792 9                      1819.559          29.000  
G28  22083802.168 8 116051184.27623      1152.956          32.000  
G19  23588397.617 9                      1614.425          28.000  
E13  27012883.653 9                     -1512.616          23.000  
E21  25251860.553 8 132699418.745 2      -799.609          35.000  
J 3  41285559.234 8 216957051.82022       526.375          38.000  
E26  25263365.865 8 132759901.990 2       -84.579          36.000  
G 3  23903285.505 9                     -1726.611          34.000  
J 1  39013229.851 9 205015906.36225       127.306          32.000  
J 2  37542823.742 9 197288869.39835       304.963          34.000  
G 6  23184843.253 9 121837172.82635      1160.941          31.000  
> 2021  5 21  6 33 14.0050000  0 13                     
G17  23302653.565 9                       831.342          22.000  
G14  21804358.988 4 114582674.08622      -471.007          35.000  
E 1  26753375.846 9                      1814.696          34.000  
G28  22083580.690 8 116050031.19323      1148.977          29.000  
G19  23588087.195 9                      1619.794          32.000  
E13  27013179.539 9                     -1514.655          25.000  
E21  25252009.508 4 132700218.336 2      -799.104          35.000  
J 3  41285458.511 8 216956523.95823       528.526          37.000  
E26  25263382.146 9                       -80.410          22.000  
G 3  23903620.270 9                     -1733.012          28.000  
J 1  39013212.331 8 205015778.37123       129.695          31.000  
J 2  37542763.661 8 197288564.73323       305.761          36.000  
G 6  23184621.252 9                      1154.053          24.000  
> 2021  5 21  6 33 15.0050000  0 12                     
G17  23302486.723 9 122455393.68435       842.048          41.000  
G14  21804450.916 9                      -468.586          19.000  
E 1  26753037.311 9 140588170.45313      1811.501          36.000  
G28  22083362.248 9                      1153.643          36.000  
G19  23587780.438 9 123954617.43035      1617.676          33.000  
E13  27013472.057 9                     -1504.935          25.000  
E21  25252164.500 9                      -798.764          26.000  
J 3  41285359.446 9                       533.101          22.000  
E26  25263399.893 9 132760072.74315       -87.025          37.000  
J 1  39013183.102 8 205015647.88423       133.388          34.000  
J 2  37542705.831 4 197288258.32922       306.981          36.000  
G 6  23184394.573 9                      1160.403          37.000  
> 2021  5 21  6 33 16.0050000  0 14                     
G17  23302323.878 9 122454553.28924       836.950          35.000  
G14  21804538.307 9 114583621.30434      -471.344          36.000  
E 1  26752691.309 8 140586360.437 2      1809.555          35.000  
G28  22083143.597 9 116047702.00333      1150.402          35.000  
G19  23587472.843 8 123953002.17224      1614.318          32.000  
E13  27013761.695 9                     -1520.908          23.000  
E21  25252313.717 9 132701814.05615      -799.941          35.000  
J 3  41285255.390 8 216955480.90733       529.180          40.000  
E26  25263415.912 8 132760161.244 3       -90.010          35.000  
G 3  23904274.094 9                     -1686.052          26.000  
E 7  28907651.905 9                      1983.553          25.000  
J 1  39013159.160 9                       135.883          21.000  
J 2  37542652.485 9                       306.977          32.000  
G 6  23184177.981 9 121833655.07535      1159.663          36.000  
> 2021  5 21  6 33 17.0050000  0 12                     
G17  23302167.890 9                       838.424          26.000  
G14  21804629.467 8 114584094.01123      -474.410          36.000  
E 1  26752345.428 8 140584554.390 2      1803.524          35.000  
G28  22082924.388 8 116046552.76022      1148.517          34.000  
G19  23587167.813 8 123951390.42522      1609.411          39.000  
E13  27014055.260 9                     -1489.658          20.000  
E21  25252468.082 9 132702615.951 5      -803.961          35.000  
J 3  41285154.406 8 216954952.41623       527.276          35.000  
E26  25263437.620 8 132760252.979 2       -93.866          35.000  
E 7  28907271.351 9                      1987.335          25.000  
J 2  37542592.526 9 197287654.99834       307.420          32.000  
G 6  23183956.486 8 121832498.77823      1156.062          37.000  
> 2021  5 21  6 33 18.0050000  0 12                     
G17  23302008.011 9                       835.301          27.000  
G14  21804719.004 8 114584567.18322      -473.461          36.000  
E 1  26752001.484 4 140582752.189 2      1800.492          35.000  
G28  22082706.016 4 116045405.48522      1146.990          35.000  
G19  23586861.631 4 123949782.25822      1606.942          37.000  
E13  27014343.486 9                     -1503.125          19.000  
E21  25252621.312 8 132703418.444 3      -801.643          33.000  
J 3  41285045.290 9                       527.906          27.000  
E26  25263446.799 8 132760347.836 2       -95.812          35.000  
J 1  39013107.054 9 205015261.01135       138.657          34.000  
J 2  37542531.433 9                       313.574          35.000  
G 6  23183738.375 4 121831345.45622      1151.232          41.000  
> 2021  5 21  6 33 19.0050000  0 12                     
G17  23301853.664 9                       835.780          32.000  
G14  21804810.042 4 114585040.58522      -473.084          38.000  
E 1  26751661.397 4 140580953.512 2      1797.397          37.000  
G28  22082488.516 4 116044259.75222      1145.262          39.000  
G19  23586556.043 4 123948177.41922      1603.599          40.000  
E13  27014634.433 9                     -1507.004          21.000  
E21  25252769.360 8 132704221.096 2      -803.004          37.000  
J 3  41284948.651 9 216953868.50335       533.140          31.000  
E26  25263470.305 8 132760445.483 2       -99.106          37.000  
J 1  39013080.669 8 205015121.24523       140.309          33.000  
J 2  37542472.766 9                       312.731          30.000  
G 6  23183517.909 4 121830194.77522      1150.549          43.000  
> 2021  5 21  6 33 20.0050000  0 12                     
G17  23301686.910 9 122451234.68835       834.811          35.000  
G14  21804899.282 4 114585513.75122      -473.718          38.000  
E 1  26751321.327 4 140579157.903 2      1793.420          37.000  
G28  22082271.383 4 116043115.11321      1143.980          38.000  
G19  23586250.560 8 123946575.28423      1600.731          38.000  
E13  27014926.079 9                     -1500.661          24.000  
E21  25252928.366 4 132705023.657 1      -803.199          37.000  
J 3  41284854.210 8 216953373.02733       528.509          38.000  
E26  25263487.859 8 132760545.294 1      -101.481          38.000  
J 1  39013053.395 8 205014977.60623       146.236          34.000  
J 2  37542411.393 9 197286702.63535       314.704          38.000  
G 6  23183300.462 4 121829046.58922      1146.263          41.000  
> 2021  5 21  6 33 21.0050000  0 13                     
G17  23301525.408 9                       831.270          38.000  
G14  21804989.517 4 114585987.34922      -474.110          39.000  
E 1  26750979.809 4 140577366.393 2      1789.598          37.000  
G28  22082054.581 4 116041972.43621      1141.783          38.000  
G19  23585944.849 9 123944976.23534      1595.559          39.000  
E13  27015217.864 9                     -1513.076          24.000  
E21  25253083.464 4 132705826.927 2      -803.028          34.000  
J 3  41284751.987 4 216952843.20122       529.861          38.000  
E26  25263512.604 4 132760648.552 1      -105.305          38.000  
E 7  28905756.672 9                      2004.211          23.000  
J 1  39013024.410 8 205014830.60323       149.747          33.000  
J 2  37542351.033 8 197286386.67722       317.227          38.000  
G 6  23183081.252 4 121827901.48222      1144.083          41.000  
> 2021  5 21  6 33 22.0050000  0 13                     
G17  23301369.490 8 122449522.67634       830.216          36.000  
G14  21805080.136 4 114586460.60021      -472.587          40.000  
E 1  26750638.797 4 140575577.518 2      1788.247          35.000  
G28  22081837.815 4 116040830.63521      1142.732          38.000  
G19  23585641.966 8 123943380.46323      1595.547          36.000  
E13  27015511.237 9                     -1498.646          23.000  
E21  25253235.665 8 132706629.847 3      -802.392          34.000  
J 3  41284650.199 4 216952312.53221       531.510          39.000  
E26  25263531.171 4 132760753.619 1      -105.071          36.000  
E 7  28905376.519 9                      2007.604          23.000  
J 1  39012995.425 8 205014680.13724       151.510          33.000  
J 2  37542292.243 4 197286068.13122       320.233          40.000  
G 6  23182864.591 2 121826758.37521      1143.131          41.000  
> 2021  5 21  6 33 23.0050000  0 13                     
G17  23301213.573 8 122448692.46222       832.182          37.000  
G14  21805168.923 2 114586933.69721      -472.853          36.000  
E 1  26750297.924 4 140573788.394 2      1788.908          35.000  
G28  22081619.303 4 116039688.67422      1141.328          36.000  
G19  23585338.245 4 123941784.19922      1596.486          37.000  
E13  27015798.659 9                     -1520.121          20.000  
E21  25253381.985 8 132707432.470 2      -802.396          37.000  
J 3  41284548.814 4 216951781.15522       530.986          35.000  
E26  25263552.966 4 132760858.237 1      -104.331          36.000  
E 7  28904994.080 9                      2007.850          29.000  
J 1  39012963.613 8 205014528.74023       150.984          32.000  
J 2  37542232.319 9                       317.425          29.000  
G 6  23182646.253 4 121825615.04822      1142.454          36.000  
> 2021  5 21  6 33 24.0050000  0 12                     
G17  23301056.643 4 122447862.20022       829.010          35.000  
G14  21805259.332 2 114587407.79521      -475.074          36.000  
E 1  26749957.435 2 140571999.321 2      1788.771          35.000  
G28  22081402.537 4 116038547.22222      1140.643          35.000  
G19  23585034.454 4 123940187.54122      1595.359          37.000  
E13  27016087.495 9                     -1505.149          20.000  
E21  25253538.845 4 132708235.844 1      -803.930          36.000  
J 3  41284447.114 8 216951249.83823       529.970          33.000  
E26  25263570.975 4 132760962.739 1      -104.629          36.000  
E 7  28904615.515 9                      2006.540          27.000  
J 2  37542169.219 9 197285430.11735       318.210          34.000  
G 6  23182428.353 4 121824471.90522      1141.996          38.000  
> 2021  5 21  6 33 25.0050000  0 13                     
G17  23300899.661 9                       830.174          27.000  
G14  21805350.108 2 114587883.24411      -476.963          37.000  
E 1  26749617.156 4 140570210.801 2      1788.495          36.000  
G28  22081185.787 2 116037406.56012      1139.694          36.000  
G19  23584730.785 4 123938590.92322      1596.426          37.000  
E13  27016375.982 9                     -1507.516          18.000  
E21  25253691.447 4 132709040.825 1      -805.903          36.000  
J 3  41284348.712 8 216950719.67823       529.394          33.000  
E26  25263591.427 2 132761067.652 2      -105.078          36.000  
E 7  28904227.195 9                      2002.150          27.000  
J 1  39012913.933 9                       140.918          34.000  
J 2  37542110.953 9 197285123.94725       315.688          32.000  
G 6  23182211.883 4 121823328.97412      1142.781          36.000  
> 2021  5 21  6 33 26.0050000  0 13                     
G17  23300740.323 9                       829.573          26.000  
G14  21805440.902 2 114588360.484 1      -477.396          36.000  
E 1  26749277.139 4 140568423.390 2      1785.301          35.000  
G28  22080968.829 2 116036267.671 1      1137.984          36.000  
G19  23584427.815 2 123936995.10821      1594.007          39.000  
E13  27016663.160 9                     -1503.481          17.000  
E21  25253847.783 4 132709847.052 1      -806.466          37.000  
J 3  41284244.499 8 216950189.64823       531.288          31.000  
E26  25263611.861 2 132761173.488 1      -107.059          36.000  
E 7  28903846.833 9 151890745.40815      2005.600          27.000  
J 1  39012876.973 9 205014052.15134       150.536          32.000  
J 2  37542049.144 8 197284808.24723       316.857          36.000  
G 6  23181993.947 4 121822188.025 2      1140.039          38.000  
> 2021  5 21  6 33 27.0050000  0 14                     
G17  23300586.639 9                       833.328          23.000  
G14  21805531.940 2 114588838.563 1      -477.942          36.000  
E 1  26748937.697 2 140566638.376 2      1784.214          34.000  
G28  22080752.307 2 116035130.246 2      1137.240          36.000  
G19  23584124.722 4 123935401.37922      1593.397          39.000  
E13  27016950.705 9                     -1501.382          18.000  
E21  25253999.530 4 132710654.185 1      -807.921          37.000  
J 3  41284146.167 8 216949659.95924       529.808          28.000  
E26  25263632.365 2 132761281.233 1      -107.971          36.000  
G 3  23907899.430 9                     -1725.901          26.000  
E 7  28903466.191 8 151888740.153 5      2005.204          27.000  
J 1  39012854.410 9 205013903.13524       149.346          32.000  
J 2  37541988.470 4 197284492.18722       316.104          38.000  
G 6  23181777.110 4 121821049.163 1      1137.929          39.000  
> 2021  5 21  6 33 28.0050000  0 13                     
G17  23300430.320 9                       827.533          22.000  
G14  21805623.030 2 114589317.798 1      -479.550          34.000  
E 1  26748598.639 2 140564854.170 2      1783.340          32.000  
G28  22080536.029 2 116033993.746 1      1135.956          35.000  
G19  23583821.699 4 123933808.00522      1593.200          35.000  
E13  27017237.971 9                     -1514.248          18.000  
E21  25254154.227 2 132711462.205 1      -807.975          35.000  
J 3  41284046.841 4 216949130.53722       529.192          33.000  
E26  25263653.113 2 132761389.459 1      -108.133          33.000  
E 7  28903078.220 8 151886735.313 5      2004.866          26.000  
J 1  39012826.175 9 205013785.08135       150.150          31.000  
J 2  37541931.181 4 197284176.66222       315.242          36.000  
G 6  23181562.141 4 121819911.103 1      1137.217          39.000  
> 2021  5 21  6 33 29.0050000  0 13                     
G17  23300275.850 9                       831.707          22.000  
G14  21805714.068 2 114589797.160 1      -479.911          35.000  
E 1  26748259.616 4 140563071.052 2      1781.955          34.000  
G28  22080320.134 2 116032857.792 2      1135.328          35.000  
G19  23583518.571 2 123932215.47721      1591.034          37.000  
E13  27017526.527 9                     -1497.400          19.000  
E21  25254307.701 2 132712270.333 1      -808.189          37.000  
J 3  41283945.089 4 216948600.52522       530.017          38.000  
E26  25263674.088 2 132761498.462 1      -110.039          36.000  
E 7  28902695.398 8 151884728.650 5      2008.101          26.000  
J 1  39012792.043 8 205013635.16124       150.967          29.000  
J 2  37541868.447 4 197283860.28821       316.739          35.000  
G 6  23181344.467 2 121818773.919 1      1135.979          40.000  
> 2021  5 21  6 33 30.0050000  0 12                     
G17  23300119.845 9                       829.249          23.000  
G14  21805805.123 2 114590276.895 1      -480.219          35.000  
E 1  26747920.122 4 140561290.562 2      1778.544          33.000  
G28  22080104.136 2 116031723.142 1      1133.788          36.000  
G19  23583215.688 4 123930625.22922      1588.649          36.000  
E13  27017814.404 9                     -1511.866          18.000  
E21  25254461.089 2 132713078.884 1      -808.908          37.000  
J 3  41283843.616 4 216948070.27921       529.605          36.000  
E26  25263695.273 2 132761609.454 1      -111.980          36.000  
E 7  28902317.286 8                      2011.058          26.000  
J 2  37541810.792 4 197283542.45721       318.065          38.000  
G 6  23181128.399 2 121817638.881 1      1134.094          40.000  
> 2021  5 21  6 33 31.0050000  0 12                     
G17  23299964.032 9                       816.880          24.000  
G14  21805896.579 2 114590756.498 1      -479.500          36.000  
E 1  26747581.326 2 140559511.780 2      1777.775          33.000  
G28  22079888.486 2 116030589.137 1      1133.405          35.000  
G19  23582913.799 2 123929036.614 1      1587.814          38.000  
E13  27018101.338 9                     -1506.250          19.000  
E21  25254615.017 1 132713887.250 1      -809.008          37.000  
J 3  41283739.630 4 216947538.97411       529.835          36.000  
E26  25263716.335 2 132761721.583 1      -112.871          35.000  
E 7  28901933.957 8 151880707.009 5      2013.986          27.000  
J 2  37541749.541 4 197283222.92721       320.476          38.000  
G 6  23180912.923 2 121816504.956 1      1132.989          40.000  
> 2021  5 21  6 33 32.0050000  0 13                     
G17  23299805.881 9                       822.984          24.000  
G14  21805988.263 2 114591236.517 1      -480.240          35.000  
E 1  26747243.316 4 140557734.669 2      1776.539          32.000  
G28  22079672.644 4 116029456.113 2      1132.024          34.000  
G19  23582611.195 2 123927449.379 1      1585.646          36.000  
E13  27018389.842 9                     -1512.909          19.000  
E21  25254769.015 2 132714695.910 1      -808.971          34.000  
J 3  41283640.408 4 216947008.100 2       530.422          33.000  
E26  25263737.816 2 132761835.042 1      -114.320          34.000  
E 7  28901551.850 8                      2014.329          27.000  
J 1  39012720.759 9                       153.954          28.000  
J 2  37541687.122 2 197282902.46621       320.705          36.000  
G 6  23180696.575 2 121815372.323 1      1131.878          38.000  
> 2021  5 21  6 33 33.0050000  0 13                     
G17  23299647.206 9                       822.551          23.000  
G14  21806079.824 4 114591717.310 2      -481.385          34.000  
E 1  26746905.322 4 140555959.210 2      1774.548          32.000  
G28  22079456.994 2 116028324.149 1      1131.184          33.000  
G19  23582309.341 2 123925863.498 1      1584.750          35.000  
E13  27018678.800 9                     -1509.547          19.000  
E21  25254922.874 2 132715505.259 1      -809.760          34.000  
J 3  41283541.779 4 216946477.394 2       530.981          34.000  
E26  25263759.682 2 132761949.589 1      -115.196          34.000  
E 7  28901167.683 8 151876678.363 5      2015.034          26.000  
J 1  39012677.761 9                       155.974          28.000  
J 2  37541625.435 2 197282581.77221       320.083          36.000  
G 6  23180481.676 2 121814241.094 1      1130.615          37.000  
> 2021  5 21  6 33 34.0050000  0 13                     
G17  23299488.444 9                       821.253          26.000  
G14  21806171.333 2 114592198.703 1      -482.375          35.000  
E 1  26746567.975 4 140554185.613 2      1772.428          32.000  
G28  22079242.060 2 116027193.313 1      1130.701          35.000  
G19  23582007.539 4 123924279.159 2      1582.441          34.000  
E13  27018964.164 9                     -1510.283          20.000  
E21  25255077.169 2 132716315.053 1      -809.416          35.000  
J 3  41283440.603 2 216945946.815 1       531.123          35.000  
E26  25263781.494 2 132762065.554 1      -116.320          34.000  
E 7  28900782.714 8 151874662.071 5      2017.990          26.000  
J 1  39012646.386 9 205012839.64435       158.519          28.000  
J 2  37541564.325 2 197282260.34421       322.916          37.000  
G 6  23180266.864 1 121813111.163 1      1129.768          38.000  
> 2021  5 21  6 33 35.0050000  0 13                     
G17  23299331.043 9 122438815.39935       820.993          27.000  
G14  21806262.842 4 114592680.428 2      -481.748          34.000  
E 1  26746231.255 2 140552413.688 1      1771.109          33.000  
G28  22079027.178 2 116026063.390 1      1129.195          35.000  
G19  23581706.069 2 123922696.254 1      1581.823          36.000  
E13  27019254.762 9                     -1507.664          19.000  
E21  25255230.992 2 132717125.136 1      -809.990          34.000  
J 3  41283338.885 4 216945416.064 1       530.754          32.000  
E26  25263804.127 2 132762182.736 1      -117.701          34.000  
G 3  23910553.817 9                     -1729.557          21.000  
E 7  28900400.380 8                      2018.422          25.000  
J 2  37541503.197 2 197281937.96521       322.849          37.000  
G 6  23180051.964 2 121811982.553 1      1127.969          34.000  
> 2021  5 21  6 33 36.0050000  0 13                     
G17  23299167.430 8 122437994.53024       821.044          28.000  
G14  21806354.473 4 114593162.503 2      -481.632          34.000  
E 1  26745894.257 2 140550643.144 1      1770.320          33.000  
G28  22078812.191 2 116024934.218 1      1129.211          35.000  
G19  23581405.297 2 123921114.519 1      1581.289          37.000  
E13  27019544.034 9                     -1514.266          21.000  
E21  25255385.235 2 132717935.471 1      -809.996          34.000  
J 3  41283237.709 2 216944885.097 1       531.065          35.000  
E26  25263826.341 2 132762300.950 2      -118.865          34.000  
G 3  23910884.726 9                     -1729.557          21.000  
E 7  28900014.643 8                      2019.639          25.000  
J 2  37541441.266 2 197281614.74921       323.794          37.000  
G 6  23179837.048 4 121810854.992 2      1127.363          34.000  
> 2021  5 21  6 33 37.0050000  0 13                     
G17  23299005.108 8 122437173.68023       820.833          27.000  
G14  21806446.279 4 114593644.978 2      -482.843          34.000  
E 1  26745557.799 2 140548873.274 1      1769.389          33.000  
G28  22078597.222 2 116023805.571 1      1128.302          35.000  
G19  23581104.595 1 123919533.107 1      1581.470          37.000  
E13  27019832.137 9                     -1499.209          23.000  
E21  25255539.617 1 132718746.037 1      -810.908          35.000  
J 3  41283136.655 2 216944353.903 1       530.951          36.000  
E26  25263848.573 2 132762419.359 2      -118.353          34.000  
G 3  23911214.953 9                     -1729.557          21.000  
G22  26492135.854 9                     -2948.891          14.000  
E 7  28899630.232 8 151868604.103 5      2020.643          24.000  
G 6  23179622.689 2 121809727.983 1      1126.883          34.000  
> 2021  5 21  6 33 38.0050000  0 15                     
G17  23298849.190 4 122436352.62223       821.193          27.000  
G14  21806538.381 2 114594127.855 1      -482.366          34.000  
E 1  26745221.167 2 140547103.526 1      1770.092          33.000  
G28  22078382.497 2 116022677.254 2      1127.996          34.000  
G19  23580803.753 1 123917951.541 1      1581.625          38.000  
E13  27020121.392 9                     -1505.882          23.000  
E21  25255693.755 2 132719556.858 1      -811.158          35.000  
J 3  41283035.426 2 216943822.389 1       531.594          36.000  
E26  25263870.892 2 132762537.789 1      -118.378          34.000  
G 3  23911547.241 9                     -1729.557          22.000  
G22  26492699.059 9                     -2948.891          15.000  
E 7  28899246.903 9                      2020.528          23.000  
J 1  39012518.301 9                       161.652          26.000  
J 2  37541318.259 9                       324.805          35.000  
G 6  23179408.453 2 121808601.121 1      1127.006          34.000  
> 2021  5 21  6 33 39.0050000  0 14                     
G17  23298694.337 4 122435531.02623       822.244          27.000  
G14  21806630.169 2 114594610.829 1      -483.132          34.000  
E 1  26744884.674 2 140545333.651 1      1770.268          33.000  
G28  22078167.650 4 116021548.845 2      1128.575          35.000  
G19  23580503.121 1 123916369.438 1      1582.667          37.000  
E13  27020410.124 9                     -1509.319          23.000  
E21  25255848.172 2 132720367.539 1      -810.322          35.000  
J 3  41282934.005 2 216943290.200 1       532.718          36.000  
E26  25263893.385 2 132762655.752 2      -117.089          33.000  
G 3  23911879.772 9                     -1729.557          22.000  
G22  26493261.323 9                     -2948.891          15.000  
E 7  28898860.817 9                      2020.853          23.000  
J 2  37541247.464 9                       326.416          35.000  
G 6  23179193.763 4 121807474.123 2      1127.698          34.000  
> 2021  5 21  6 33 40.0050000  0 14                     
G17  23298533.237 4 122434708.78524       822.265          27.000  
G14  21806722.027 2 114595093.753 2      -483.316          34.000  
E 1  26744547.781 2 140543563.477 2      1769.693          32.000  
G28  22077953.030 4 116020420.328 2      1128.032          34.000  
G19  23580202.035 1 123914786.710 1      1582.618          37.000  
E13  27020697.406 9                     -1506.392          24.000  
E21  25256002.379 2 132721178.062 1      -811.230          35.000  
J 3  41282832.585 2 216942757.314 1       532.431          35.000  
E26  25263915.460 2 132762773.239 1      -118.144          33.000  
G 3  23912212.722 9                     -1729.557          23.000  
G22  26493823.115 9                     -2948.891          15.000  
E 7  28898473.370 9                      2022.442          23.000  
J 2  37541187.766 9 197280272.93733       324.502          35.000  
G 6  23178979.143 4 121806346.901 2      1126.338          34.000  
> 2021  5 21  6 33 41.0050000  0 15                     
G17  23298377.895 4 122433887.11823       820.846          27.000  
G14  21806814.007 2 114595577.799 1      -484.852          34.000  
E 1  26744211.236 2 140541794.210 2      1768.754          33.000  
G28  22077738.619 2 116019292.840 1      1126.917          35.000  
G19  23579901.019 1 123913204.582 1      1581.040          37.000  
E13  27020984.934 9                     -1505.858          24.000  
E21  25256156.971 1 132721989.524 1      -812.144          35.000  
J 3  41282731.042 2 216942224.793 1       532.693          36.000  
E26  25263937.796 2 132762891.358 1      -118.863          33.000  
G 3  23912544.660 9                     -1729.557          23.000  
G22  26494384.785 9                     -2948.891          16.000  
E 7  28898088.941 9                      2019.953          23.000  
J 2  37541125.731 9 197279949.06222       322.928          36.000  
J 1  39012425.134 9                       162.104          25.000  
G 6  23178764.679 4 121805220.547 2      1125.373          34.000  
> 2021  5 21  6 33 42.0050000  0 15                     
G17  23298224.734 4 122433066.05723       821.131          27.000  
G14  21806906.424 2 114596063.159 2      -486.292          34.000  
E 1  26743874.656 2 140540025.954 2      1767.960          32.000  
G28  22077524.330 2 116018166.483 1      1126.191          35.000  
G19  23579600.177 1 123911623.084 1      1581.018          38.000  
E13  27021270.681 9                     -1515.205          25.000  
E21  25256311.667 1 132722802.109 1      -813.077          35.000  
J 3  41282629.726 1 216941692.874 1       531.557          36.000  
E26  25263960.778 2 132763010.255 1      -119.362          33.000  
G 3  23912878.395 9                     -1729.557          24.000  
G22  26494947.223 9                     -2948.891          15.000  
E 7  28897703.326 9                      2020.145          23.000  
J 2  37541067.133 4 197279625.93021       323.103          36.000  
J 1  39012392.625 9                       162.104          26.000  
G 6  23178550.408 4 121804095.233 2      1124.859          34.000  
> 2021  5 21  6 33 43.0050000  0 14                     
G17  23298070.649 2 122432244.55712       820.922          29.000  
G14  21806998.840 4 114596549.140 2      -486.651          35.000  
E 1  26743538.128 2 140538258.063 1      1767.785          34.000  
G28  22077310.146 2 116017040.667 1      1125.382          36.000  
G19  23579299.335 1 123910041.595 1      1581.330          39.000  
E13  27021555.713 9                     -1508.594          26.000  
E21  25256466.590 2 132723615.151 1      -813.502          35.000  
J 3  41282528.340 2 216941160.860 1       531.804          36.000  
E26  25263983.097 2 132763129.252 1      -118.778          34.000  
G 3  23913210.211 9                     -1729.557          24.000  
G22  26495509.347 9                     -2948.891          15.000  
E 7  28897320.189 9                      2020.581          25.000  
J 2  37541008.361 2 197279302.98921       322.711          37.000  
G 6  23178336.119 2 121802970.307 2      1124.497          34.000  
> 2021  5 21  6 33 44.0050000  0 14                     
G17  23297914.539 2 122431423.008 2       821.930          29.000  
G14  21807091.658 2 114597035.782 1      -486.799          35.000  
E 1  26743201.479 2 140536489.767 2      1768.867          34.000  
G28  22077095.980 2 116015915.091 1      1124.964          35.000  
G19  23578998.301 1 123908459.386 1      1582.609          38.000  
E13  27021843.450 9                     -1502.301          25.000  
E21  25256621.077 1 132724428.614 1      -813.788          36.000  
J 3  41282427.181 2 216940628.650 1       532.086          37.000  
E26  25264005.922 2 132763247.794 1      -118.062          34.000  
G 3  23913539.567 9                     -1729.557          23.000  
G22  26496071.157 9                     -2948.891          15.000  
E 7  28896938.518 9                      2018.586          25.000  
J 2  37540948.681 2 197278980.66021       321.801          37.000  
G 6  23178122.476 2 121801845.268 1      1125.078          35.000  
> 2021  5 21  6 33 45.0050000  0 14                     
G17  23297763.839 4 122430600.695 2       822.396          30.000  
G14  21807184.510 2 114597523.091 1      -487.104          35.000  
E 1  26742864.829 2 140534720.735 2      1769.575          34.000  
G28  22076881.587 4 116014789.526 2      1125.500          35.000  
G19  23578696.831 1 123906875.996 1      1584.494          40.000  
E13  27022131.413 9                     -1496.577          23.000  
E21  25256775.773 2 132725242.528 1      -813.804          36.000  
J 3  41282325.970 2 216940096.274 1       532.486          37.000  
E26  25264028.083 2 132763365.483 1      -117.074          35.000  
G 3  23913870.109 9                     -1728.185          22.000  
E 7  28896556.533 9                      2017.595          26.000  
J 2  37540888.897 2 197278659.08121       321.148          39.000  
J 1  39012312.755 9                       157.964          28.000  
G 6  23177908.415 2 121800719.814 1      1125.177          39.000  
> 2021  5 21  6 33 46.0050000  0 13                     
G17  23297601.953 8 122429777.617 3       821.991          34.000  
G14  21807277.276 2 114598011.177 1      -488.247          34.000  
E 1  26742527.796 2 140532950.758 1      1770.159          36.000  
G28  22076667.315 4 116013664.007 2      1125.894          36.000  
G19  23578395.536 2 123905291.130 1      1585.548          36.000  
E13  27022414.700 9                     -1507.928          23.000  
E21  25256931.219 2 132726056.979 1      -813.774          35.000  
J 3  41282224.724 2 216939563.701 1       532.891          37.000  
E26  25264050.106 2 132763482.121 1      -116.016          37.000  
G 3  23914198.470 9                     -1736.711          22.000  
E 7  28896173.117 9                      2017.330          27.000  
J 2  37540828.083 2 197278338.67221       320.344          39.000  
G 6  23177694.457 2 121799593.786 1      1125.565          38.000  
> 2021  5 21  6 33 47.0050000  0 13                     
G17  23297446.908 4 122428953.992 3       822.615          30.000  
G14  21807370.285 4 114598499.098 2      -487.902          34.000  
E 1  26742190.919 2 140531180.751 2      1768.986          32.000  
G28  22076453.027 4 116012538.447 2      1124.938          33.000  
G19  23578094.258 2 123903706.132 2      1583.305          34.000  
E13  27022700.028 9                     -1507.928          19.000  
E21  25257085.898 2 132726871.166 2      -814.268          33.000  
J 3  41282123.373 2 216939030.272 1       533.475          35.000  
E26  25264072.564 2 132763598.626 1      -117.659          33.000  
G 3  23914528.366 9                     -1734.296          21.000  
E 7  28895788.043 9                      2022.663          26.000  
J 2  37540766.763 2 197278017.21421       322.114          36.000  
G 6  23177480.431 2 121798467.706 1      1125.233          38.000  
> 2021  5 21  6 33 48.0050000  0 14                     
G17  23297292.962 4 122428131.233 2       823.156          31.000  
G14  21807462.963 4 114598987.071 2      -488.873          34.000  
E 1  26741854.427 4 140529412.717 2      1767.378          32.000  
G28  22076238.878 4 116011413.659 2      1124.629          32.000  
G19  23577792.317 4 123902122.680 2      1582.936          33.000  
E13  27022987.311 9                     -1507.928          17.000  
E21  25257241.013 2 132727685.261 1      -815.049          34.000  
J 3  41282021.935 2 216938496.456 1       533.191          36.000  
E26  25264095.057 2 132763716.358 2      -117.746          33.000  
G 3  23914858.664 9                     -1732.118          21.000  
E 7  28895403.772 9                      2021.641          25.000  
J 1  39012223.497 9                       161.175          26.000  
J 2  37540705.582 2 197277694.29621       322.174          36.000  
G 6  23177266.665 2 121797342.941 1      1123.748          37.000  
> 2021  5 21  6 33 49.0050000  0 14                     
G17  23297134.253 8 122427308.683 3       824.618          31.000  
G14  21807556.147 4 114599476.280 2      -489.335          34.000  
E 1  26741517.812 4 140527645.065 2      1767.638          32.000  
G28  22076025.165 4 116010289.780 2      1124.173          32.000  
G19  23577490.463 4 123900539.285 2      1583.972          33.000  
E13  27023273.181 9                     -1507.939          15.000  
E21  25257396.460 2 132728500.433 2      -815.538          33.000  
J 3  41281920.340 2 216937963.206 1       533.180          33.000  
E26  25264117.394 2 132763834.389 2      -116.974          33.000  
G 3  23915190.148 9                     -1740.524          18.000  
E 7  28895018.506 9                      2017.970          25.000  
J 1  39012192.558 9                       158.428          27.000  
J 2  37540644.105 2 197277372.57321       319.613          34.000  
G 6  23177052.534 2 121796218.737 1      1124.600          36.000  
> 2021  5 21  6 33 50.0050000  0 15                     
G17  23296981.755 8 122426484.547 4       825.469          31.000  
G14  21807649.716 2 114599966.565 2      -491.147          34.000  
E 1  26741181.058 4 140525874.989 2      1772.270          31.000  
G28  22075811.260 4 116009165.512 2      1124.730          33.000  
G19  23577188.155 2 123898952.998 1      1588.799          34.000  
E13  27023559.591 9                     -1507.939          14.000  
E21  25257551.644 2 132729316.297 2      -816.268          33.000  
J 3  41281818.779 4 216937429.725 2       534.385          33.000  
E26  25264139.486 2 132763950.277 2      -113.288          33.000  
G 3  23915520.533 9                     -1733.504          17.000  
E 7  28894634.339 9                      2012.105          24.000  
J 1  39012156.541 9                       154.730          27.000  
J 2  37540583.239 4 197277052.88522       317.051          34.000  
E33  28401477.261 9 149250780.43615      1286.303          27.000  
G 6  23176838.210 2 121795093.120 1      1126.827          36.000  
> 2021  5 21  6 33 51.0050000  0 15                     
G17  23296823.726 8 122425657.350 3       828.487          30.000  
G14  21807743.476 2 114600458.258 1      -492.688          37.000  
E 1  26740843.204 4 140524100.656 2      1775.926          32.000  
G28  22075597.216 4 116008040.254 2      1125.825          36.000  
G19  23576885.010 4 123897361.695 2      1593.042          34.000  
E13  27023847.956 9                     -1507.939          11.000  
E21  25257706.742 2 132730133.191 1      -817.873          33.000  
J 3  41281717.533 2 216936896.200 1       533.690          36.000  
E26  25264160.949 2 132764062.431 1      -109.999          36.000  
G 3  23915848.876 9                     -1735.024          17.000  
E 7  28894252.912 9                      2006.846          25.000  
J 1  39012128.743 9 205010113.99135       148.949          27.000  
J 2  37540523.280 4 197276736.99022       313.169          36.000  
E33  28401230.864 9 149249492.775 4      1288.796          27.000  
G 6  23176623.485 4 121793964.666 2      1129.617          39.000  
> 2021  5 21  6 33 52.0050000  0 14                     
G17  23296667.093 8 122424827.983 5       830.972          28.000  
G14  21807838.475 4 114600952.010 2      -494.217          31.000  
E 1  26740503.919 4 140522322.675 3      1779.587          27.000  
G28  22075380.833 8 116006914.790 3      1125.256          31.000  
G19  23576579.544 4 123895766.290 2      1597.399          33.000  
E13  27024136.530 9                     -1507.939          12.000  
E21  25257862.468 4 132730951.600 2      -818.743          31.000  
J 3  41281617.439 9                       509.392          25.000  
E26  25264180.877 4 132764171.611 2      -108.015          32.000  
G 3  23916178.650 9                     -1728.059          17.000  
E 7  28893870.787 9                      2000.845          25.000  
J 1  39012104.155 8 205009967.80025       143.457          27.000  
J 2  37540464.228 4 197276425.46722       308.980          33.000  
G 6  23176408.411 4 121792834.163 2      1131.481          35.000  
> 2021  5 21  6 33 53.0050000  0 14                     
G17  23296511.315 9                       836.874          25.000  
G14  21807929.059 4 114601447.228 2      -495.704          31.000  
E 1  26740164.827 4 140520541.277 3      1783.078          29.000  
G28  22075169.197 8 116005788.631 3      1126.695          32.000  
G19  23576276.783 4 123894166.694 2      1600.547          34.000  
E13  27024423.255 9                     -1507.939          11.000  
E21  25258012.068 4 132731771.077 2      -820.456          31.000  
J 3  41281517.030 9                       534.188          24.000  
E26  25264194.960 4 132764277.712 2      -104.819          32.000  
G 3  23916510.170 9                     -1731.689          17.000  
E 7  28893491.053 9                      2003.292          23.000  
J 1  39012078.765 8 205009826.01024       139.368          26.000  
J 2  37540405.421 4 197276117.21322       306.555          34.000  
G 6  23176192.884 4 121791701.322 2      1134.346          34.000  
> 2021  5 21  6 33 54.0050000  0 13                     
G17  23296359.358 9                       833.195          22.000  
G14  21808023.709 8 114601944.135 2      -496.953          32.000  
E 1  26739821.598 8 140518757.007 3      1784.836          30.000  
G28  22074955.222 8 116004662.301 3      1127.569          32.000  
G19  23575974.493 8 123892563.621 3      1605.013          31.000  
E21  25258170.778 8 132732591.810 2      -820.644          31.000  
J 3  41281413.830 9                       528.337          21.000  
E26  25264215.935 8 132764381.346 2      -102.222          32.000  
G 3  23916841.235 9                     -1731.689          16.000  
E 7  28893110.307 9                      1997.190          22.000  
J 1  39012050.182 9                       134.056          26.000  
J 2  37540346.038 4 197275812.36022       303.879          34.000  
G 6  23175984.563 9                      1066.885          24.000  
> 2021  5 21  6 33 55.0050000  0 13                     
G17  23296204.680 9                       831.048          20.000  
G14  21808117.120 4 114602441.608 2      -497.306          33.000  
E 1  26739486.031 8 140516969.700 3      1789.302          31.000  
G28  22074738.752 4 116003535.185 2      1127.745          33.000  
G19  23575667.578 8 123890957.218 3      1608.637          33.000  
E21  25258327.778 8 132733412.580 2      -820.040          32.000  
J 3  41281314.852 9                       536.258          21.000  
E26  25264236.125 8 132764482.268 2       -98.925          32.000  
G 3  23917170.940 9                     -1729.458          18.000  
E 7  28892732.946 9                      1992.081          22.000  
J 1  39012027.793 9                       133.175          26.000  
J 2  37540287.946 4 197275509.10021       304.073          35.000  
G 6  23175778.092 9                      1066.885          20.000  
> 2021  5 21  6 33 56.0050000  0 12                     
G17  23296057.452 9                       847.822          21.000  
G14  21808215.120 4 114602938.847 2      -497.431          36.000  
E 1  26739140.586 8 140515180.637 2      1788.151          35.000  
G28  22074524.603 4 116002407.161 2      1127.757          37.000  
G19  23575364.486 4 123889348.684 2      1607.926          39.000  
E21  25258486.941 4 132734232.777 2      -820.390          37.000  
J 3  41281212.367 9 216934234.66834       532.927          36.000  
E26  25264259.822 4 132764581.314 1       -99.239          36.000  
G 3  23917500.627 9                     -1727.483          20.000  
E 7  28892353.386 9                      1990.610          25.000  
J 1  39011997.447 8 205009454.76035       135.262          31.000  
J 2  37540230.151 4 197275205.73921       303.517          37.000  
> 2021  5 21  6 33 57.0050000  0 13                     
G17  23295905.496 9                       845.118          30.000  
G14  21808308.932 4 114603436.451 2      -497.870          37.000  
E 1  26738801.895 8 140513392.608 2      1787.667          36.000  
G28  22074308.883 4 116001279.866 2      1126.494          37.000  
G19  23575052.423 8 123887741.133 2      1606.153          35.000  
E13  27025574.550 9                     -1495.958          13.000  
E21  25258641.986 4 132735053.091 1      -820.789          37.000  
J 3  41281107.020 8 216933701.42623       532.439          35.000  
E26  25264275.946 4 132764681.087 1      -100.023          37.000  
G 3  23917827.417 9                     -1739.703          28.000  
E 7  28891975.345 9                      1991.416          26.000  
J 1  39011975.617 8 205009319.41323       135.967          31.000  
J 2  37540173.228 4 197274901.51321       304.657          39.000  
> 2021  5 21  6 33 58.0050000  0 13                     
G17  23295742.668 9                       833.313          28.000  
G14  21808404.420 4 114603935.087 2      -499.247          30.000  
E 1  26738464.425 8 140511606.615 3      1785.814          31.000  
G28  22074094.438 4 116000154.070 2      1124.795          30.000  
G19  23574748.458 8 123886135.375 3      1605.189          30.000  
E13  27025861.711 9                     -1521.361          14.000  
E21  25258797.642 4 132735874.153 2      -821.508          31.000  
J 3  41281008.444 9                       529.661          25.000  
E26  25264290.430 4 132764782.524 2      -102.922          29.000  
G 3  23918157.889 9                     -1741.066          24.000  
E 7  28891597.652 9                      1993.186          24.000  
J 1  39011950.628 8 205009183.74225       136.780          29.000  
J 2  37540119.080 4 197274597.16922       305.219          33.000  
> 2021  5 21  6 33 59.0050000  0 13                     
G17  23295558.899 8 122419120.17033       833.721          35.000  
G14  21808493.835 8 114604434.639 3      -499.976          31.000  
E 1  26738120.586 8 140509822.770 3      1782.785          31.000  
G28  22073880.795 4 115999029.639 2      1123.649          31.000  
G19  23574441.840 4 123884531.578 2      1603.538          31.000  
E13  27026150.861 9                     -1521.361          13.000  
E21  25258955.514 8 132736696.151 2      -823.432          32.000  
J 3  41280906.255 9                       529.661          21.000  
E26  25264314.651 8 132764885.461 2      -103.824          31.000  
G 3  23918488.501 9                     -1741.066          18.000  
E 7  28891217.377 9                      1990.849          22.000  
J 1  39011923.022 8 205009047.56725       136.329          27.000  
J 2  37540058.074 4 197274292.57822       304.159          33.000  
> 2021  5 21  6 34  0.0050000  0 14                     
G17  23295394.798 8 122418287.59322       832.525          35.000  
G14  21808596.076 8 114604935.601 3      -501.491          31.000  
E 1  26737784.827 8 140508040.436 3      1781.345          31.000  
G28  22073668.652 4 115997906.660 2      1122.203          32.000  
G19  23574141.539 4 123882928.789 2      1603.155          34.000  
E13  27026441.879 9                     -1521.361          12.000  
E21  25259109.862 8 132737519.331 2      -823.499          32.000  
J 3  41280808.412 9                       529.661          14.000  
E26  25264334.422 8 132764989.653 2      -104.177          32.000  
G 3  23918816.059 9                     -1732.565          17.000  
E 7  28890838.201 9                      1990.174          21.000  
J 1  39011895.451 8 205008911.81825       135.451          27.000  
J 2  37539997.313 4 197273988.70522       303.887          33.000  
G 6  23174679.845 9                      1130.992          16.000  
> 2021  5 21  6 34  1.0050000  0 14                     
G17  23295240.642 8 122417454.93024       833.246          26.000  
G14  21808692.244 8 114605436.733 3      -500.405          31.000  
E 1  26737442.226 8 140506258.547 4      1783.269          30.000  
G28  22073456.720 8 115996783.925 3      1122.898          32.000  
G19  23573839.476 8                      1605.403          29.000  
E13  27026731.500 9                     -1521.361          11.000  
E21  25259268.606 8 132738342.917 3      -823.933          32.000  
J 3  41280708.440 9                       539.967          14.000  
E26  25264353.547 8 132765094.145 2      -104.961          31.000  
G 3  23919141.854 9                     -1732.080          16.000  
E 7  28890457.665 9                      2006.465          21.000  
J 1  39011864.895 8 205008774.87425       137.060          26.000  
J 2  37539941.071 8 197273684.450 2       304.349          33.000  
G 6  23174466.446 9                      1130.992          15.000  
> 2021  5 21  6 34  2.0050000  0 14                     
G17  23295084.480 9                       836.924          24.000  
G14  21808783.212 4 114605938.632 2      -502.455          32.000  
E 1  26737106.310 8 140504478.251 5      1779.036          31.000  
G28  22073241.855 8 115995661.637 3      1121.921          32.000  
G19  23573532.509 9                      1604.263          27.000  
E13  27026875.133 9                     -1496.524          32.000  
E21  25259424.332 8 132739168.406 3      -827.036          32.000  
J 3  41280607.909 9                       534.990          19.000  
E26  25264372.586 8 132765199.490 2      -106.173          32.000  
G 3  23919466.237 9                     -1722.001          17.000  
E 7  28890078.087 9                      2007.296          21.000  
J 1  39011845.875 8                       141.237          26.000  
J 2  37539882.106 8 197273381.180 3       301.598          33.000  
G 6  23174254.583 9                      1130.992          15.000  
> 2021  5 21  6 34  3.0050000  0 14                     
G17  23294928.615 9                       824.810          21.000  
G14  21808881.317 4 114606441.388 2      -503.272          34.000  
E 1  26736774.092 8 140502701.938 3      1773.510          35.000  
G28  22073028.823 4 115994540.812 2      1120.187          33.000  
G19  23573226.415 9                      1592.447          25.000  
E13  27027159.658 9 142028689.56615     -1489.291          31.000  
E21  25259579.046 8 132739996.510 2      -829.256          32.000  
J 3  41280504.150 9                       542.420          29.000  
E26  25264397.714 8 132765308.120 2      -111.256          32.000  
G 3  23919790.497 9                     -1722.001          17.000  
E 7  28889697.446 9                      2002.081          19.000  
J 1  39011817.326 9                       145.938          26.000  
J 2  37539823.229 8 197273102.13934       302.634          30.000  
G 6  23174042.947 9                      1130.992          16.000  
> 2021  5 21  6 34  4.0050000  0 14                     
G17  23294774.477 9                       824.810          17.000  
G14  21808978.654 4 114606944.823 1      -503.785          35.000  
E 1  26736431.388 8 140500932.119 2      1767.191          34.000  
G28  22072815.965 4 115993422.562 2      1117.028          33.000  
G19  23572925.853 9                      1598.047          23.000  
E13  27027441.043 8 142030178.321 3     -1486.937          34.000  
E21  25259740.146 8 132740827.151 2      -831.234          32.000  
J 3  41280395.575 9 216929942.20633       545.340          34.000  
E26  25264417.380 4 132765422.008 1      -116.080          35.000  
G 3  23920116.013 9                     -1725.517          17.000  
E 7  28889314.588 9                      2010.314          21.000  
J 1  39011786.439 9                       152.369          27.000  
J 2  37539767.825 8 197272797.62723       306.502          32.000  
G 6  23173828.693 9                      1130.992          17.000  
> 2021  5 21  6 34  5.0050000  0 14                     
G17  23294617.286 9                       834.355          28.000  
G14  21809073.357 4 114607447.718 1      -502.661          35.000  
E 1  26736099.013 4 140499168.410 2      1759.930          34.000  
G28  22072602.060 4 115992306.037 2      1115.855          33.000  
G19  23572633.526 9                      1587.949          20.000  
E13  27027721.398 8 142031665.564 2     -1486.766          35.000  
E21  25259894.685 8 132741658.085 2      -830.976          31.000  
J 3  41280290.210 4 216929395.99422       547.383          35.000  
E26  25264443.276 4 132765540.582 1      -120.017          37.000  
G 3  23920440.971 9                     -1726.099          17.000  
E 7  28888933.109 9                      2020.037          30.000  
J 1  39011757.908 8 205008163.82833       160.292          33.000  
J 2  37539706.801 8 197272489.54423       309.664          34.000  
G 6  23173618.069 9                      1130.992          27.000  
> 2021  5 21  6 34  6.0050000  0 14                     
G17  23294460.251 9                       838.192          23.000  
G14  21809168.705 4 114607950.202 1      -502.448          37.000  
E 1  26735767.634 8 140497407.940 3      1758.809          30.000  
G28  22072390.825 4 115991190.466 2      1116.210          33.000  
G19  23572337.763 9                      1597.581          20.000  
E13  27028006.064 4 142033151.736 2     -1486.174          36.000  
E21  25260057.234 8 132742489.095 2      -831.320          33.000  
J 3  41280187.097 4 216928848.16022       547.883          36.000  
E26  25264467.201 4 132765661.663 2      -121.244          37.000  
G 3  23920762.247 9                     -1727.736          20.000  
E 7  28888546.377 9                      2022.893          30.000  
J 1  39011729.202 8 205008002.83324       159.848          27.000  
J 2  37539648.326 8 197272178.73122       311.391          35.000  
G 6  23173408.300 9                      1130.992          19.000  
> 2021  5 21  6 34  7.0050000  0 12                     
G17  23294301.210 9                       842.550          24.000  
G14  21809265.693 4 114608453.366 2      -503.710          37.000  
E 1  26735434.143 9                      1756.307          21.000  
G28  22072179.433 4 115990075.901 2      1114.456          33.000  
G19  23572043.500 9                      1563.990          19.000  
E13  27028291.863 4 142034637.256 2     -1484.330          32.000  
E21  25260217.026 4 132743321.027 2      -832.636          34.000  
J 3  41280082.692 4 216928299.63721       548.025          36.000  
E26  25264485.157 9                      -122.339          25.000  
G 3  23921084.291 9                     -1727.228          21.000  
E 7  28888168.946 9                      2018.194          21.000  
J 2  37539591.089 8 197271867.97922       310.842          35.000  
> 2021  5 21  6 34  8.0050000  0 13                     
G17  23294141.069 9                       831.319          25.000  
G14  21809360.535 4 114608956.798 1      -504.879          39.000  
E 1  26735124.523 9                      1754.198          22.000  
G28  22071966.070 8 115988961.018 3      1114.747          34.000  
E13  27028575.761 4 142036120.976 2     -1483.685          35.000  
E21  25260375.770 4 132744153.235 2      -832.882          37.000  
J 3  41279976.543 4 216927749.74622       549.700          36.000  
E26  25264512.309 9                      -131.800          22.000  
G 3  23921409.057 9                     -1742.937          21.000  
E 7  28887784.343 9                      2018.194          18.000  
J 1  39011668.877 9                       158.605          11.000  
J 2  37539531.287 8 197271557.61623       310.885          37.000  
G 6  23172984.312 9                      1105.988          29.000  
> 2021  5 21  6 34  9.0050000  0 13                     
G17  23293986.862 9                       844.025          22.000  
G14  21809456.703 2 114609460.598 1      -504.644          39.000  
E 1  26734787.385 9                      1753.659          21.000  
G28  22071754.224 8                      1114.351          30.000  
E13  27028852.905 4 142037603.279 1     -1481.403          35.000  
E21  25260533.555 4 132744985.859 2      -832.748          36.000  
J 3  41279873.447 4 216927198.92422       550.523          38.000  
E26  25264543.737 9                      -122.683          22.000  
G 3  23921732.985 9                     -1726.944          21.000  
E 7  28887399.776 9                      2018.194          12.000  
J 1  39011639.421 9                       166.697          13.000  
J 2  37539472.811 8 197271247.62125       312.552          25.000  
G 6  23172774.334 9 121773750.60835      1104.434          36.000  
> 2021  5 21  6 34 10.0050000  0 13                     
G17  23293830.612 9                       834.099          21.000  
G14  21809552.749 2 114609965.749 1      -505.571          39.000  
E 1  26734444.052 9                      1760.563          21.000  
G28  22071542.588 8 115986739.03335      1113.218          34.000  
G19  23571147.763 9                      1587.187          22.000  
E13  27029136.140 4 142039084.718 2     -1481.771          35.000  
E21  25260692.701 4 132745819.847 2      -834.835          36.000  
J 3  41279769.443 4 216926647.71722       552.623          38.000  
E26  25264566.039 9                      -115.562          21.000  
G 3  23922058.606 9                     -1730.157          21.000  
J 1  39011610.593 9                       166.697          13.000  
J 2  37539425.923 9                       307.658          25.000  
G 6  23172565.489 9                      1100.999          27.000  
> 2021  5 21  6 34 11.0050000  0 12                     
G17  23293671.763 9                       827.922          20.000  
G14  21809649.039 2 114610472.398 1      -507.627          36.000  
E 1  26734090.895 9                      1755.745          21.000  
G28  22071329.329 8 115985625.14823      1112.595          33.000  
G19  23570840.935 9                      1588.122          21.000  
E13  27029415.745 8 142040565.752 3     -1481.307          31.000  
E21  25260849.421 4 132746655.167 3      -834.965          28.000  
J 3  41279664.411 4 216926096.78622       551.437          34.000  
E26  25264583.297 9                      -124.267          22.000  
G 3  23922385.414 9                     -1728.640          20.000  
J 1  39011584.226 9                       165.080          14.000  
J 2  37539368.424 9                       321.426          23.000  
> 2021  5 21  6 34 12.0050000  0 12                     
G17  23293512.128 9                       834.907          20.000  
G14  21809745.522 4 114610979.943 2      -507.951          37.000  
E 1  26733759.480 9                      1756.244          19.000  
G28  22071117.361 9                      1113.852          30.000  
G19  23570540.530 9                      1590.423          20.000  
E13  27029699.223 8 142042047.302 3     -1482.247          30.000  
E21  25261005.200 8 132747491.123 3      -836.042          34.000  
J 3  41279559.796 4 216925546.36722       550.314          37.000  
E26  25264609.629 9                      -118.986          21.000  
G 3  23922707.231 9                     -1739.171          21.000  
J 1  39011553.130 9                       165.080          12.000  
J 2  37539306.493 9                       312.231          20.000  
> 2021  5 21  6 34 13.0050000  0 12                     
G17  23293351.185 9                       836.365          22.000  
G14  21809841.969 4 114611487.802 2      -507.822          34.000  
E 1  26733439.094 9                      1766.006          18.000  
G28  22070904.189 8 115983383.50635      1112.162          34.000  
G19  23570238.275 9                      1592.212          19.000  
E13  27029978.357 8 142043529.650 3     -1483.331          29.000  
E21  25261166.474 8 132748327.025 2      -834.885          33.000  
J 3  41279454.973 4 216924996.114 2       549.766          34.000  
E26  25264634.688 9                      -130.401          19.000  
G 3  23923029.274 9                     -1733.002          22.000  
J 1  39011520.637 9                       165.080          14.000  
J 2  37539252.694 9                       304.138          18.000  
> 2021  5 21  6 34 14.0050000  0 12                     
G17  23293186.246 9                       837.946          30.000  
G14  21809938.521 2 114611995.847 1      -508.580          37.000  
E 1  26733111.623 9                      1757.716          19.000  
G28  22070696.008 8 115982271.40423      1110.159          34.000  
G19  23569934.623 9                      1590.266          19.000  
E13  27030262.988 8 142045012.692 3     -1483.434          29.000  
E21  25261324.800 8 132749162.782 2      -834.870          34.000  
J 3  41279350.289 4 216924446.009 2       550.876          35.000  
E26  25264659.485 9                      -119.869          18.000  
G 3  23923355.384 9                     -1724.271          21.000  
J 1  39011491.670 9                       165.080          13.000  
J 2  37539190.205 9                       327.216          18.000  
> 2021  5 21  6 34 15.0050000  0 13                     
G17  23293013.715 9 122405612.81435       835.906          31.000  
G14  21810035.422 4 114612504.125 2      -509.339          37.000  
E 1  26732778.568 9                      1755.608          20.000  
G28  22070484.058 4 115981159.66322      1111.553          34.000  
G19  23569633.293 9                      1573.815          18.000  
E13  27030540.917 9                     -1484.830          28.000  
E21  25261487.733 8 132749998.386 2      -836.373          33.000  
J 3  41279245.501 4 216923896.334 2       548.866          34.000  
E26  25264682.589 9                      -119.869          16.000  
G 3  23923685.717 9                     -1728.982          19.000  
G22  26513364.846 9                     -2938.314          14.000  
J 1  39011462.074 9                       165.080          13.000  
J 2  37539128.519 9                       338.624          18.000  
> 2021  5 21  6 34 16.0050000  0 13                     
G17  23292853.889 9                       838.087          23.000  
G14  21810132.358 4 114613012.851 2      -508.447          33.000  
E 1  26732444.903 9                      1755.502          19.000  
G28  22070280.693 8 115980048.64924      1109.511          29.000  
G19  23569334.388 9                      1573.815          16.000  
E13  27030827.781 9                     -1485.084          28.000  
E21  25261642.743 8 132750833.625 3      -834.324          29.000  
J 3  41279141.078 8 216923347.593 3       549.510          34.000  
E26  25264705.867 9                      -110.976          15.000  
G 3  23924013.170 9                     -1728.982          18.000  
G22  26513927.214 9                     -2938.314          15.000  
J 1  39011431.345 9                       165.080          12.000  
J 2  37539065.087 9                       322.387          18.000  
> 2021  5 21  6 34 17.0050000  0 13                     
G17  23292696.278 9                       829.252          20.000  
G14  21810229.102 4 114613521.753 2      -508.790          33.000  
E 1  26732108.358 9                      1755.502          17.000  
G28  22070064.694 9                      1110.185          28.000  
G19  23569035.466 9                      1573.815          14.000  
E13  27031111.679 9                     -1489.103          27.000  
E21  25261799.882 8 132751668.334 4      -835.188          30.000  
J 3  41279036.883 8 216922800.236 3       547.701          29.000  
E26  25264727.977 9                      -110.976          14.000  
G 3  23924343.747 9                     -1748.715          18.000  
G22  26514486.581 9                     -2938.314          14.000  
J 1  39011401.243 9                       165.080          11.000  
J 2  37539007.344 9                       304.079          20.000  
> 2021  5 21  6 34 18.0050000  0 13                     
G17  23292542.559 9                       828.864          17.000  
G14  21810325.218 4 114614030.411 3      -508.442          32.000  
E 1  26731773.331 9                      1757.235          16.000  
G28  22069849.742 8 115977861.22434      1110.096          28.000  
G19  23568734.345 9                      1588.162          13.000  
E13  27031394.041 9                     -1491.234          26.000  
E21  25261958.837 8 132752501.912 3      -833.498          29.000  
J 3  41278932.950 8 216922253.779 4       546.135          28.000  
E26  25264750.453 9                      -110.976          15.000  
G 3  23924675.336 9                     -1744.346          18.000  
G22  26515046.524 9                     -2938.314          11.000  
J 1  39011369.798 9                       165.080          11.000  
J 2  37538947.665 9                       320.669          21.000  
> 2021  5 21  6 34 19.0050000  0 13                     
G17  23292380.831 9                       822.813          17.000  
G14  21810421.386 9                      -508.484          28.000  
E 1  26731439.229 9                      1757.235          15.000  
G28  22069638.629 8 115976749.93724      1113.681          29.000  
G19  23568430.537 9                      1588.162          13.000  
E13  27031682.266 9                     -1484.653          24.000  
E21  25262120.373 8 132753348.75415      -833.036          29.000  
J 3  41278831.110 8 216921707.796 3       545.776          33.000  
E26  25264772.649 9                      -114.996          16.000  
G 3  23925005.913 9                     -1754.862          18.000  
G22  26515609.625 9                     -2938.314          11.000  
J 1  39011339.295 9                       163.307          11.000  
J 2  37538887.304 9                       321.259          20.000  
> 2021  5 21  6 34 20.0050000  0 13                     
G17  23292225.245 9                       823.658          17.000  
G14  21810516.542 9 114615047.62034      -511.163          31.000  
E 1  26731081.971 9                      1765.026          30.000  
G28  22069424.288 8 115975638.76524      1110.466          30.000  
G19  23568127.427 9                      1574.275          14.000  
E13  27031964.262 9                     -1499.614          21.000  
E21  25262280.409 8 132754182.442 4      -833.623          29.000  
J 3  41278724.228 8 216921162.262 3       545.544          32.000  
E26  25264782.631 9 132767339.27015      -113.906          32.000  
G 3  23925338.619 9                     -1742.031          17.000  
G22  26516166.793 9                     -2938.314          11.000  
J 1  39011309.874 9                       135.925          18.000  
J 2  37538827.747 9                       316.011          21.000  
> 2021  5 21  6 34 21.0050000  0 12                     
G17  23292069.816 9                       817.747          19.000  
G14  21810616.462 8 114615558.62423      -510.170          35.000  
E 1  26730736.230 9 140471028.97414      1763.102          30.000  
G28  22069217.608 4 115974527.56023      1110.304          34.000  
G19  23567829.028 9                      1574.275          13.000  
E13  27032249.468 9                     -1499.614          16.000  
E21  25262437.199 8 132755015.589 4      -832.951          33.000  
J 3  41278617.659 8 216920619.785 3       541.747          33.000  
E26  25264804.653 9 132767453.503 3      -113.062          32.000  
G 3  23925670.260 9                     -1761.144          17.000  
J 1  39011280.522 9                       149.751          24.000  
J 2  37538768.015 9                       316.011          19.000  
> 2021  5 21  6 34 22.0050000  0 13                     
G17  23291911.664 9                       813.670          21.000  
G14  21810713.747 8 114616070.68123      -513.686          33.000  
E 1  26730402.512 9 140469263.178 5      1764.372          28.000  
G28  22069003.546 4 115973417.09722      1109.439          33.000  
G19  23567530.193 9                      1574.275          12.000  
E13  27032535.599 9                     -1499.614          13.000  
E21  25262592.890 8 132755848.303 4      -832.112          28.000  
J 3  41278517.128 9                       529.082          20.000  
E26  25264827.705 8 132767566.942 3      -113.905          32.000  
G 3  23926004.432 9                     -1758.575          17.000  
J 1  39011252.009 9                       147.400          25.000  
J 2  37538709.417 9                       316.011          17.000  
G 6  23170051.454 9                      1120.874          24.000  
> 2021  5 21  6 34 23.0050000  0 11                     
G17  23291753.879 9                       835.376          19.000  
G14  21810811.939 8 114616583.54623      -513.350          34.000  
E 1  26730065.531 9                      1765.020          26.000  
G28  22068794.719 4 115972307.82222      1107.851          32.000  
G19  23567228.932 9                      1574.275          12.000  
E21  25262760.395 8 132756680.789 4      -834.558          30.000  
J 3  41278421.379 9                       536.551          18.000  
E26  25264848.174 8 132767680.833 3      -113.959          31.000  
G 3  23926340.785 9                     -1764.208          19.000  
J 1  39011224.560 9                       141.892          25.000  
J 2  37538649.318 9                       321.157          15.000  
> 2021  5 21  6 34 24.0050000  0 11                     
G17  23291593.425 9                       835.376          18.000  
G14  21810910.376 8 114617097.58223      -514.452          31.000  
E 1  26729730.853 9                      1768.779          25.000  
G28  22068583.450 4 115971199.17722      1109.246          36.000  
G19  23566928.125 9                      1574.275          12.000  
E21  25262914.201 8 132757513.498 5      -831.244          23.000  
J 3  41278325.071 9                       536.007          17.000  
E26  25264869.568 8 132767794.323 3      -112.890          30.000  
G 3  23926679.092 9                     -1755.470          18.000  
J 1  39011195.191 9                       143.265          26.000  
J 2  37538588.434 9                       327.542          17.000  
> 2021  5 21  6 34 25.0050000  0 11                     
G17  23291437.088 9                       818.165          16.000  
G14  21811006.823 8 114617611.84823      -515.067          37.000  
E 1  26729395.390 9                      1765.306          25.000  
G28  22068372.372 4 115970090.39212      1106.630          32.000  
G19  23566626.795 9                      1574.275          13.000  
E21  25263070.887 9                      -833.907          24.000  
J 3  41278224.994 9                       530.862          18.000  
E26  25264888.623 8 132767907.779 3      -113.251          31.000  
G 3  23927011.850 9                     -1758.834          19.000  
J 1  39011170.028 8                       143.629          27.000  
J 2  37538530.011 9                       321.271          18.000  
