     3.03           OBSERVATION DATA    M: Mixed            RINEX VERSION / TYPE
RTKCONV demo5 b33c                      20210524 111707 UTC PGM / RUN BY / DATE 
log: C:\Users\Ivan_PolyU_Dktp\Dropbox\HUAWEI Exp\20210521_  COMMENT             
format: RINEX                                               COMMENT             
                                                            MARKER NAME         
                                                            MARKER NUMBER       
                                                            MARKER TYPE         
                                                            OBSERVER / AGENCY   
BFN16413056         NOV CDSR0G55N       OEM060710RN0000     REC # / TYPE / VERS 
                                                            ANT # / TYPE        
 -2419198.4545  5385470.4273  2405391.4254                  APPROX POSITION XYZ 
        0.0000        0.0000        0.0000                  ANTENNA: DELTA H/E/N
G    8 C1C L1C D1C S1C C2W L2W D2W S2W                      SYS / # / OBS TYPES 
R    8 C1C L1C D1C S1C C2P L2P D2P S2P                      SYS / # / OBS TYPES 
C    8 C2I L2I D2I S2I C7I L7I D7I S7I                      SYS / # / OBS TYPES 
  2021     5    21     6    29    6.0000000     GPS         TIME OF FIRST OBS   
  2021     5    21     6    54   40.0000000     GPS         TIME OF LAST OBS    
G                                                           SYS / PHASE SHIFT   
R                                                           SYS / PHASE SHIFT   
C                                                           SYS / PHASE SHIFT   
  1 R15  0                                                  GLONASS SLOT / FRQ #
 C1C    0.000 C1P    0.000 C2C    0.000 C2P    0.000        GLONASS COD/PHS/BIS 
                                                            END OF HEADER       
> 2021  5 21  6 29  6.0000000  0 24                     
G19  22057758.151 6 115914301.875 6      1435.953          38.000    22057755.931 3  90322826.209 3      1118.920          20.250  
G 3  22220321.275 6 116768567.541 6     -1726.203          39.500    22220322.487 5  90988493.928 5     -1345.097          30.250  
G30  23631937.905 5 124186687.798 5     -2682.245          31.250    23631944.373 5  96768811.830 5     -2090.054          30.750  
G 6  21635260.856 6 113694074.528 6      1080.311          41.000    21635264.702 6  88592797.343 6       841.804          41.750  
G17  21736132.696 6 114224159.997 6       669.667          38.250    21736131.277 6  89005824.676 6       521.817          38.250  
G14  20180337.000 7 106048385.709 7      -467.764          43.250    20180336.403 5  82635101.282 5      -364.494          34.000  
G28  20534934.052 6 107911812.700 6      1110.401          39.750    20534931.984 5  84087114.391 5       865.247          30.500  
R14  20538887.668 6 109483421.416 6     -3196.855          40.000    20538891.691 5  85153791.421 5     -2486.447          34.750  
R 2  21835699.641 6 116519094.729 6      2417.548          36.250    21835704.791 5  90625973.776 5      1880.319          31.250  
R15  20080946.330 6 107306104.648 6       588.444          39.750    20080949.107 5  83460311.330 5       457.679          33.750  
R17  21006598.329 6 112410187.450 6      -684.166          38.500    21006600.333 5  87430143.217 5      -532.129          33.500  
C23  25483282.755 5 132698147.261 5      1648.224          32.500                                                                  
C 3  36370334.043 6 189389869.747 6        25.829          39.000                                                                  
C 4  38310503.968 5 199492863.56515         1.126          32.250                                                                  
C25  23237596.119 6 121004261.635 6      -819.623          40.000                                                                  
C 8  36488073.842 6 190002976.079 6      -454.527          37.500    36488071.637 5 146922348.829 5      -351.511          34.000  
C21  23894917.455 6 124427106.767 6       668.012          40.250                                                                  
C10  35921207.297 6 187051155.596 6       415.779          37.500    35921207.652 5 144639820.209 5       321.734          33.750  
C11  23069610.832 6 120129514.934 6       289.862          36.750    23069612.972 5  92891780.023 5       223.925          34.000  
C12  23472272.375 5 122226277.222 5      -957.131          34.250    23472271.844 5  94513112.485 5      -739.988          33.750  
C13  36543446.530 6 190291315.457 6       -90.724          37.500    36543452.384 5 147145330.584 5       -70.082          32.000  
C24  24493683.746 6 127545026.098 6     -2903.932          38.000                                                                  
C 7  35717127.675 6 185988453.713 6       -13.407          39.250    35717125.018 5 143818072.201 5        -9.990          35.000  
C 1  37380993.658 6 194652640.171 6         3.432          37.750    37380993.629 5 150517767.54515         2.827          32.500  
> 2021  5 21  6 29  7.0000000  0 24                     
G19  22057484.862 6 115912865.827 6      1436.582          37.750    22057482.521 5  90321707.161 5      1119.403          34.000  
G 3  22220649.800 6 116770293.825 6     -1726.231          39.750    22220650.860 5  90989839.071 5     -1345.121          32.000  
G30  23632448.262 5 124189369.734 5     -2682.699          32.500    23632454.797 5  96770901.654 5     -2090.410          34.000  
G 6  21635055.249 6 113692994.124 6      1081.035          41.250    21635059.121 6  88591955.473 6       842.369          41.750  
G17  21736005.176 6 114223489.890 6       670.910          38.500    21736003.764 6  89005302.515 6       522.786          38.750  
G14  20180426.046 7 106048853.612 7      -467.908          43.250    20180425.452 5  82635465.884 5      -364.603          35.000  
G28  20534722.664 6 107910701.865 6      1111.120          39.750    20534720.690 5  84086248.803 5       865.806          34.500  
R14  20539487.420 6 109486618.413 6     -3196.887          40.000    20539491.449 5  85156277.966 5     -2486.472          35.000  
R 2  21835246.647 6 116516677.177 6      2417.519          36.500    21835251.707 5  90624093.462 5      1880.296          32.250  
R15  20080836.242 6 107305516.311 6       588.487          40.000    20080839.000 5  83459853.733 5       457.713          33.750  
R17  21006726.087 6 112410871.086 6      -683.023          38.750    21006728.103 5  87430674.935 5      -531.239          33.250  
C23  25482966.137 5 132696498.676 5      1649.810          32.250                                                                  
C 3  36370329.011 6 189389843.545 6        26.334          38.750    36370328.367 5 146448241.17725        20.259          33.750  
C 4  38310505.921 5 199492862.10425         1.500          31.250                                                                  
C25  23237753.501 6 121005081.129 6      -818.966          39.750                                                                  
C 8  36488161.136 6 190003430.505 6      -453.959          37.500    36488158.891 5 146922700.171 5      -350.614          34.500  
C21  23894789.179 6 124426438.772 6       667.827          40.000                                                                  
C10  35921127.338 6 187050739.262 6       416.746          37.250    35921127.708 5 144639498.276 5       322.385          33.750  
C11  23069555.114 6 120129224.806 6       290.687          37.000    23069557.288 5  92891555.656 5       224.922          34.000  
C12  23472456.123 5 122227234.167 5      -956.380          34.500    23472455.586 5  94513852.462 5      -739.943          33.250  
C13  36543463.925 6 190291405.975 6       -89.854          37.500    36543469.782 5 147145400.594 5       -69.421          32.750  
C24  24494241.411 6 127547929.909 6     -2903.431          38.000                                                                  
C 7  35717130.188 6 185988466.814 6       -12.992          39.250    35717127.520 5 143818082.337 5        -9.862          35.000  
C 1  37380992.934 6 194652636.444 6         4.009          37.750    37380993.926 5 150517764.195 5         2.556          32.500  
> 2021  5 21  6 29  8.0000000  0 24                     
G19  22057211.347 6 115911428.486 6      1437.872          38.000    22057209.002 4  90320587.153 4      1120.415          29.000  
G 3  22220978.468 6 116772021.041 6     -1727.962          39.000    22220979.562 5  90991184.941 5     -1346.469          31.250  
G30  23632958.612 5 124192051.617 5     -2682.258          33.250    23632965.057 5  96772991.444 5     -2090.069          33.250  
G 6  21634849.537 6 113691913.012 6      1081.359          41.250    21634853.380 6  88591113.054 6       842.621          40.750  
G17  21735877.549 6 114222819.110 6       671.613          39.000    21735876.146 6  89004779.836 6       523.336          39.500  
G14  20180515.205 7 106049322.080 7      -468.934          43.000    20180514.625 5  82635830.919 5      -365.404          35.250  
G28  20534511.257 6 107909590.964 6      1110.598          39.500    20534509.154 4  84085383.174 4       865.403          27.000  
R14  20540087.273 6 109489815.962 6     -3198.124          40.000    20540091.305 5  85158764.947 5     -2487.433          33.250  
R 2  21834793.866 6 116514261.202 6      2414.537          37.250    21834799.042 5  90622214.382 5      1877.979          32.250  
R15  20080726.085 6 107304927.712 6       589.025          39.250    20080728.844 5  83459395.933 5       458.130          33.500  
R17  21006853.672 6 112411553.675 6      -682.260          38.250    21006855.660 5  87431205.841 5      -530.645          32.750  
C23  25482649.322 5 132694848.971 5      1650.415          31.750                                                                  
C 3  36370323.975 6 189389817.330 6        26.011          38.750    36370321.924 5 146448220.390 5        20.239          33.000  
C 4  38310504.444 5 199492861.70825        -0.401          32.500                                                                  
C25  23237910.772 6 121005900.092 6      -818.751          40.250                                                                  
C 8  36488248.306 6 190003884.415 6      -453.766          37.000    36488246.102 5 146923051.189 5      -351.166          34.000  
C21  23894661.120 6 124425772.135 6       665.740          38.750                                                                  
C10  35921047.294 6 187050322.494 6       417.010          37.250    35921047.668 5 144639176.037 5       322.272          34.250  
C11  23069499.168 6 120128933.464 6       291.545          37.500    23069501.334 5  92891330.386 5       225.543          34.000  
C12  23472639.897 5 122228191.097 5      -957.292          35.750    23472639.322 5  94514592.339 5      -740.045          33.000  
C13  36543481.201 6 190291495.929 6       -89.673          37.500    36543487.053 5 147145470.159 5       -69.418          32.750  
C24  24494799.149 6 127550834.173 6     -2905.012          37.000                                                                  
C 7  35717132.754 6 185988480.209 6       -14.022          39.250    35717130.067 5 143818092.665 5       -10.613          34.500  
C 1  37380992.377 6 194652633.536 6         2.254          38.000                                                                  
> 2021  5 21  6 29  9.0000000  0 24                     
G19  22056937.665 6 115909990.403 6      1439.057          38.750    22056935.293 5  90319466.618 5      1121.349          34.250  
G 3  22221307.499 6 116773750.226 6     -1729.763          38.000    22221308.606 5  90992532.353 5     -1347.872          32.000  
G30  23633469.067 5 124194733.803 5     -2682.198          34.250    23633475.589 5  96775081.453 5     -2090.022          34.000  
G 6  21634643.718 6 113690831.459 6      1082.077          39.500    21634647.574 6  88590270.287 6       843.181          38.750  
G17  21735749.940 6 114222148.448 6       670.975          39.000    21735748.584 6  89004257.240 6       522.838          38.500  
G14  20180604.595 7 106049791.801 7      -469.709          43.250    20180604.011 5  82636196.946 5      -366.006          34.500  
G28  20534299.985 6 107908480.664 6      1110.418          40.000    20534297.802 5  84084518.030 5       865.266          33.250  
R14  20540687.307 6 109493014.523 6     -3198.239          37.750    20540691.363 5  85161252.726 5     -2487.519          33.750  
R 2  21834341.625 6 116511847.790 6      2412.651          37.250    21834346.759 5  90620337.292 5      1876.512          31.750  
R15  20080615.990 6 107304339.319 6       588.975          39.750    20080618.741 5  83458938.292 5       458.091          33.500  
R17  21006981.145 6 112412235.921 6      -681.335          38.500    21006983.146 5  87431736.480 5      -529.926          31.250  
C23  25482332.411 5 132693198.364 5      1651.446          30.250                                                                  
C 3  36370319.035 6 189389791.687 6        26.151          39.000    36370318.125 5 146448200.568 5        20.251          32.500  
C 4  38310505.766 5 199492863.44925        -2.195          31.750    38310506.477 5 154260533.86525        -1.743          30.500  
C25  23238068.002 6 121006718.813 6      -818.005          40.000                                                                  
C 8  36488335.474 6 190004338.395 6      -453.465          37.000    36488333.271 5 146923402.230 5      -350.598          33.750  
C21  23894533.537 6 124425107.835 6       663.634          37.500                                                                  
C10  35920967.311 6 187049905.939 6       416.757          37.500    35920967.662 5 144638853.886 5       321.961          33.500  
C11  23069443.111 6 120128641.589 6       292.394          38.000    23069445.240 5  92891104.676 5       225.758          35.000  
C12  23472823.874 6 122229149.017 6      -958.032          36.500    23472823.305 5  94515333.059 5      -740.812          34.750  
C13  36543498.418 6 190291585.679 6       -89.079          39.000    36543504.280 5 147145539.535 5       -69.201          32.000  
C24  24495357.058 6 127553739.305 6     -2905.085          37.250                                                                  
C 7  35717135.548 6 185988494.652 6       -14.497          39.500    35717132.855 5 143818103.858 5       -10.998          34.750  
C 1  37380992.135 6 194652632.327 6         1.066          37.750    37380992.033 5 150517763.48115         0.922          31.500  
> 2021  5 21  6 29 10.0000000  0 24                     
G19  22056663.813 6 115908551.379 6      1439.542          38.750    22056661.695 5  90318345.318 5      1121.728          34.750  
G 3  22221636.871 6 116775481.255 6     -1731.955          39.500    22221637.994 5  90993881.210 5     -1349.577          35.750  
G30  23633979.297 5 124197414.916 5     -2680.079          33.750    23633985.831 5  96777170.635 5     -2088.370          33.500  
G 6  21634437.684 6 113689748.635 6      1083.076          38.000    21634441.512 6  88589426.539 6       843.960          37.750  
G17  21735622.288 6 114221477.570 6       670.897          38.750    21735620.921 6  89003734.478 6       522.777          39.000  
G14  20180694.084 7 106050262.057 7      -470.496          43.000    20180693.493 6  82636563.375 6      -366.620          38.000  
G28  20534088.719 6 107907370.429 6      1110.430          40.500    20534086.536 5  84083652.902 5       865.272          32.750  
R14  20541287.321 6 109496212.952 6     -3198.307          38.250    20541291.388 5  85163740.415 5     -2487.567          34.000  
R 2  21833889.717 6 116509436.287 6      2410.524          38.000    21833894.826 5  90618461.676 5      1874.855          31.250  
R15  20080505.795 6 107303750.430 6       589.120          40.000    20080508.537 5  83458480.263 5       458.203          33.500  
R17  21007108.590 6 112412917.664 6      -681.277          38.500    21007110.535 5  87432266.699 5      -529.888          32.750  
C23  25482015.192 5 132691546.637 5      1651.612          31.250                                                                  
C 3  36370314.030 6 189389765.650 6        26.483          39.000                                                                  
C 4  38310506.018 5 199492866.44125        -3.528          33.500    38310505.083 4 154260536.18524        -3.019          29.750  
C25  23238225.047 6 121007536.445 6      -817.671          39.000                                                                  
C 8  36488422.571 6 190004791.876 6      -452.942          36.750    36488420.366 5 146923752.917 5      -350.584          34.250  
C21  23894406.337 6 124424445.476 6       661.313          39.000                                                                  
C10  35920887.243 6 187049489.006 6       416.972          37.750    35920887.617 5 144638531.497 5       322.421          33.500  
C11  23069386.883 6 120128348.806 6       293.000          37.000    23069388.987 5  92890878.275 5       226.800          34.500  
C12  23473007.999 5 122230107.768 5      -958.892          35.500    23473007.428 5  94516074.484 5      -741.853          35.000  
C13  36543515.454 6 190291674.374 6       -88.280          39.500    36543521.313 5 147145608.086 5       -68.193          31.750  
C24  24495914.887 6 127556644.089 6     -2905.020          37.250                                                                  
C 7  35717138.389 6 185988509.479 6       -15.384          39.750    35717135.707 5 143818115.299 5       -11.695          34.750  
C 1  37380992.069 6 194652632.048 6        -0.332          38.250    37380992.740 5 150517763.30225        -0.111          32.750  
> 2021  5 21  6 29 11.0000000  0 24                     
G19  22056389.844 6 115907111.562 6      1439.808          38.750    22056387.703 5  90317223.406 5      1121.941          34.000  
G 3  22221966.585 6 116777213.937 6     -1732.893          39.750    22221967.884 4  90995231.356 4     -1350.306          29.750  
G30  23634489.489 5 124200095.940 5     -2682.153          33.500    23634496.234 5  96779259.744 5     -2089.990          33.750  
G 6  21634231.489 6 113688665.159 6      1083.552          38.250    21634235.331 6  88588582.269 6       844.327          38.500  
G17  21735494.626 6 114220806.707 6       670.973          38.750    21735493.257 6  89003211.699 6       522.829          38.000  
G14  20180783.717 7 106050733.111 7      -471.353          43.000    20180783.102 5  82636930.419 5      -367.290          35.000  
G28  20533877.509 6 107906260.521 6      1109.787          40.500    20533875.268 5  84082788.043 5       864.772          32.750  
R14  20541887.407 6 109499411.789 6     -3199.384          38.250    20541891.503 5  85166228.406 5     -2488.405          33.750  
R 2  21833438.166 6 116507026.658 6      2409.310          38.000    21833443.282 5  90616587.494 5      1873.905          32.750  
R15  20080395.612 6 107303161.497 6       588.772          40.250    20080398.330 5  83458022.193 5       457.930          33.250  
R17  21007235.935 6 112413599.018 6      -680.806          38.250    21007237.849 5  87432796.616 5      -529.525          32.500  
C23  25481697.837 4 132689894.131 4      1651.854          29.500                                                                  
C 3  36370309.049 6 189389739.713 6        25.760          39.000    36370306.765 5 146448156.90715        19.515          31.750  
C 4  38310507.760 5 199492866.95315        -5.070          32.250    38310506.967 4 154260539.68924        -3.804          29.750  
C25  23238381.974 6 121008353.588 6      -817.332          39.750                                                                  
C 8  36488509.615 6 190005245.229 6      -453.616          36.750    36488507.413 5 146924103.464 5      -350.678          33.750  
C21  23894279.480 6 124423784.939 6       660.162          38.500                                                                  
C10  35920807.167 6 187049072.021 6       416.715          37.750    35920807.517 5 144638209.048 5       322.404          33.750  
C11  23069330.542 6 120128055.421 6       293.592          37.250    23069332.638 5  92890651.436 5       227.084          35.000  
C12  23473192.280 6 122231067.360 6      -959.721          37.000    23473191.720 5  94516816.489 5      -741.945          35.000  
C13  36543532.398 6 190291762.586 6       -88.127          40.000    36543538.267 5 147145676.359 5       -68.957          31.500  
C24  24496472.758 6 127559549.094 6     -2905.430          37.750                                                                  
C 7  35717141.357 6 185988524.897 6       -15.533          39.750    35717138.659 5 143818127.253 5       -12.069          34.750  
C 1  37380992.220 6 194652632.850 6        -1.337          38.250    37380992.707 5 150517763.435 5        -1.314          32.250  
> 2021  5 21  6 29 12.0000000  0 24                     
G19  22056115.742 6 115905671.082 6      1441.478          37.750    22056113.739 4  90316100.960 4      1123.237          26.000  
G 3  22222296.262 6 116778946.482 6     -1731.389          39.000    22222297.613 5  90996581.384 5     -1349.136          31.500  
G30  23634999.964 5 124202778.535 5     -2683.028          33.750    23635006.574 5  96781350.067 5     -2090.674          32.500  
G 6  21634025.504 6 113687582.726 6      1082.145          40.750    21634029.335 6  88587738.815 6       843.234          40.750  
G17  21735366.783 6 114220134.905 6       673.305          39.500    21735365.379 6  89002688.208 6       524.647          39.750  
G14  20180873.541 7 106051205.119 7      -471.888          43.000    20180872.927 5  82637298.218 5      -367.707          35.000  
G28  20533666.364 6 107905151.017 6      1110.026          39.750    20533664.122 5  84081923.476 5       864.950          30.750  
R14  20542487.853 6 109502612.414 6     -3201.342          39.500    20542491.924 5  85168717.781 5     -2489.929          34.000  
R 2  21832986.767 6 116504617.892 6      2409.074          37.500    21832991.866 5  90614714.009 5      1873.723          30.750  
R15  20080285.571 6 107302573.602 6       588.099          39.000    20080288.316 5  83457564.942 5       457.409          33.250  
R17  21007363.111 6 112414279.505 6      -679.197          38.000    21007365.001 5  87433325.875 5      -528.271          33.000  
C23  25481380.532 5 132688241.677 5      1653.139          31.750                                                                  
C 3  36370304.209 6 189389714.593 6        25.329          38.750    36370301.874 5 146448137.46625        19.492          33.500  
C 4  38310508.584 5 199492871.62425        -4.318          31.500    38310507.320 4 154260543.32824        -2.602          29.000  
C25  23238539.120 6 121009171.925 6      -818.852          40.750                                                                  
C 8  36488596.689 6 190005698.650 6      -452.769          37.500    36488594.470 5 146924454.065 5      -350.230          34.750  
C21  23894152.708 6 124423124.763 6       661.242          39.500                                                                  
C10  35920727.074 6 187048655.026 6       417.975          37.250    35920727.425 5 144637886.597 5       323.129          34.250  
C11  23069274.083 6 120127761.432 6       295.062          37.750    23069276.162 5  92890424.074 5       228.189          34.000  
C12  23473376.353 5 122232025.884 5      -956.864          35.250    23473375.824 5  94517557.684 5      -740.324          33.750  
C13  36543549.481 6 190291851.505 6       -88.703          38.250    36543555.338 5 147145745.083 5       -68.433          32.500  
C24  24497030.936 6 127562455.712 6     -2906.963          37.000                                                                  
C 7  35717144.397 6 185988540.723 6       -15.285          39.250    35717141.700 5 143818139.497 5       -12.034          35.000  
C 1  37380992.460 6 194652634.115 6        -0.987          37.750                                                                  
> 2021  5 21  6 29 13.0000000  0 24                     
G19  22055841.329 6 115904229.058 6      1442.880          36.250    22055839.667 4  90314977.319 4      1124.331          25.250  
G 3  22222625.620 6 116780677.284 6     -1730.262          37.500    22222627.050 4  90997930.044 4     -1348.265          28.750  
G30  23635510.794 5 124205462.783 5     -2685.228          35.000    23635517.443 5  96783441.670 5     -2092.389          33.750  
G 6  21633819.644 6 113686500.927 6      1081.233          39.750    21633823.476 6  88586895.859 6       842.522          39.250  
G17  21735238.551 6 114219461.107 6       674.467          39.250    21735237.212 6  89002163.192 6       525.559          39.750  
G14  20180963.405 7 106051677.366 7      -472.721          43.000    20180962.801 5  82637666.205 5      -368.356          35.000  
G28  20533455.142 6 107904041.089 6      1109.623          39.500    20533453.001 5  84081058.576 5       864.634          31.000  
R14  20543088.601 6 109505814.771 6     -3203.614          39.250    20543092.674 5  85171208.483 5     -2491.703          34.750  
R 2  21832535.346 5 116502208.973 5      2408.963          36.000    21832540.389 4  90612840.409 4      1873.637          29.250  
R15  20080175.670 6 107301986.161 6       586.910          40.750    20080178.383 5  83457108.048 5       456.485          33.750  
R17  21007489.879 6 112414957.862 6      -677.603          38.500    21007491.769 5  87433853.502 5      -527.027          31.500  
C23  25481063.163 4 132686582.05914      1654.191          28.000                                                                  
C 3  36370299.479 6 189389689.941 6        24.387          37.500                                                                  
C 4  38310509.370 5 199492875.61925        -3.910          32.500    38310506.582 4 154260546.39424        -2.677          29.750  
C25  23238696.450 6 121009991.184 6      -819.958          39.250                                                                  
C 8  36488683.638 6 190006151.418 6      -452.844          37.750    36488681.410 5 146924804.176 5      -349.935          33.000  
C21  23894025.754 6 124422463.761 6       660.835          38.500                                                                  
C10  35920646.874 6 187048237.262 6       417.764          37.750    35920647.199 5 144637563.556 5       323.114          32.250  
C11  23069217.331 5 120127465.898 5       295.926          36.000    23069219.375 5  92890195.583 5       229.063          32.000  
C12  23473559.925 5 122232981.848 5      -955.042          35.500    23473559.404 5  94518296.923 5      -738.668          33.750  
C13  36543566.618 6 190291940.727 6       -89.473          37.000    36543572.499 5 147145814.116 5       -69.293          30.250  
C24  24497589.419 6 127565363.901 6     -2909.207          37.000                                                                  
C 7  35717147.361 6 185988556.224 6       -15.626          38.750    35717144.662 5 143818151.497 5       -12.236          34.000  
C 1  37380992.635 6 194652635.042 6        -0.742          37.500    37380992.312 5 150517770.62315        -0.718          32.000  
> 2021  5 21  6 29 14.0000000  0 25                     
G19  22055566.787 5 115902786.294 5      1442.661          35.500    22055565.020 3  90313853.096 3      1124.160          23.750  
G 3  22222954.880 5 116782407.627 5     -1730.033          35.250    22222956.434 4  90999278.376 4     -1348.076          24.250  
G30  23636021.915 5 124208148.737 5     -2686.634          35.500    23636028.506 5  96785534.646 5     -2093.476          34.750  
G 6  21633613.977 6 113685420.069 6      1080.193          39.500    21633617.764 6  88586053.634 6       841.713          39.750  
G17  21735110.123 6 114218786.224 6       674.844          39.000    21735108.785 6  89001637.312 6       525.853          38.500  
G14  20181053.420 7 106052150.408 7      -473.569          43.500    20181052.764 5  82638034.812 5      -369.014          33.250  
G28  20533243.988 6 107902931.376 6      1109.152          40.000    20533241.825 4  84080193.852 4       864.268          29.750  
R14  20543689.703 6 109509018.870 6     -3205.364          40.500    20543693.767 5  85173700.546 5     -2493.065          34.750  
R 2  21832084.028 6 116499800.643 6      2408.331          36.500    21832089.085 5  90610967.268 5      1873.147          31.250  
R15  20080065.898 6 107301399.679 6       585.700          41.000    20080068.620 5  83456651.898 5       455.545          34.250  
R17  21007616.479 6 112415635.178 6      -677.109          37.250    21007618.352 5  87434380.320 5      -526.638          31.000  
C23  25480745.648 4 132684928.88124      1652.377          29.500                                                                  
C 2  37062964.311 5 192996576.33915        22.805          33.500                                                                  
C 3  36370294.897 6 189389666.041 6        23.528          37.250    36370294.823 5 146448104.95315        18.445          31.250  
C 4  38310510.319 5 199492879.584 5        -4.189          34.750    38310508.992 4 154260549.50624        -3.400          28.750  
C25  23238854.013 6 121010811.621 6      -820.993          39.000                                                                  
C 8  36488770.578 6 190006604.145 6      -453.079          37.750    36488768.368 5 146925154.263 5      -350.384          32.250  
C21  23893898.842 6 124421802.891 6       660.478          38.250                                                                  
C10  35920566.614 6 187047819.327 6       417.770          38.000    35920566.905 5 144637240.412 5       322.693          31.750  
C11  23069160.430 6 120127169.612 6       296.377          36.250    23069162.436 5  92889966.455 5       229.204          31.000  
C12  23473743.272 5 122233936.518 5      -953.894          34.500    23473742.749 5  94519035.126 5      -737.947          33.000  
C13  36543583.888 6 190292030.620 6       -90.469          37.750    36543589.772 4 147145883.613 4       -69.261          28.500  
C24  24498148.184 6 127568273.587 6     -2910.463          36.750                                                                  
C 7  35717150.391 6 185988572.042 6       -16.178          38.500    35717147.682 5 143818163.696 5       -12.333          32.750  
C 1  37380992.867 6 194652636.276 6        -1.266          38.000    37380992.291 5 150517771.064 5        -0.858          31.750  
> 2021  5 21  6 29 15.0000000  0 25                     
G19  22055292.110 6 115901343.016 6      1444.017          36.000    22055290.534 4  90312728.443 4      1125.205          29.250  
G 3  22223284.138 5 116784137.936 5     -1729.683          34.750    22223285.637 4  91000626.735 4     -1347.787          28.250  
G30  23636533.230 5 124210835.707 5     -2687.998          34.500    23636539.725 5  96787628.400 5     -2094.539          31.000  
G 6  21633408.404 6 113684339.876 6      1080.528          39.500    21633412.213 6  88585211.942 6       841.976          39.000  
G17  21734981.541 6 114218110.641 6       676.388          39.000    21734980.176 6  89001110.886 6       527.056          39.000  
G14  20181143.572 7 106052624.110 7      -473.568          43.250    20181142.913 5  82638403.940 5      -369.011          33.250  
G28  20533032.865 6 107901821.954 6      1109.883          39.750    20533030.839 5  84079329.373 5       864.840          31.750  
R14  20544291.060 6 109512224.312 6     -3205.745          39.500    20544295.096 5  85176193.662 5     -2493.362          35.000  
R 2  21831632.849 6 116497392.872 6      2407.510          38.000    21831637.863 5  90609094.557 5      1872.508          32.250  
R18  22355467.707 5 119334619.13015       848.723          31.750                                                                  
R15  20079956.313 6 107300813.987 6       585.762          40.750    20079959.037 5  83456196.363 5       455.593          35.000  
R17  21007742.942 6 112416311.750 6      -676.293          36.250    21007744.826 5  87434906.558 5      -526.001          30.250  
C23  25480428.132 4 132683274.15714      1654.041          28.000                                                                  
C 3  36370290.382 6 189389642.643 6        23.697          38.000    36370288.957 5 146448086.368 5        18.327          32.000  
C 4  38310510.805 5 199492883.601 5        -3.640          34.500    38310510.206 4 154260552.59124        -2.426          29.000  
C25  23239011.718 6 121011632.883 6      -821.314          39.250                                                                  
C 8  36488857.521 6 190007056.827 6      -452.312          37.250    36488855.314 5 146925504.304 5      -349.696          32.000  
C21  23893771.981 6 124421142.326 6       660.902          38.750                                                                  
C10  35920486.330 6 187047401.327 6       418.192          38.000    35920486.640 5 144636917.152 5       323.684          32.250  
C11  23069103.420 5 120126872.799 5       297.246          35.750    23069105.390 5  92889736.934 5       230.194          31.500  
C12  23473926.459 5 122234890.455 5      -952.944          35.250    23473925.950 5  94519772.750 5      -737.357          32.500  
C13  36543601.225 6 190292120.926 6       -90.709          38.250    36543607.130 4 147145953.464 4       -69.981          29.250  
C24  24498707.169 6 127571184.352 6     -2910.860          37.000                                                                  
C 7  35717153.460 6 185988588.000 6       -15.575          38.500    35717150.746 5 143818176.038 5       -12.009          33.000  
C 1  37380993.123 6 194652637.715 6        -0.875          37.750                                                                  
> 2021  5 21  6 29 16.0000000  0 25                     
G19  22055017.200 6 115899898.325 6      1446.124          36.250    22055015.731 5  90311602.721 5      1126.856          31.250  
G 3  22223613.331 5 116785868.009 5     -1729.304          32.000    22223614.756 4  91001974.874 4     -1347.494          29.250  
G30  23637044.628 5 124213523.087 5     -2688.447          33.750    23637051.054 5  96789722.466 5     -2094.890          33.250  
G 6  21633202.811 6 113683259.469 6      1080.565          39.000    21633206.623 6  88584370.075 6       842.006          39.250  
G17  21734852.733 6 114217433.777 6       678.112          39.500    21734851.356 6  89000583.459 6       528.399          39.000  
G14  20181233.777 7 106053098.080 7      -474.322          43.250    20181233.082 5  82638773.270 5      -369.599          35.000  
G28  20532821.685 6 107900712.224 6      1110.040          39.500    20532819.630 5  84078464.669 5       864.968          31.250  
R14  20544892.553 6 109515430.521 6     -3207.196          38.750    20544896.586 5  85178687.378 5     -2494.489          34.750  
R 2  21831181.734 6 116494985.632 6      2405.838          37.750    21831186.773 5  90607222.263 5      1871.208          32.250  
R18  22355307.221 5 119333769.61525       850.994          33.500                                                                  
R15  20079846.722 6 107300228.331 6       586.193          40.500    20079849.438 5  83455740.855 5       455.929          35.250  
R17  21007869.081 6 112416986.821 6      -673.362          36.000    21007870.964 4  87435431.618 4      -523.721          29.750  
C23  25480110.535 4 132681620.157 4      1655.107          29.000                                                                  
C 3  36370285.884 6 189389619.197 6        22.931          38.000    36370284.620 5 146448068.258 5        17.403          32.500  
C 4  38310511.542 5 199492887.714 5        -4.884          33.750    38310511.275 4 154260555.77824        -3.717          28.750  
C25  23239169.434 6 121012454.143 6      -820.975          39.250                                                                  
C 8  36488944.308 6 190007508.805 6      -451.437          37.500    36488942.113 5 146925853.852 5      -349.614          32.000  
C21  23893645.131 6 124420481.940 6       660.184          38.750                                                                  
C10  35920405.911 6 187046982.588 6       419.434          38.000    35920406.253 5 144636593.389 5       324.298          32.250  
C11  23069046.186 6 120126574.696 6       299.267          36.000    23069048.159 5  92889506.431 5       231.880          31.500  
C12  23474109.443 5 122235843.168 5      -951.414          35.000    23474108.917 5  94520509.432 5      -736.029          32.750  
C13  36543618.474 6 190292210.835 6       -89.528          38.250    36543624.440 4 147146023.000 4       -69.728          28.000  
C24  24499266.244 6 127574095.685 6     -2912.391          37.000                                                                  
C 7  35717156.487 6 185988603.784 6       -16.123          38.250    35717153.760 5 143818188.241 5       -12.580          33.250  
C 1  37380993.429 6 194652639.253 6        -2.611          37.500    37380993.075 5 150517776.89215        -1.904          32.750  
> 2021  5 21  6 29 17.0000000  0 24                     
G19  22054741.646 6 115898450.513 6      1449.158          36.250    22054740.194 5  90310474.546 5      1129.221          34.000  
G30  23637556.505 5 124216213.054 5     -2690.813          33.250    23637563.256 5  96791818.540 5     -2096.733          31.500  
G 6  21632997.110 6 113682178.509 6      1081.140          39.250    21633000.912 6  88583527.778 6       842.454          39.000  
G17  21734723.466 6 114216754.357 6       680.545          38.750    21734722.095 6  89000054.041 6       530.295          38.500  
G14  20181324.151 7 106053573.046 7      -475.335          43.250    20181323.448 5  82639143.376 5      -370.389          34.750  
G28  20532610.398 6 107899601.938 6      1110.390          40.000    20532608.328 5  84077599.511 5       865.240          30.250  
R14  20545494.500 6 109518639.412 6     -3210.415          39.250    20545498.568 5  85181183.178 5     -2496.993          35.750  
R 2  21830731.165 6 116492581.335 6      2402.412          37.250    21830736.194 5  90605352.256 5      1868.544          33.000  
R18  22355147.141 5 119332917.78825       852.591          34.000                                                                  
R15  20079736.939 6 107299641.845 6       586.809          40.500    20079739.687 5  83455284.703 5       456.409          35.000  
R17  21007994.654 6 112417658.714 6      -670.805          36.750    21007996.533 4  87435954.205 4      -521.733          29.250  
C23  25479792.379 4 132679963.316 4      1658.853          29.750                                                                  
C 3  36370281.604 6 189389597.060 6        21.834          38.250    36370280.547 5 146448051.146 5        16.582          31.750  
C 4  38310512.726 5 199492893.849 5        -6.469          33.750    38310512.007 4 154260560.54924        -5.583          28.500  
C25  23239327.142 6 121013275.370 6      -821.216          39.250                                                                  
C 8  36489030.907 6 190007959.846 6      -450.543          36.750    36489028.718 5 146926202.587 5      -348.322          32.500  
C21  23893518.643 6 124419823.345 6       657.778          39.750                                                                  
C10  35920325.307 6 187046562.932 6       420.062          38.000    35920325.663 5 144636268.860 5       324.788          32.250  
C11  23068988.387 6 120126273.709 6       302.261          36.500    23068990.353 5  92889273.692 5       233.896          31.500  
C12  23474292.104 5 122236794.298 5      -950.262          35.750    23474291.618 5  94521244.941 5      -734.905          32.000  
C13  36543635.704 6 190292300.576 6       -89.572          38.500    36543641.656 4 147146092.366 4       -69.175          28.500  
C24  24499825.924 6 127577010.027 6     -2915.776          37.250                                                                  
C 7  35717159.684 6 185988620.434 6       -17.161          38.500    35717156.967 5 143818201.109 5       -13.073          33.250  
C 1  37380994.118 6 194652642.834 6        -4.464          37.000    37380995.474 5 150517779.160 5        -3.333          32.000  
> 2021  5 21  6 29 18.0000000  0 23                     
G19  22054465.591 6 115896999.818 6      1451.363          36.250    22054464.230 4  90309344.174 4      1130.940          28.750  
G30  23638068.989 5 124218906.452 5     -2695.483          34.500    23638075.721 5  96793917.294 5     -2100.375          33.000  
G 6  21632791.431 6 113681097.572 6      1080.124          38.750    21632795.227 6  88582685.497 6       841.662          38.500  
G17  21734593.752 6 114216072.647 6       682.312          38.500    21734592.365 6  88999522.845 6       531.674          38.750  
G14  20181414.808 7 106054049.506 7      -477.773          43.000    20181414.134 5  82639514.645 5      -372.289          34.500  
G28  20532399.085 6 107898491.441 6      1110.078          40.000    20532397.044 5  84076734.194 5       865.000          34.000  
R14  20546097.089 6 109521851.468 6     -3214.092          39.250    20546101.144 5  85183681.444 5     -2499.852          35.500  
R 2  21830281.246 6 116490180.278 6      2398.689          37.250    21830286.224 5  90603484.765 5      1865.648          32.250  
R18  22354988.508 5 119332063.84225       855.004          32.000                                                                  
R15  20079627.139 6 107299054.987 6       586.380          40.500    20079629.848 5  83454828.261 5       456.076          35.250  
R17  21008119.629 6 112418327.598 6      -668.073          37.250    21008121.561 4  87436474.452 4      -519.608          28.750  
C23  25479473.717 4 132678304.054 4      1659.138          29.250                                                                  
C 3  36370277.702 6 189389576.842 6        18.935          38.500                                                                  
C25  23239484.971 6 121014097.116 6      -822.433          39.750                                                                  
C 8  36489117.388 6 190008410.312 6      -450.643          37.000    36489115.249 5 146926550.944 5      -349.051          32.500  
C21  23893392.525 6 124419166.690 6       655.336          39.750                                                                  
C10  35920244.553 6 187046142.596 6       420.221          38.000    35920244.965 5 144635943.854 5       324.781          32.250  
C11  23068930.085 6 120125970.151 6       304.191          36.250    23068932.046 5  92889038.941 5       235.645          31.500  
C12  23474474.461 5 122237743.945 5      -949.565          34.750    23474473.973 5  94521979.271 5      -734.233          32.750  
C13  36543653.001 6 190292390.655 6       -91.009          38.750    36543658.990 4 147146162.045 4       -70.646          28.500  
C24  24500386.305 6 127579928.141 6     -2920.428          36.000                                                                  
C 7  35717163.123 6 185988638.331 6       -18.734          38.250    35717160.426 5 143818214.985 5       -14.907          33.500  
C 1  37380995.292 6 194652648.917 6        -7.971          37.000    37380996.351 5 150517783.826 5        -5.712          31.500  
> 2021  5 21  6 29 19.0000000  0 23                     
G19  22054189.103 5 115895546.908 5      1453.703          34.750    22054187.795 4  90308212.040 4      1132.769          27.250  
G30  23638582.178 5 124221603.006 5     -2697.945          33.250    23638588.725 5  96796018.504 5     -2102.292          33.750  
G 6  21632585.817 6 113680016.997 6      1080.452          37.000    21632589.596 6  88581843.492 6       841.916          36.750  
G17  21734463.663 6 114215389.111 6       684.542          37.000    21734462.316 6  88998990.219 6       533.410          36.750  
G14  20181505.767 6 106054527.571 6      -478.538          41.500    20181505.129 6  82639887.168 6      -372.884          37.250  
G28  20532187.817 6 107897381.127 6      1110.272          38.000    20532185.767 4  84075869.025 4       865.153          28.750  
R14  20546700.285 6 109525066.768 6     -3216.469          39.500    20546704.336 5  85186182.234 5     -2501.700          35.750  
R 2  21829831.870 6 116487782.431 6      2396.499          37.750    21829836.934 5  90601619.777 5      1863.945          31.750  
R18  22354830.107 5 119331208.696 5       855.965          32.250                                                                  
R15  20079517.374 6 107298468.262 6       587.188          40.500    20079520.060 5  83454371.925 5       456.705          36.000  
R17  21008244.165 6 112418994.122 6      -665.235          37.000    21008246.121 4  87436992.859 4      -517.402          28.750  
C23  25479154.729 5 132676642.818 5      1661.968          33.500                                                                  
C 3  36370274.177 6 189389558.563 6        17.996          40.750    36370273.672 5 146448021.82625        14.013          31.750  
C25  23239642.961 6 121014919.733 6      -822.818          41.750                                                                  
C 8  36489203.856 6 190008860.595 6      -449.946          39.250    36489201.706 5 146926899.099 5      -347.911          32.250  
C21  23893266.826 7 124418512.113 7       653.828          42.500                                                                  
C10  35920163.801 6 187045722.100 6       420.847          40.500    35920164.194 5 144635618.691 5       325.067          32.000  
C11  23068871.391 6 120125664.625 6       306.178          38.750    23068873.377 5  92888802.711 5       237.096          31.750  
C12  23474656.629 6 122238692.472 6      -948.128          39.000    23474656.116 5  94522712.712 5      -733.022          33.250  
C13  36543670.411 6 190292481.361 6       -90.853          41.500    36543676.381 4 147146232.194 4       -70.318          29.000  
C24  24500947.363 6 127582849.695 6     -2922.328          38.250                                                                  
C 7  35717166.837 6 185988657.654 6       -19.588          40.750    35717164.114 5 143818229.897 5       -15.353          33.500  
C 1  37380996.930 6 194652657.408 6        -9.439          39.500                                                                  
> 2021  5 21  6 29 20.0000000  0 24                     
G19  22053912.240 5 115894091.726 5      1456.299          36.000    22053910.990 4  90307078.123 4      1134.777          29.500  
G30  23639095.616 5 124224301.328 5     -2699.779          32.750    23639102.195 5  96798121.100 5     -2103.724          32.500  
G 6  21632380.101 6 113678936.075 6      1081.031          37.500    21632383.896 6  88581001.222 6       842.368          38.000  
G17  21734333.246 6 114214703.817 6       685.997          38.000    21734331.895 6  88998456.228 6       534.545          37.250  
G14  20181596.898 7 106055006.431 7      -478.969          42.250    20181596.292 5  82640260.307 5      -373.221          35.000  
G28  20531976.468 6 107896270.505 6      1110.669          39.000    20531974.474 5  84075003.591 5       865.455          34.250  
R14  20547303.805 6 109528283.902 6     -3217.722          39.500    20547307.858 5  85188684.449 5     -2502.674          35.250  
R 2  21829382.923 6 116485386.597 6      2395.203          37.750    21829387.964 5  90599756.358 5      1862.939          32.000  
R18  22354667.179 5 119330351.866 5       857.861          32.500                                                                  
R15  20079407.532 6 107297881.206 6       587.606          40.250    20079410.204 5  83453915.329 5       457.030          35.500  
R17  21008368.346 6 112419658.433 6      -663.267          37.250    21008370.233 4  87437509.545 4      -515.872          29.750  
C23  25478835.384 4 132674979.843 4      1663.467          29.250                                                                  
C 3  36370270.827 6 189389541.119 6        17.114          38.000    36370268.740 5 146448007.859 5        13.438          32.000  
C 4  38310518.809 5 199492915.12915       -12.236          32.500                                                                  
C25  23239800.943 6 121015742.375 6      -822.070          39.250                                                                  
C 8  36489290.202 6 190009310.141 6      -449.026          36.000    36489288.032 5 146927246.697 5      -346.874          32.250  
C21  23893141.359 6 124417858.765 6       653.397          39.500                                                                  
C10  35920082.892 6 187045300.855 6       421.700          37.500    35920083.318 5 144635292.956 5       325.837          32.000  
C11  23068812.323 5 120125357.052 5       308.380          35.750    23068814.313 5  92888564.898 5       238.408          31.250  
C12  23474838.554 5 122239639.853 5      -946.872          34.000    23474838.039 5  94523445.187 5      -731.735          30.250  
C13  36543687.798 6 190292571.894 6       -90.268          38.250    36543693.726 4 147146302.172 4       -70.059          29.250  
C24  24501508.823 5 127585773.396 5     -2924.727          35.750                                                                  
C 7  35717170.654 6 185988677.550 6       -20.170          38.250    35717167.934 5 143818245.275 5       -15.587          33.000  
C 1  37380998.824 6 194652667.305 6       -10.530          36.500    37381000.332 5 150517796.51615        -7.689          32.250  
> 2021  5 21  6 29 21.0000000  0 24                     
G19  22053634.939 5 115892634.545 5      1458.561          35.500    22053633.597 5  90305942.607 5      1136.529          30.000  
G30  23639609.412 5 124227001.556 5     -2701.468          33.500    23639615.992 5  96800225.159 5     -2105.040          33.000  
G 6  21632174.385 6 113677855.047 6      1081.036          37.750    21632178.172 6  88580158.866 6       842.371          38.000  
G17  21734202.522 6 114214016.934 6       687.745          37.750    21734201.200 6  88997920.994 6       535.906          38.000  
G14  20181688.225 7 106055486.439 7      -480.699          42.000    20181687.656 5  82640634.335 5      -374.571          35.500  
G28  20531765.161 6 107895159.820 6      1110.997          39.000    20531763.142 5  84074138.105 5       865.709          31.000  
R14  20547907.734 6 109531503.239 6     -3220.157          39.750    20547911.799 5  85191188.378 5     -2504.568          35.750  
R 2  21828934.446 6 116482993.265 6      2391.672          37.000    21828939.488 5  90597894.883 5      1860.193          31.000  
R18  22354507.381 5 119329493.502 5       859.300          33.000                                                                  
R15  20079297.671 6 107297294.061 6       586.913          40.250    20079300.340 5  83453458.661 5       456.490          35.250  
R17  21008492.065 6 112420320.656 6      -661.186          37.500    21008494.009 4  87438024.615 4      -514.252          29.000  
C23  25478515.687 4 132673314.991 4      1666.350          29.250                                                                  
C 3  36370267.691 6 189389524.802 6        15.558          37.750    36370265.703 5 146447995.234 5        11.962          32.000  
C 4  38310521.026 5 199492929.18225       -15.090          32.750                                                                  
C25  23239958.980 6 121016565.308 6      -823.392          39.000                                                                  
C 8  36489376.440 6 190009759.251 6      -448.920          36.250    36489374.316 5 146927594.014 5      -347.315          32.500  
C21  23893016.200 6 124417207.033 6       650.824          39.250                                                                  
C10  35920001.924 6 187044879.142 6       422.225          37.250    35920002.337 5 144634966.866 5       326.067          32.250  
C11  23068752.906 6 120125047.630 6       310.328          36.000    23068754.877 5  92888325.615 5       240.015          31.250  
C12  23475020.301 5 122240586.364 5      -946.411          32.750    23475019.874 5  94524177.178 5      -731.812          30.250  
C13  36543705.200 6 190292662.485 6       -90.801          38.250    36543711.147 4 147146372.261 4       -70.515          29.000  
C24  24502070.711 6 127588699.313 6     -2926.952          36.250                                                                  
C 7  35717174.624 6 185988698.252 6       -21.221          38.000    35717171.885 5 143818261.294 5       -16.756          33.500  
C 1  37381001.047 6 194652678.808 6       -13.056          36.500    37381002.611 5 150517804.956 5        -9.919          32.000  
> 2021  5 21  6 29 22.0000000  0 24                     
G19  22053357.276 5 115891175.458 5      1459.382          35.750    22053355.998 3  90304805.608 3      1137.158          23.500  
G30  23640123.647 5 124229703.933 5     -2703.995          33.000    23640130.273 5  96802330.913 5     -2107.010          33.750  
G 6  21631968.650 6 113676773.961 6      1081.206          37.750    21631972.433 6  88579316.459 6       842.502          36.500  
G17  21734071.564 6 114213328.709 6       688.386          37.750    21734070.197 6  88997384.723 6       536.408          37.000  
G14  20181779.834 7 106055967.793 7      -482.176          42.000    20181779.260 6  82641009.412 6      -375.721          36.250  
G28  20531553.824 6 107894049.321 6      1110.431          39.000    20531551.870 5  84073272.784 5       865.270          34.000  
R14  20548512.113 6 109534724.953 6     -3222.878          39.000    20548516.180 5  85193694.149 5     -2506.686          35.250  
R 2  21828486.505 6 116480602.730 6      2389.210          36.750    21828491.539 5  90596035.580 5      1858.277          31.500  
R18  22354345.167 5 119328633.542 5       860.132          32.500                                                                  
R15  20079187.814 6 107296706.857 6       586.823          40.000    20079190.469 5  83453001.946 5       456.420          35.000  
R17  21008615.458 6 112420981.020 6      -660.077          37.000    21008617.432 4  87438538.235 4      -513.390          29.000  
C23  25478195.679 4 132671648.498 4      1667.470          29.250                                                                  
C 3  36370264.804 6 189389509.818 6        14.474          37.750                                                                  
C 4  38310526.404 5 199492945.28225       -17.507          33.250                                                                  
C25  23240117.068 6 121017388.545 6      -823.387          39.000                                                                  
C 8  36489462.639 6 190010208.054 6      -448.367          36.500    36489460.500 5 146927941.065 5      -347.130          32.250  
C21  23892891.441 6 124416557.361 6       648.627          39.000                                                                  
C10  35919920.895 6 187044457.221 6       421.829          37.500    35919921.303 5 144634640.587 5       326.081          32.250  
C11  23068693.173 6 120124736.518 6       311.585          36.250    23068695.126 5  92888085.022 5       241.269          31.750  
C12  23475201.951 6 122241532.257 6      -945.944          36.000    23475201.535 5  94524908.599 5      -731.514          34.000  
C13  36543722.645 6 190292753.231 6       -90.648          38.250    36543728.568 4 147146442.362 4       -69.750          29.000  
C24  24502633.096 6 127591627.787 6     -2929.542          36.000                                                                  
C 7  35717178.823 6 185988720.148 6       -22.954          37.750    35717176.095 5 143818278.201 5       -17.236          34.000  
C 1  37381003.651 6 194652692.394 6       -14.597          36.250    37381003.733 5 150517815.456 5       -11.287          32.250  
> 2021  5 21  6 29 23.0000000  0 23                     
G19  22053079.260 5 115889714.433 5      1462.063          35.750    22053078.238 4  90303667.160 4      1139.261          27.500  
G30  23640638.091 5 124232407.620 5     -2704.075          33.500    23640644.690 5  96804437.675 5     -2107.073          32.750  
G 6  21631762.869 6 113675692.476 6      1082.138          37.750    21631766.611 6  88578473.742 6       843.226          39.000  
G17  21733940.346 6 114212639.098 6       690.038          38.000    21733938.962 6  88996847.368 6       537.695          37.000  
G14  20181871.611 7 106056450.074 7      -482.720          42.250    20181871.029 5  82641385.217 5      -376.145          35.000  
G28  20531342.483 6 107892938.726 6      1110.654          38.750    20531340.517 5  84072407.413 5       865.450          31.500  
R14  20549116.760 6 109537948.221 6     -3223.529          39.000    20549120.843 5  85196201.124 5     -2507.195          35.250  
R 2  21828038.906 6 116478214.328 6      2387.697          36.500    21828043.932 5  90594177.942 5      1857.102          32.250  
R18  22354185.396 5 119327772.082 5       862.131          32.000                                                                  
R15  20079077.833 6 107296119.387 6       587.504          40.000    20079080.540 5  83452545.027 5       456.949          35.500  
R17  21008738.503 6 112421639.514 6      -657.457          36.750    21008740.486 4  87439050.393 4      -511.353          29.250  
C23  25477875.346 4 132669980.415 4      1669.161          28.250                                                                  
C 3  36370262.084 6 189389495.580 6        14.249          37.750    36370260.069 5 146447967.13615        11.079          32.500  
C25  23240275.132 6 121018211.702 6      -823.023          39.000                                                                  
C 8  36489548.721 6 190010656.378 6      -447.648          36.500    36489546.588 5 146928287.725 5      -346.284          32.250  
C21  23892766.965 6 124415909.105 6       647.641          39.000                                                                  
C10  35919839.767 6 187044034.750 6       422.536          37.500    35919840.166 5 144634313.930 5       326.826          32.500  
C11  23068633.096 6 120124423.701 6       313.576          36.000    23068635.032 5  92887843.169 5       242.038          32.250  
C12  23475383.457 5 122242477.476 5      -945.507          32.500    23475383.089 5  94525639.478 5      -730.875          30.250  
C13  36543740.055 6 190292843.836 6       -90.766          38.250    36543745.954 4 147146512.412 4       -69.733          29.250  
C24  24503195.813 5 127594557.998 5     -2931.134          35.750                                                                  
C 7  35717183.131 6 185988742.659 6       -22.755          37.750    35717180.418 5 143818295.641 5       -17.902          33.750  
C 1  37381006.514 6 194652707.327 6       -14.902          36.250    37381008.958 5 150517827.047 5       -12.123          32.250  
> 2021  5 21  6 29 24.0000000  0 22                     
G19  22052800.986 5 115888252.026 5      1461.836          35.250    22052799.738 5  90302527.593 5      1139.073          30.750  
G30  23641152.749 5 124235112.101 5     -2704.126          32.250    23641159.433 5  96806545.072 5     -2107.112          33.000  
G 6  21631557.011 6 113674610.681 6      1082.036          38.000    21631560.721 6  88577630.784 6       843.147          37.750  
G17  21733808.924 6 114211948.367 6       690.561          38.000    21733807.439 6  88996309.129 6       538.100          39.000  
G14  20181963.499 7 106056932.999 7      -483.665          42.250    20181962.907 6  82641761.520 6      -376.882          36.750  
G28  20531131.144 6 107891828.047 6      1110.335          38.500    20531129.112 5  84071541.957 5       865.202          32.000  
R14  20549721.665 6 109541172.632 6     -3224.405          38.750    20549725.727 5  85198708.993 5     -2507.874          35.000  
R 2  21827591.551 6 116475827.358 6      2386.486          36.750    21827596.604 5  90592321.412 5      1856.159          32.250  
R18  22354025.311 5 119326909.330 5       862.046          31.500                                                                  
R15  20078967.890 6 107295531.882 6       586.711          40.500    20078970.599 5  83452088.076 5       456.331          35.250  
R17  21008861.274 6 112422296.615 6      -657.091          37.500    21008863.261 4  87439561.475 4      -511.068          28.750  
C23  25477554.808 4 132668311.134 4      1669.100          28.500                                                                  
C 3  36370259.419 6 189389481.719 6        13.511          38.250    36370258.878 5 146447955.925 5        10.612          32.750  
C25  23240433.216 6 121019034.903 6      -823.575          39.000                                                                  
C 8  36489634.722 6 190011104.201 6      -448.068          36.750    36489632.567 5 146928634.025 5      -346.470          33.000  
C21  23892642.676 6 124415261.874 6       646.491          39.000                                                                  
C10  35919758.555 6 187043611.828 6       422.607          37.750    35919758.898 5 144633986.898 5       327.001          32.000  
C11  23068572.800 5 120124109.573 5       313.902          36.000    23068574.719 5  92887600.254 5       242.731          32.250  
C13  36543757.390 6 190292934.131 6       -90.360          38.250    36543763.342 4 147146582.279 4       -70.015          29.250  
C24  24503758.729 6 127597489.207 6     -2931.614          36.000                                                                  
C 7  35717187.525 6 185988765.530 6       -23.234          37.750    35717184.852 5 143818313.320 5       -18.168          34.000  
C 1  37381009.554 6 194652723.154 6       -16.636          36.750    37381010.333 5 150517839.254 5       -12.734          32.500  
> 2021  5 21  6 29 25.0000000  0 22                     
G19  22052522.753 5 115886789.946 5      1461.253          35.250    22052521.416 3  90301388.324 3      1138.632          21.500  
G30  23641667.315 5 124237816.465 5     -2703.766          32.750    23641674.097 5  96808652.371 5     -2106.829          32.750  
G 6  21631351.277 6 113673529.505 6      1081.070          37.750    21631354.970 6  88576788.315 6       842.395          37.250  
G17  21733677.570 6 114211258.004 6       690.032          37.750    21733676.064 6  88995771.184 6       537.689          37.750  
G14  20182055.547 7 106057416.694 7      -483.530          42.250    20182054.919 5  82642138.418 5      -376.778          36.000  
G28  20530919.928 6 107890718.089 6      1110.133          38.500    20530917.994 5  84070677.058 5       865.039          31.250  
R14  20550326.691 6 109544397.683 6     -3224.932          39.500    20550330.747 5  85201217.370 5     -2508.284          35.250  
R 2  21827144.325 6 116473440.855 6      2386.799          36.250    21827149.390 5  90590465.241 5      1856.401          31.250  
R18  22353861.604 5 119326046.970 5       861.039          34.000                                                                  
R15  20078858.168 6 107294945.515 6       585.842          40.500    20078860.880 5  83451632.015 5       455.656          36.000  
R17  21008984.137 6 112422954.150 6      -657.784          37.750    21008986.151 4  87440072.879 4      -511.612          29.250  
C23  25477234.371 4 132666642.559 4      1667.154          29.250                                                                  
C 3  36370256.785 6 189389467.978 6        13.748          38.250                                                                  
C25  23240591.429 6 121019858.703 6      -823.856          39.250                                                                  
C 8  36489720.772 6 190011552.364 6      -448.069          37.000    36489718.606 5 146928980.554 5      -346.564          32.750  
C21  23892518.486 6 124414615.231 6       646.829          38.750                                                                  
C10  35919677.397 6 187043189.230 6       422.765          37.750    35919677.746 5 144633660.100 5       327.069          32.750  
C11  23068512.517 5 120123795.717 5       313.673          36.000    23068514.418 5  92887357.564 5       242.466          32.500  
C13  36543774.796 6 190293024.742 6       -90.317          38.750    36543780.740 4 147146652.357 4       -70.126          29.000  
C24  24504321.659 5 127600420.524 5     -2930.768          35.750                                                                  
C 7  35717191.975 6 185988788.703 6       -22.738          38.250    35717189.293 5 143818331.231 5       -17.641          34.000  
C 1  37381012.593 6 194652738.970 6       -14.799          36.500    37381014.943 5 150517851.536 5       -12.175          32.250  
> 2021  5 21  6 29 26.0000000  0 23                     
G19  22052244.691 5 115885328.747 5      1461.033          35.250    22052243.478 5  90300249.637 5      1138.444          32.250  
G 3  22226913.870 4 116803201.95414     -1732.423          28.750    22226917.620 4  91015510.88114     -1349.940          27.250  
G30  23642181.877 5 124240520.507 5     -2702.781          33.250    23642188.639 5  96810759.415 5     -2106.062          33.750  
G 6  21631145.707 6 113672449.216 6      1080.505          38.250    21631149.389 6  88575946.533 6       841.955          37.750  
G17  21733546.299 6 114210568.212 6       689.647          38.250    21733544.766 6  88995233.685 6       537.388          37.250  
G14  20182147.731 6 106057901.083 6      -484.419          41.750    20182147.093 6  82642515.862 6      -377.472          36.750  
G28  20530708.892 6 107889609.018 6      1108.864          38.750    20530706.847 5  84069812.829 5       864.051          35.250  
R14  20550931.765 6 109547623.077 6     -3225.396          38.750    20550935.815 5  85203726.005 5     -2508.645          35.750  
R 2  21826697.005 5 116471054.187 5      2387.688          35.000    21826702.171 5  90588608.945 5      1857.093          32.000  
R18  22353701.011 5 119325185.582 5       861.369          32.750                                                                  
R15  20078748.697 6 107294360.720 6       584.246          40.250    20078751.444 5  83451177.178 5       454.416          35.500  
R17  21009107.164 5 112423612.383 5      -657.314          35.250    21009109.141 4  87440584.827 4      -511.248          29.000  
C23  25476914.221 4 132664975.409 4      1666.823          29.000                                                                  
C 3  36370254.126 6 189389454.090 6        14.329          38.500    36370253.877 5 146447947.06915        10.822          33.250  
C25  23240749.828 6 121020683.454 6      -824.789          39.750                                                                  
C 8  36489806.930 6 190012001.042 6      -448.818          37.000    36489804.756 5 146929327.493 5      -347.029          33.000  
C21  23892394.313 6 124413968.672 6       646.619          39.250                                                                  
C10  35919596.317 6 187042767.122 6       421.996          37.750    35919596.722 5 144633333.703 5       326.429          33.000  
C11  23068452.396 6 120123482.680 6       313.341          36.750    23068454.287 5  92887115.523 5       242.113          32.500  
C13  36543792.279 6 190293115.862 6       -91.117          38.750    36543798.226 4 147146722.848 4       -70.952          29.250  
C24  24504884.523 5 127603351.498 5     -2930.713          35.750                                                                  
C 7  35717196.457 6 185988811.956 6       -23.241          38.250    35717193.781 5 143818349.193 5       -17.725          33.750  
C 1  37381015.557 6 194652754.412 6       -14.881          36.750    37381017.029 5 150517863.438 5       -11.344          32.250  
> 2021  5 21  6 29 27.0000000  0 22                     
G19  22051966.699 6 115883867.893 6      1461.172          37.500    22051965.486 5  90299111.338 5      1138.570          32.250  
G30  23642696.234 5 124243223.636 5     -2703.510          34.500    23642703.042 5  96812865.753 5     -2106.631          35.250  
G 6  21630940.172 6 113671369.216 6      1079.962          39.500    21630943.821 6  88575104.986 6       841.533          40.000  
G17  21733415.106 5 114209878.698 5       689.518          35.500    21733413.661 5  88994696.392 5       537.285          30.250  
G14  20182239.928 7 106058385.628 7      -484.569          43.500    20182239.334 5  82642893.425 5      -377.589          35.250  
G28  20530497.937 6 107888500.341 6      1108.761          40.750    20530495.965 4  84068948.937 4       863.974          28.500  
R14  20551536.789 6 109550848.196 6     -3224.840          37.750    20551540.854 5  85206234.432 5     -2508.211          35.750  
R 2  21826249.648 5 116468666.890 5      2386.898          34.750    21826254.719 5  90586752.157 5      1856.478          32.250  
R18  22353539.513 4 119324324.661 4       861.339          29.750    22353543.019 4  92807823.91114       669.930          25.250  
R15  20078639.431 6 107293776.858 6       583.806          38.500    20078642.185 5  83450723.069 5       454.074          36.000  
R17  21009230.266 5 112424271.144 5      -659.417          30.250    21009232.250 4  87441097.188 4      -512.885          24.250  
C23  25476594.204 5 132663310.63115      1665.534          30.500                                                                  
C 3  36370251.341 6 189389439.602 6        14.947          39.000    36370249.350 5 146447935.365 5        11.224          33.250  
C25  23240908.244 6 121021508.447 6      -824.951          40.000                                                                  
C 8  36489893.074 6 190012449.719 6      -448.996          37.750    36489890.908 5 146929674.429 5      -346.859          33.000  
C21  23892270.094 6 124413321.786 6       646.823          39.750                                                                  
C10  35919515.277 6 187042345.065 6       422.321          38.250    35919515.629 5 144633007.332 5       326.648          33.000  
C11  23068392.346 6 120123169.976 6       312.261          37.250    23068394.244 5  92886873.760 5       241.334          33.250  
C13  36543809.735 6 190293206.843 6       -90.851          39.250    36543815.682 4 147146793.139 4       -70.249          29.250  
C24  24505447.186 6 127606281.473 6     -2929.208          36.750                                                                  
C 7  35717200.853 6 185988834.792 6       -22.674          38.750    35717198.189 5 143818366.870 5       -17.431          34.250  
C 1  37381018.358 6 194652768.936 6       -13.843          37.000                                                                  
> 2021  5 21  6 29 28.0000000  0 20                     
G19  22051688.816 5 115882407.676 5      1459.527          31.750    22051687.542 5  90297973.596 5      1137.308          30.500  
G30  23643210.474 5 124245925.712 5     -2702.010          33.750    23643217.189 5  96814971.259 5     -2105.464          33.250  
G 6  21630734.699 6 113670289.378 6      1079.596          38.000    21630738.335 6  88574263.551 6       841.247          37.750  
G14  20182332.206 6 106058870.493 6      -485.380          42.000    20182331.568 5  82643271.242 5      -378.221          36.000  
G28  20530287.076 6 107887392.159 6      1107.642          39.000    20530285.084 5  84068085.410 5       863.099          32.000  
R14  20552141.775 6 109554072.993 6     -3224.962          38.250    20552145.828 5  85208742.606 5     -2508.306          35.250  
R 2  21825802.210 5 116466279.403 5      2386.920          34.750    21825807.309 5  90584895.229 5      1856.496          32.000  
R18  22353377.991 5 119323464.123 5       860.415          30.750    22353382.636 4  92807154.62724       669.212          26.750  
R15  20078530.347 6 107293193.936 6       582.287          39.500    20078533.103 5  83450269.686 5       452.891          35.250  
C23  25476274.361 4 132661645.15524      1664.950          27.500                                                                  
C 3  36370248.438 6 189389424.465 6        15.348          37.750    36370245.196 5 146447923.673 5        11.635          33.000  
C25  23241066.715 6 121022333.593 6      -825.098          38.750                                                                  
C 8  36489979.242 6 190012898.436 6      -448.710          36.250    36489977.074 5 146930021.430 5      -347.304          33.500  
C21  23892145.905 6 124412675.108 6       645.950          38.500                                                                  
C10  35919434.241 6 187041923.069 6       421.717          36.500    35919434.587 5 144632681.058 5       326.223          33.250  
C11  23068332.374 5 120122857.679 5       312.256          35.000    23068334.268 5  92886632.206 5       241.503          32.750  
C13  36543827.151 6 190293297.589 6       -90.611          37.500    36543833.121 5 147146863.329 5       -70.524          30.000  
C24  24506009.686 5 127609210.591 5     -2928.484          35.250                                                                  
C 7  35717205.194 6 185988857.377 6       -22.286          36.250    35717202.536 5 143818384.351 5       -17.341          33.250  
C 1  37381021.040 5 194652782.913 5       -13.666          35.750                                                                  
> 2021  5 21  6 29 29.0000000  0 20                     
G30  23643724.409 5 124248626.683 5     -2699.619          33.250    23643731.138 5  96817075.913 5     -2103.602          33.000  
G 6  21630529.223 6 113669209.565 6      1080.164          38.000    21630532.853 6  88573422.148 6       841.692          36.500  
G14  20182424.653 6 106059356.227 6      -485.846          41.750    20182424.006 6  82643649.733 6      -378.582          36.750  
G28  20530076.383 6 107886285.004 6      1107.310          38.500    20530074.401 5  84067222.688 5       862.839          33.750  
R14  20552746.674 6 109557297.524 6     -3224.013          37.750    20552750.738 5  85211250.569 5     -2507.569          35.500  
R 2  21825354.946 5 116463892.870 5      2385.404          34.500    21825360.092 5  90583039.049 5      1855.319          32.250  
R18  22353217.802 5 119322603.469 5       861.578          31.750    22353224.784 4  92806485.24124       670.116          25.750  
R15  20078421.445 6 107292611.982 6       582.058          39.000    20078424.191 5  83449817.049 5       452.711          35.000  
C23  25475954.655 4 132659980.71324      1664.202          27.000                                                                  
C 2  37062905.683 5 192996267.99915        21.148          32.250    37062903.320 5 149236958.80415        15.990          31.000  
C 3  36370245.484 6 189389409.083 6        16.324          37.500                                                                  
C25  23241225.182 6 121023158.794 6      -824.610          37.750                                                                  
C 8  36490065.524 6 190013347.700 6      -448.762          36.250    36490063.386 5 146930368.842 5      -347.589          33.250  
C21  23892021.975 6 124412029.872 6       644.703          37.000                                                                  
C10  35919353.313 6 187041501.732 6       421.598          36.750    35919353.678 5 144632355.247 5       325.811          33.000  
C11  23068272.533 5 120122546.157 5       311.062          34.750    23068274.431 5  92886391.301 5       241.192          31.500  
C13  36543844.572 6 190293388.284 6       -90.277          37.500    36543850.524 5 147146933.451 5       -69.440          30.000  
C24  24506572.012 5 127612138.849 5     -2927.178          35.250                                                                  
C 7  35717209.657 6 185988880.561 6       -22.805          37.250    35717207.000 5 143818402.297 5       -18.241          34.000  
C 1  37381023.797 6 194652797.258 6       -14.046          36.500    37381023.557 5 150517895.08015       -11.310          33.250  
> 2021  5 21  6 29 30.0000000  0 20                     
G30  23644237.717 5 124251324.243 5     -2695.610          34.750    23644244.359 5  96819177.888 5     -2100.477          36.000  
G 6  21630323.408 6 113668128.063 6      1082.419          38.750    21630327.041 6  88572579.422 6       843.446          39.250  
G14  20182517.187 6 106059842.455 6      -486.317          42.000    20182516.501 5  82644028.621 5      -378.946          34.000  
G28  20529865.864 6 107885178.650 6      1106.017          38.250    20529863.788 5  84066360.605 5       861.832          33.750  
R14  20553351.216 6 109560520.185 6     -3221.383          38.250    20553355.305 5  85213757.073 5     -2505.525          35.000  
R 2  21824907.996 5 116461507.796 5      2384.546          33.000    21824913.110 5  90581184.001 5      1854.653          32.000  
R18  22353055.894 4 119321741.689 4       862.850          26.000    22353062.689 3  92805814.98523       671.105          22.500  
R15  20078312.517 6 107292029.975 6       582.342          39.500    20078315.267 5  83449364.367 5       452.930          34.250  
C23  25475635.026 4 132658316.15824      1664.291          27.500                                                                  
C 2  37062902.291 5 192996245.13525        24.778          33.500    37062899.316 5 149236941.09025        19.008          31.500  
C 3  36370242.274 6 189389392.365 6        17.870          37.000    36370241.369 5 146447895.35615        13.438          32.500  
C25  23241383.301 6 121023982.189 6      -821.839          38.500                                                                  
C 8  36490151.812 6 190013797.071 6      -449.524          36.750    36490149.693 5 146930716.294 5      -347.638          33.750  
C21  23891898.525 6 124411387.095 6       640.717          36.500                                                                  
C10  35919272.482 6 187041080.789 6       420.805          36.500    35919272.890 5 144632029.731 5       325.347          33.000  
C11  23068212.906 4 120122235.667 4       309.609          26.000    23068214.777 4  92886141.22614       238.566          24.250  
C13  36543861.706 6 190293477.483 6       -87.965          36.750    36543867.684 5 147147002.474 5       -68.517          30.500  
C24  24507133.879 6 127615064.634 6     -2924.006          36.250                                                                  
C 7  35717214.178 6 185988904.076 6       -23.474          37.250    35717211.492 5 143818420.449 5       -18.159          34.500  
C 1  37381026.651 6 194652812.128 6       -14.948          37.000    37381026.405 5 150517906.059 5       -11.492          33.000  
> 2021  5 21  6 29 31.0000000  0 16                     
G30  23644750.048 5 124254016.685 5     -2689.365          34.000    23644756.708 5  96821275.902 5     -2095.612          33.750  
G 6  21630117.160 6 113667044.291 6      1084.176          39.500    21630120.782 6  88571734.907 6       844.810          39.000  
G14  20182609.738 7 106060328.812 7      -486.681          42.500    20182609.068 5  82644407.600 5      -379.234          34.750  
G28  20529655.492 6 107884073.095 6      1105.122          38.250    20529653.356 5  84065499.133 5       861.135          34.500  
R14  20553955.171 6 109563739.511 6     -3217.922          38.250    20553959.267 5  85216260.986 5     -2502.833          35.500  
R 2  21824461.276 5 116459124.248 5      2382.455          35.250    21824466.399 4  90579330.148 4      1853.029          30.000  
R15  20078203.576 6 107291447.750 6       581.755          38.750    20078206.316 5  83448911.521 5       452.474          33.250  
C 3  36370238.632 6 189389373.396 6        19.818          37.250    36370236.231 5 146447880.110 5        15.768          33.000  
C25  23241540.949 6 121024803.021 6      -820.165          38.500                                                                  
C 8  36490238.118 6 190014246.489 6      -450.225          36.500    36490235.978 5 146931063.793 5      -348.036          33.500  
C21  23891775.595 6 124410746.980 6       638.316          38.750                                                                  
C10  35919191.738 6 187040660.251 6       419.790          36.000    35919192.091 5 144631704.530 5       324.503          33.000  
C13  36543878.442 6 190293564.588 6       -86.116          36.500    36543884.371 5 147147069.810 5       -66.986          31.750  
C24  24507694.971 6 127617986.402 6     -2919.643          36.500                                                                  
C 7  35717218.700 6 185988927.600 6       -23.809          37.750    35717216.024 5 143818438.637 5       -18.353          34.500  
C 1  37381029.524 6 194652827.115 6       -15.005          36.750    37381030.177 5 150517917.631 5       -11.515          32.750  
> 2021  5 21  6 29 32.0000000  0 17                     
G19  22050578.274 6 115876570.36616      1454.005          37.250    22050583.797 4  90293453.54614      1132.991          27.000  
G30  23645261.129 5 124256702.484 5     -2682.220          34.250    23645267.804 5  96823368.698 5     -2090.054          32.250  
G 6  21629910.423 6 113665957.928 6      1087.823          38.500    21629914.004 6  88570888.374 6       847.650          38.000  
G14  20182702.174 7 106060814.497 7      -484.689          42.000    20182701.518 5  82644786.044 5      -377.683          35.250  
G28  20529445.247 6 107882968.255 6      1104.586          38.250    20529443.257 4  84064638.201 4       860.713          29.500  
R14  20554558.210 6 109566954.022 6     -3211.545          37.750    20554562.314 5  85218761.150 5     -2497.875          33.750  
R 2  21824014.517 5 116456740.205 5      2385.044          35.250    21824019.657 5  90577475.886 5      1855.039          32.500  
R15  20078094.613 6 107290865.368 6       582.346          37.500    20078097.325 5  83448458.554 5       452.933          33.000  
C 3  36370234.314 6 189389350.926 6        24.721          38.250    36370233.091 5 146447862.750 5        18.971          32.250  
C25  23241698.007 6 121025620.862 6      -816.373          40.250                                                                  
C 8  36490324.419 6 190014695.786 6      -449.171          36.250    36490322.258 5 146931411.217 5      -347.409          33.750  
C21  23891652.996 6 124410108.546 6       638.211          37.000                                                                  
C10  35919111.021 6 187040239.955 6       420.585          36.250    35919111.370 5 144631379.530 5       324.960          33.250  
C13  36543894.665 6 190293649.115 6       -82.836          37.250    36543900.590 5 147147135.095 5       -63.807          32.250  
C24  24508254.930 5 127620902.207 5     -2911.382          35.750                                                                  
C 7  35717223.064 6 185988950.329 6       -21.684          38.250    35717220.427 5 143818456.201 5       -16.774          34.250  
C 1  37381032.139 6 194652840.706 6       -11.988          36.750                                                                  
> 2021  5 21  6 29 33.0000000  0 19                     
G19  22050303.016 6 115875118.08526      1450.044          37.750    22050300.373 4  90292321.96824      1129.904          30.000  
G30  23645770.812 5 124259380.969 5     -2674.910          32.750    23645777.484 4  96825455.809 4     -2084.356          30.000  
G 6  21629703.351 6 113664869.814 6      1088.266          36.750    21629706.916 5  88570040.487 5       847.992          35.500  
G14  20182794.380 6 106061299.008 6      -484.176          42.000    20182793.733 5  82645163.579 5      -377.284          35.500  
G28  20529235.094 6 107881863.949 6      1103.669          38.750    20529233.113 5  84063777.716 5       860.003          32.750  
R14  20555160.282 6 109570163.281 6     -3207.250          37.000    20555164.377 5  85221257.243 5     -2494.531          34.250  
R 2  21823567.369 5 116454354.022 5      2387.594          34.750    21823572.539 5  90575619.966 5      1857.021          32.000  
R15  20077985.682 6 107290283.434 6       581.187          38.500    20077988.424 5  83448005.934 5       452.031          33.250  
C 3  36370229.251 6 189389324.540 6        27.930          38.000                                                                  
C 4  38310566.284 4 199493168.74914       -58.858          29.250                                                                  
C25  23241854.598 6 121026436.257 6      -814.535          38.000                                                                  
C 8  36490410.689 5 190015145.054 5      -449.741          35.750    36490408.523 5 146931758.617 5      -347.693          34.000  
C21  23891530.362 6 124409469.960 6       638.674          38.000                                                                  
C10  35919030.341 6 187039819.916 6       419.463          36.250    35919030.730 5 144631054.726 5       324.681          33.500  
C11  23068036.018 6 120121317.56516       302.148          36.250    23068037.332 5  92885426.09915       233.374          35.250  
C13  36543910.449 6 190293731.285 6       -81.558          38.500    36543916.392 5 147147198.642 5       -62.903          31.500  
C24  24508813.597 6 127623811.333 6     -2905.723          38.000                                                                  
C 7  35717227.104 6 185988971.390 6       -20.323          38.500    35717224.480 5 143818472.484 5       -15.742          34.500  
C 1  37381034.214 6 194652851.518 6        -9.664          37.000    37381033.072 5 150517928.98815        -7.523          32.500  
> 2021  5 21  6 29 34.0000000  0 18                     
G19  22050027.098 6 115873670.08926      1445.336          37.750    22050027.043 4  90291193.67724      1126.235          29.750  
G30  23646279.597 5 124262054.611 5     -2672.148          34.250    23646286.222 5  96827539.158 5     -2082.205          33.500  
G 6  21629496.356 6 113663782.044 6      1087.113          37.500    21629499.883 6  88569192.843 6       847.090          36.750  
G14  20182886.628 6 106061783.813 6      -485.525          41.750    20182885.988 5  82645541.332 5      -378.339          34.750  
G28  20529025.370 6 107880761.817 6      1100.389          39.500    20529023.395 5  84062918.908 5       857.443          34.750  
R14  20555761.748 6 109573369.309 6     -3204.879          36.750    20555765.831 5  85223750.827 5     -2492.686          33.750  
R 2  21823119.981 5 116451966.436 5      2387.903          35.500    21823125.105 5  90573762.943 5      1857.258          30.500  
R15  20077877.248 6 107289703.947 6       577.710          38.750    20077879.977 5  83447555.207 5       449.322          34.750  
C 3  36370223.757 6 189389295.966 6        28.966          37.000    36370222.706 5 146447814.75215        22.425          30.750  
C25  23242011.175 6 121027251.594 6      -816.018          37.500                                                                  
C 8  36490497.260 5 190015595.873 5      -451.999          35.750    36490495.123 5 146932107.226 5      -349.448          34.000  
C21  23891407.829 6 124408831.992 6       637.497          38.250                                                                  
C10  35918950.019 6 187039401.665 6       416.592          37.250    35918950.434 5 144630731.314 5       322.349          33.250  
C11  23067978.415 6 120121016.74226       298.303          36.250    23067979.922 5  92885193.45025       230.677          35.500  
C13  36543926.186 6 190293813.161 6       -82.438          38.000    36543932.126 5 147147261.940 5       -63.752          31.500  
C24  24509371.373 5 127626715.839 5     -2902.684          34.500                                                                  
C 7  35717231.070 6 185988992.154 6       -21.071          38.500    35717228.447 5 143818488.505 5       -16.018          34.250  
C 1  37381035.927 6 194652860.476 6        -8.074          37.250    37381037.128 5 150517935.403 5        -6.533          34.000  
> 2021  5 21  6 29 35.0000000  0 18                     
G19  22049751.741 6 115872226.61526      1441.692          37.500    22049750.482 4  90290068.88624      1123.397          29.500  
G30  23646787.531 5 124264723.932 5     -2667.522          31.750    23646794.092 5  96829619.143 5     -2078.599          31.500  
G 6  21629289.612 6 113662695.379 6      1085.405          36.750    21629293.067 6  88568346.079 6       845.759          37.500  
G14  20182978.963 6 106062269.016 6      -485.734          41.750    20182978.324 5  82645919.401 5      -378.499          35.500  
G28  20528816.072 6 107879661.924 6      1098.526          39.250    20528813.992 5  84062061.827 5       855.987          31.750  
R14  20556362.704 6 109576572.680 6     -3202.435          37.250    20556366.781 5  85226242.320 5     -2490.790          34.000  
R 2  21822672.207 5 116449576.971 5      2390.349          35.250    21822677.330 5  90571904.461 5      1859.159          31.250  
R15  20077769.380 6 107289127.363 6       574.398          39.500    20077772.083 5  83447106.730 5       446.744          34.750  
C 3  36370217.926 6 189389265.555 6        30.944          36.500    36370218.666 5 146447791.27525        23.654          31.500  
C25  23242167.833 6 121028067.344 6      -816.509          37.500                                                                  
C 8  36490584.166 6 190016048.474 6      -453.786          36.500    36490582.051 5 146932457.199 5      -350.692          33.750  
C21  23891285.326 6 124408194.159 6       637.583          36.500                                                                  
C10  35918870.041 6 187038985.233 6       415.343          37.250    35918870.464 5 144630409.286 5       321.105          33.000  
C11  23067922.066 6 120120720.17426       294.233          36.500    23067921.260 5  92884964.10925       227.866          34.250  
C13  36543941.943 6 190293895.233 6       -82.291          37.750    36543947.905 5 147147325.421 5       -63.556          31.500  
C24  24509928.312 6 127629616.027 6     -2898.235          36.500                                                                  
C 7  35717234.974 6 185989012.581 6       -20.427          38.500    35717232.348 5 143818504.290 5       -15.789          34.250  
C 1  37381037.279 6 194652867.532 6        -5.754          36.500    37381037.816 5 150517940.859 5        -4.892          32.250  
> 2021  5 21  6 29 36.0000000  0 19                     
G19  22049479.106 6 115870787.64626      1437.369          37.500    22049473.384 5  90288947.60725      1120.028          30.500  
G30  23647294.744 5 124267389.707 5     -2663.384          31.250    23647301.449 5  96831696.357 5     -2075.375          31.250  
G 6  21629083.089 6 113661610.183 6      1085.064          37.500    21629086.518 6  88567500.458 6       845.493          37.750  
G14  20183071.321 6 106062754.374 6      -484.961          41.750    20183070.692 5  82646297.612 5      -377.895          33.500  
G28  20528607.138 6 107878563.969 6      1097.554          39.750    20528605.025 5  84061206.282 5       855.230          33.500  
R14  20556963.258 6 109579773.764 6     -3200.189          37.750    20556967.291 5  85228732.017 5     -2489.049          34.250  
R 2  21822223.961 5 116447184.914 5      2393.803          35.000    21822229.072 5  90570043.987 5      1861.850          31.000  
R15  20077662.076 6 107288553.889 6       572.263          39.000    20077664.758 5  83446660.682 5       445.084          34.500  
R17  21010358.380 6 112430277.55516      -688.114          36.750    21010358.526 5  87445773.92515      -535.200          32.500  
C 3  36370211.748 6 189389233.393 6        33.313          36.000    36370211.288 5 146447765.857 5        25.629          32.750  
C25  23242324.706 6 121028884.180 6      -817.065          36.750                                                                  
C 8  36490671.382 6 190016502.675 6      -454.478          36.750    36490669.256 5 146932808.434 5      -351.870          33.250  
C21  23891162.650 6 124407555.413 6       639.568          39.500                                                                  
C10  35918790.400 6 187038570.475 6       414.303          37.000    35918790.809 5 144630088.565 5       320.428          32.750  
C11  23067865.283 5 120120427.50825       291.631          35.250    23067866.270 6  92884737.82526       225.224          36.000  
C13  36543957.822 6 190293977.889 6       -82.389          37.750    36543963.799 5 147147389.321 5       -63.774          31.000  
C24  24510484.546 6 127632512.380 6     -2894.257          36.250                                                                  
C 7  35717238.763 6 185989032.337 6       -19.116          38.500    35717236.154 5 143818519.549 5       -14.764          34.000  
C 1  37381038.167 5 194652872.036 5        -2.640          35.750                                                                  
> 2021  5 21  6 29 37.0000000  0 20                     
G19  22049205.015 6 115869350.312 6      1436.031          37.250    22049199.839 5  90287827.462 5      1118.989          33.000  
G30  23647801.583 4 124270053.142 4     -2662.128          29.250    23647808.074 3  96833771.767 3     -2074.383          23.000  
G 6  21628876.792 6 113660525.986 6      1084.129          38.250    21628880.214 6  88566655.615 6       844.764          38.750  
G14  20183163.671 6 106063239.679 6      -485.416          41.500    20183163.045 5  82646675.774 5      -378.249          35.500  
G28  20528398.396 6 107877466.975 6      1096.392          39.750    20528396.293 5  84060351.453 5       854.323          34.500  
R14  20557563.517 6 109582973.525 6     -3199.881          37.750    20557567.554 5  85231220.698 5     -2488.811          33.750  
R 2  21821775.274 5 116444790.874 5      2394.271          35.250    21821780.444 5  90568181.961 5      1862.214          31.750  
R15  20077555.099 6 107287982.332 6       570.841          39.250    20077557.800 5  83446216.134 5       443.979          34.500  
R17  21010488.165 6 112430966.46726      -689.750          37.750                                                                  
C23  25473411.533 5 132646725.42115      1642.911          33.250                                                                  
C 3  36370205.320 6 189389199.931 6        33.427          36.250    36370202.765 5 146447739.971 5        25.971          33.000  
C25  23242481.727 6 121029701.677 6      -817.519          36.750                                                                  
C 8  36490758.736 6 190016957.488 6      -455.208          36.750    36490756.608 5 146933160.083 5      -351.747          33.750  
C21  23891039.774 6 124406915.621 6       639.312          39.250                                                                  
C10  35918710.847 6 187038156.307 6       413.904          37.250    35918711.250 5 144629768.283 5       319.993          32.750  
C11  23067809.530 5 120120136.83125       290.187          35.750    23067811.212 6  92884513.00726       224.762          37.000  
C13  36543973.700 6 190294060.625 6       -82.455          38.000    36543979.687 5 147147453.307 5       -64.175          31.250  
C24  24511040.310 5 127635406.301 5     -2893.490          36.000                                                                  
C 7  35717242.385 6 185989051.257 6       -19.134          38.750    35717239.797 5 143818534.168 5       -14.570          33.500  
C 1  37381038.653 5 194652874.516 5        -2.184          35.500    37381040.338 5 150517948.72315        -1.764          31.750  
> 2021  5 21  6 29 38.0000000  0 20                     
G19  22048931.390 6 115867914.356 6      1436.250          38.250    22048928.868 5  90286708.549 5      1119.160          31.250  
G 6  21628670.599 6 113659442.403 6      1083.457          39.250    21628674.021 6  88565811.261 6       844.244          39.250  
G17  21732001.830 6 114202442.32816       661.315          40.250    21732001.111 6  88988908.61816       515.310          40.000  
G14  20183256.132 7 106063725.593 7      -486.092          42.250    20183255.461 5  82647054.413 5      -378.775          33.000  
G28  20528189.813 6 107876370.793 6      1096.443          40.750    20528187.679 5  84059497.279 5       854.363          33.000  
R14  20558163.784 6 109586173.358 6     -3199.938          39.500    20558167.832 5  85233709.442 5     -2488.855          33.750  
R 2  21821326.662 6 116442397.009 6      2393.399          37.000    21821331.891 5  90566320.067 5      1861.535          31.750  
R15  20077448.380 6 107287412.069 6       569.849          40.500    20077451.094 5  83445772.595 5       443.210          34.250  
R17  21010620.175 6 112431656.34226      -689.700          39.000    21010616.460 5  87446852.17715      -536.433          34.500  
C23  25473095.503 5 132645082.83625      1642.134          35.500                                                                  
C 3  36370198.843 6 189389166.171 6        33.575          37.250    36370196.677 5 146447713.847 5        26.182          32.750  
C25  23242638.804 6 121030519.696 6      -817.999          38.250                                                                  
C 8  36490846.167 6 190017412.756 6      -455.549          38.250    36490844.043 5 146933512.139 5      -352.201          33.500  
C21  23890916.998 6 124406276.286 6       639.016          40.500                                                                  
C10  35918631.399 6 187037742.602 6       413.762          38.500    35918631.799 5 144629448.400 5       319.926          32.750  
C11  23067754.082 6 120119846.93826       289.742          37.500    23067755.304 6  92884288.87326       224.109          37.000  
C13  36543989.627 6 190294143.638 6       -83.138          39.250    36543995.622 5 147147517.448 5       -64.025          31.500  
C24  24511595.936 6 127638299.642 6     -2893.756          36.500                                                                  
C 7  35717246.018 6 185989070.229 6       -18.725          39.750    35717243.452 5 143818548.875 5       -14.821          33.250  
C 1  37381039.062 6 194652876.688 6        -1.754          37.500    37381041.500 5 150517949.909 5        -1.577          32.500  
> 2021  5 21  6 29 39.0000000  0 20                     
G19  22048658.043 6 115866479.578 6      1435.185          37.750    22048656.440 5  90285590.549 5      1118.333          34.750  
G 6  21628464.768 6 113658360.694 6      1080.881          38.500    21628468.186 6  88564968.373 6       842.239          38.750  
G17  21731874.822 6 114201781.23426       661.143          39.500    21731873.147 6  88988393.46126       515.176          39.750  
G14  20183348.870 6 106064213.004 6      -488.466          41.750    20183348.247 5  82647434.210 5      -380.624          34.750  
G28  20527981.476 6 107875276.064 6      1094.338          39.500    20527979.354 5  84058644.227 5       852.720          34.250  
R14  20558764.399 6 109589374.954 6     -3202.562          38.250    20558768.446 5  85236199.566 5     -2490.893          33.250  
R 2  21820878.109 5 116440003.918 5      2392.593          35.500    21820883.411 5  90564458.777 5      1860.908          32.750  
R15  20077342.092 6 107286844.027 6       567.545          39.500    20077344.802 5  83445330.791 5       441.421          34.500  
R17  21010746.848 6 112432347.191 6      -690.975          38.500    21010746.576 5  87447389.49825      -537.425          33.500  
C23  25472779.375 5 132643442.01525      1640.229          34.750                                                                  
C 3  36370192.549 6 189389133.450 6        31.725          37.000                                                                  
C25  23242796.269 6 121031339.712 6      -820.920          38.000                                                                  
C 8  36490933.805 6 190017869.109 6      -456.751          38.000    36490931.693 5 146933864.998 5      -353.037          33.750  
C21  23890794.367 6 124405637.740 6       637.934          40.000                                                                  
C10  35918552.126 6 187037329.916 6       412.331          38.250    35918552.549 5 144629129.255 5       319.036          33.250  
C11  23067697.983 6 120119558.10726       288.893          37.000    23067699.936 6  92884065.49626       223.698          37.000  
C13  36544005.843 6 190294228.011 6       -85.037          39.000    36544011.811 5 147147582.717 5       -65.951          31.500  
C24  24512151.807 6 127641194.208 6     -2895.694          36.250                                                                  
C 7  35717249.830 6 185989090.181 6       -21.004          39.750    35717247.232 5 143818564.264 5       -15.802          33.250  
C 1  37381039.583 6 194652879.452 6        -3.410          36.750    37381042.545 5 150517952.014 5        -2.633          32.250  
> 2021  5 21  6 29 40.0000000  0 20                     
G19  22048385.870 6 115865045.781 6      1433.493          38.500    22048382.826 5  90284473.327 5      1117.018          35.750  
G 6  21628259.359 6 113657281.286 6      1078.737          39.750    21628262.770 6  88564127.282 6       840.572          40.250  
G17  21731750.206 6 114201120.40826       660.827          40.500    21731747.996 6  88987878.52426       514.930          39.500  
G14  20183441.903 7 106064701.818 7      -489.334          42.500    20183441.251 5  82647815.106 5      -381.300          33.500  
G28  20527773.406 6 107874182.649 6      1092.851          40.750    20527771.340 5  84057792.215 5       851.568          32.250  
R14  20559365.469 6 109592578.800 6     -3204.621          37.750    20559369.479 5  85238691.446 5     -2492.492          33.000  
R 2  21820429.663 5 116437611.114 5      2391.889          36.000    21820435.024 5  90562597.705 5      1860.359          33.250  
R15  20077236.257 6 107286278.433 6       565.142          39.500    20077238.953 5  83444890.890 5       439.554          34.250  
R17  21010875.751 6 112433038.521 6      -691.226          38.500    21010875.384 5  87447927.20425      -537.620          34.250  
C23  25472465.790 5 132641802.562 5      1638.096          35.250                                                                  
C 3  36370186.518 6 189389102.045 6        30.708          37.500    36370186.142 5 146447671.76825        24.172          33.500  
C25  23242954.191 6 121032162.128 6      -822.743          38.500                                                                  
C 8  36491021.657 6 190018326.575 6      -457.701          38.500    36491019.557 5 146934218.757 5      -353.977          34.000  
C21  23890671.728 6 124404999.239 6       638.247          40.750                                                                  
C10  35918473.068 6 187036918.197 6       411.548          38.750    35918473.489 5 144628810.920 5       318.047          33.000  
C11  23067642.286 6 120119269.570 6       288.231          37.500    23067644.957 6  92883842.335 6       222.358          37.500  
C13  36544022.376 6 190294314.139 6       -86.197          39.500    36544028.337 5 147147649.311 5       -66.688          31.250  
C24  24512707.995 6 127644090.475 6     -2896.515          37.250                                                                  
C 7  35717253.786 6 185989110.764 6       -21.094          40.250    35717251.183 5 143818580.187 5       -16.015          33.000  
C 1  37381040.131 6 194652882.353 6        -2.819          37.750                                                                  
> 2021  5 21  6 29 41.0000000  0 20                     
G19  22048113.198 6 115863611.897 6      1433.966          39.250    22048110.556 5  90283356.041 5      1117.390          30.000  
G 6  21628054.136 6 113656202.767 6      1077.639          40.500    21628057.540 6  88563286.891 6       839.720          39.750  
G17  21731624.050 6 114200459.11226       661.741          41.250    21731622.472 6  88987363.23126       515.642          40.750  
G14  20183534.986 7 106065191.003 7      -489.012          43.750    20183534.363 5  82648196.295 5      -381.048          33.250  
G28  20527565.411 6 107873089.545 6      1092.787          41.750    20527563.379 5  84056940.446 5       851.516          30.250  
R14  20559966.645 6 109595783.410 6     -3205.482          38.750    20559970.654 5  85241183.923 5     -2493.159          32.500  
R 2  21819981.180 6 116435217.877 6      2394.043          36.500    21819986.488 5  90560736.303 5      1862.036          33.000  
R15  20077130.624 6 107285713.945 6       563.780          39.750    20077133.320 5  83444451.852 5       438.497          34.750  
R17  21011004.027 6 112433729.506 6      -690.612          38.250    21011004.562 5  87448464.636 5      -537.142          33.500  
C23  25472149.789 5 132640164.348 5      1637.537          34.250                                                                  
C 3  36370180.471 6 189389070.606 6        31.614          36.000    36370178.569 5 146447646.969 5        24.191          33.250  
C25  23243112.312 6 121032985.479 6      -824.501          36.250                                                                  
C 8  36491109.511 6 190018784.049 6      -457.747          37.000    36491107.373 5 146934572.469 5      -353.515          33.750  
C21  23890549.010 6 124404360.292 6       639.420          39.250                                                                  
C10  35918394.017 6 187036506.403 6       412.126          37.250    35918394.394 5 144628492.510 5       318.288          33.000  
C11  23067587.009 6 120118981.512 6       288.180          36.250    23067589.782 6  92883619.581 6       222.604          37.250  
C13  36544038.998 6 190294400.719 6       -86.654          38.250    36544044.954 5 147147716.274 5       -67.348          31.750  
C24  24513264.235 5 127646987.064 5     -2896.785          35.250                                                                  
C 7  35717257.701 6 185989131.144 6       -20.253          38.750    35717255.090 5 143818595.961 5       -15.864          33.750  
C 1  37381040.585 5 194652884.708 5        -1.496          36.000                                                                  
> 2021  5 21  6 29 42.0000000  0 20                     
G19  22047840.461 6 115862178.109 6      1434.065          37.750    22047835.857 5  90282238.792 5      1117.460          31.000  
G 6  21627849.178 6 113655125.760 6      1076.388          38.500    21627852.595 6  88562447.669 6       838.745          38.500  
G17  21731497.538 6 114199797.20526       662.464          39.000    21731496.663 6  88986847.44926       516.205          38.500  
G14  20183628.213 6 106065680.948 6      -490.345          42.000    20183627.603 5  82648578.063 5      -382.088          33.500  
G28  20527357.523 6 107871997.002 6      1092.102          39.750    20527355.516 5  84056089.113 5       850.986          35.750  
R14  20560568.082 6 109598989.576 6     -3206.928          38.750    20560572.122 5  85243677.602 5     -2494.284          33.750  
R 2  21819532.590 5 116432824.197 5      2394.822          35.500    21819537.892 5  90558874.562 5      1862.644          32.500  
R15  20077025.306 6 107285151.042 6       562.344          39.750    20077027.979 5  83444014.041 5       437.379          34.750  
R17  21011133.280 6 112434420.108 6      -690.594          38.000    21011133.611 5  87449001.770 5      -537.129          33.250  
C23  25471836.467 6 132638527.149 6      1636.062          36.500                                                                  
C 3  36370174.539 6 189389039.761 6        30.800          37.750    36370172.019 5 146447623.123 5        23.413          33.000  
C25  23243270.807 5 121033810.634 5      -826.284          33.250                                                                  
C 8  36491197.418 6 190019241.802 6      -457.437          38.750    36491195.294 5 146934926.466 5      -354.140          33.750  
C21  23890426.139 6 124403720.636 6       640.028          40.750                                                                  
C10  35918314.969 6 187036094.788 6       411.721          38.750    35918315.338 5 144628174.198 5       317.889          32.750  
C11  23067531.845 6 120118693.410 6       288.226          38.250    23067534.472 6  92883396.788 6       222.667          37.250  
C13  36544055.824 6 190294488.282 6       -88.042          40.000    36544061.785 5 147147783.964 5       -68.212          31.750  
C24  24513820.680 6 127649884.592 6     -2898.201          36.750                                                                  
C 7  35717261.623 6 185989151.558 6       -20.623          40.750    35717259.004 5 143818611.716 5       -16.035          33.250  
C 1  37381040.967 6 194652886.571 6        -1.378          37.000                                                                  
> 2021  5 21  6 29 43.0000000  0 21                     
G19  22047567.889 6 115860744.318 6      1433.978          37.250    22047563.189 5  90281121.540 5      1117.387          31.000  
G 6  21627644.328 6 113654049.280 6      1076.539          38.500    21627647.756 6  88561608.850 6       838.862          38.250  
G17  21731372.031 6 114199134.452 6       662.816          39.750    21731370.158 6  88986330.904 6       516.481          38.000  
G14  20183721.478 6 106066171.069 6      -490.133          41.750    20183720.880 5  82648959.975 5      -381.924          35.750  
G28  20527149.642 6 107870904.623 6      1092.282          40.000    20527147.575 5  84055237.912 5       851.123          32.500  
R14  20561169.617 6 109602196.083 6     -3206.799          38.750    20561173.660 5  85246171.544 5     -2494.183          32.750  
R 2  21819083.864 6 116430430.122 6      2394.152          36.750    21819089.241 5  90557012.503 5      1862.121          32.250  
R15  20076920.140 6 107284589.073 6       561.692          40.000    20076922.815 5  83443576.953 5       436.872          34.750  
R17  21011261.202 6 112435110.451 6      -690.251          38.250    21011262.573 5  87449538.697 5      -536.863          33.750  
C23  25471522.309 6 132636890.362 6      1637.364          37.000                                                                  
C 3  36370168.570 6 189389008.676 6        31.593          37.750    36370167.011 5 146447599.071 5        24.153          33.750  
C25  23243429.450 5 121034636.659 5      -826.060          31.500                                                                  
C 8  36491285.302 6 190019699.443 6      -457.203          38.750    36491283.190 5 146935280.349 5      -353.672          33.250  
C21  23890303.207 6 124403080.614 6       639.921          39.500                                                                  
C10  35918235.909 6 187035683.009 6       411.891          39.000    35918236.267 5 144627855.770 5       318.366          33.000  
C11  23067476.728 6 120118405.222 6       288.305          38.250    23067479.221 6  92883173.935 6       223.277          37.250  
C12  23479071.912 6 122261689.39916      -970.451          36.500    23479074.103 5  94540501.60125      -750.313          34.250  
C13  36544072.659 6 190294575.951 6       -87.535          40.000    36544078.658 5 147147851.769 5       -67.702          32.000  
C24  24514377.141 5 127652782.126 5     -2897.353          35.250                                                                  
C 7  35717265.476 6 185989171.588 6       -19.992          40.500    35717262.863 5 143818627.207 5       -15.430          33.750  
C 1  37381041.213 6 194652887.816 6        -1.565          38.000    37381043.420 5 150517964.97015        -0.739          32.000  
> 2021  5 21  6 29 44.0000000  0 21                     
G19  22047295.067 6 115859310.236 6      1433.940          37.750    22047289.788 4  90280004.086 4      1117.363          28.750  
G 3  22232915.183 6 116834750.94416     -1763.829          38.750    22232910.408 5  91040050.02115     -1374.412          32.500  
G 6  21627439.368 6 113652972.164 6      1077.107          39.750    21627442.780 6  88560769.548 6       839.307          40.000  
G17  21731245.639 6 114198472.295 6       661.385          39.750    21731243.949 6  88985814.934 6       515.365          40.000  
G14  20183814.768 6 106066661.228 6      -490.830          41.750    20183814.178 5  82649341.912 5      -382.467          34.500  
G28  20526941.768 6 107869812.289 6      1091.636          40.000    20526939.703 5  84054386.726 5       850.622          35.000  
R14  20561770.999 6 109605401.852 6     -3205.623          38.750    20561775.086 5  85248664.922 5     -2493.267          32.750  
R 2  21818635.240 6 116428036.200 6      2393.537          36.500    21818640.610 5  90555150.571 5      1861.644          33.250  
R15  20076815.010 6 107284027.162 6       561.231          40.000    20076817.641 5  83443139.912 5       436.513          34.500  
R17  21011390.155 6 112435800.861 6      -691.098          37.750    21011391.492 5  87450075.681 5      -537.521          33.750  
C23  25471207.839 6 132635253.649 6      1636.725          37.500                                                                  
C 3  36370162.432 6 189388976.678 6        31.305          37.500    36370161.259 5 146447574.314 5        24.592          33.250  
C 8  36491373.129 6 190020156.705 6      -457.806          38.750    36491370.977 5 146935633.918 5      -353.877          33.750  
C21  23890180.393 6 124402441.074 6       639.169          40.250                                                                  
C10  35918156.748 6 187035270.867 6       411.514          38.750    35918157.139 5 144627537.097 5       318.171          33.000  
C11  23067421.564 6 120118116.769 6       287.955          38.000    23067423.910 6  92882950.895 6       222.777          37.250  
C12  23479260.574 6 122262660.10326      -971.572          36.000    23479261.119 5  94541252.16725      -751.063          33.500  
C13  36544089.322 6 190294662.779 6       -86.911          39.500    36544095.365 5 147147918.888 5       -67.237          31.250  
C24  24514933.306 5 127655690.28515     -2895.048          33.000                                                                  
C 7  35717269.252 6 185989191.247 6       -20.160          40.250    35717266.657 5 143818642.442 5       -15.261          33.750  
C 1  37381041.339 6 194652888.556 6        -1.142          37.750    37381044.814 5 150517965.106 5        -0.902          32.500  
> 2021  5 21  6 29 45.0000000  0 21                     
G19  22047022.148 6 115857876.339 6      1434.169          37.750    22047016.481 4  90278886.760 4      1117.536          27.000  
G 3  22233251.773 6 116836516.18226     -1766.568          37.250    22233251.513 5  91041425.50225     -1376.546          32.000  
G 6  21627234.298 6 113651894.461 6      1078.227          38.500    21627237.726 6  88559929.776 6       840.176          39.000  
G17  21731120.080 6 114197810.886 6       661.230          39.750    21731118.511 6  88985299.553 6       515.245          39.750  
G14  20183908.205 6 106067152.198 6      -491.561          42.000    20183907.602 5  82649724.481 5      -383.036          33.000  
G28  20526734.063 6 107868720.673 6      1091.610          40.000    20526731.965 5  84053536.143 5       850.608          35.500  
R14  20562372.361 6 109608607.490 6     -3205.557          38.750    20562376.457 5  85251158.193 5     -2493.215          33.000  
R 2  21818186.932 5 116425643.728 5      2391.103          36.000    21818192.276 5  90553289.769 5      1859.752          32.000  
R15  20076709.938 6 107283465.685 6       561.503          40.000    20076712.579 5  83442703.210 5       436.726          34.000  
R17  21011519.532 6 112436491.851 6      -691.039          38.500    21011520.881 5  87450613.116 5      -537.476          33.000  
C23  25470892.703 6 132633616.955 6      1636.997          36.500                                                                  
C 3  36370156.180 6 189388944.320 6        32.701          37.750    36370155.884 5 146447549.321 5        25.156          33.500  
C 8  36491460.980 6 190020614.169 6      -457.897          38.250    36491458.823 5 146935987.631 5      -353.515          33.500  
C21  23890057.924 6 124401803.337 6       636.547          40.750                                                                  
C10  35918077.652 6 187034859.052 6       411.883          39.000    35918078.008 5 144627218.634 5       318.399          33.250  
C11  23067366.328 6 120117828.532 6       288.032          38.000    23067368.598 6  92882728.013 6       222.820          37.250  
C12  23479444.998 5 122263632.28125      -973.313          34.750    23479448.874 5  94542003.429 5      -752.330          33.500  
C13  36544105.926 6 190294749.184 6       -86.356          39.500    36544111.915 5 147147985.681 5       -66.388          32.000  
C24  24515489.338 5 127658585.76925     -2893.969          35.000                                                                  
C 7  35717273.126 6 185989211.498 6       -20.647          40.250    35717270.532 5 143818658.101 5       -16.142          33.250  
C 1  37381041.639 6 194652890.088 6        -1.861          38.000    37381044.006 5 150517966.215 5        -1.208          32.000  
> 2021  5 21  6 29 46.0000000  0 21                     
G19  22046748.762 6 115856441.262 6      1435.834          38.000    22046743.253 5  90277768.520 5      1118.834          32.000  
G 3  22233587.387 6 116838283.70826     -1768.826          37.500    22233583.405 5  91042802.72725     -1378.306          30.250  
G 6  21627028.863 5 113650815.020 5      1079.385          32.500    21627032.280 5  88559088.644 5       841.077          30.750  
G17  21730994.260 6 114197149.471 6       661.466          39.500    21730993.343 6  88984784.171 6       515.429          38.500  
G14  20184001.698 7 106067643.475 7      -491.912          42.000    20184001.124 5  82650107.293 5      -383.310          35.250  
G28  20526526.317 6 107867628.918 6      1091.760          39.750    20526524.168 5  84052685.431 5       850.726          34.250  
R14  20562973.564 6 109611812.265 6     -3204.850          38.500    20562977.676 5  85253650.793 5     -2492.665          33.500  
R 2  21817738.975 4 116423253.550 4      2387.943          29.750    21817744.344 4  90551430.746 4      1857.294          25.250  
R15  20076604.689 6 107282903.257 6       562.783          39.750    20076607.320 5  83442265.770 5       437.721          34.750  
R17  21011648.663 6 112437182.374 6      -690.264          38.000    21011649.729 5  87451150.192 5      -536.872          32.500  
C23  25470578.991 5 132631978.540 5      1638.609          36.000                                                                  
C 3  36370149.805 6 189388911.212 6        33.128          37.500    36370149.221 5 146447523.756 5        25.344          33.000  
C 8  36491548.687 6 190021070.862 6      -456.801          38.750    36491546.486 5 146936340.775 5      -352.611          34.000  
C21  23889935.905 6 124401167.939 6       633.504          40.750                                                                  
C10  35917998.458 6 187034446.670 6       412.739          38.250    35917998.823 5 144626899.802 5       318.503          33.250  
C11  23067310.553 6 120117539.254 6       289.891          37.500    23067312.863 6  92882504.319 6       224.036          37.000  
C12  23479633.724 5 122264605.795 5      -974.118          35.750    23479634.166 5  94542756.202 5      -752.912          34.000  
C13  36544122.201 6 190294833.932 6       -84.076          40.250    36544128.226 5 147148051.263 5       -65.312          32.500  
C24  24516045.249 6 127661480.579 6     -2895.481          37.500                                                                  
C 7  35717277.053 6 185989232.000 6       -21.089          40.250    35717274.490 5 143818673.947 5       -16.424          34.000  
C 1  37381042.112 6 194652892.574 6        -3.835          37.750    37381043.310 5 150517968.192 5        -2.648          32.500  
> 2021  5 21  6 29 47.0000000  0 20                     
G19  22046475.329 6 115855003.916 6      1439.378          37.250    22046469.726 5  90276648.494 5      1121.589          33.750  
G 3  22233925.928 6 116840053.87726     -1770.583          37.250    22233926.894 5  91044182.11225     -1379.675          32.250  
G17  21730867.883 6 114196487.477 6       663.346          38.750    21730866.890 6  88984268.340 6       516.896          39.750  
G14  20184095.359 7 106068135.677 7      -492.619          42.000    20184094.790 5  82650490.833 5      -383.859          35.000  
G28  20526318.530 6 107866536.998 6      1092.474          39.500    20526316.388 5  84051834.601 5       851.284          32.000  
R14  20563574.864 6 109615017.367 6     -3205.840          38.750    20563578.944 5  85256143.646 5     -2493.435          34.250  
R 2  21817291.711 5 116420866.685 5      2385.258          34.250    21817297.059 5  90549574.292 5      1855.204          30.750  
R15  20076499.171 6 107282339.329 6       565.241          39.750    20076501.779 5  83441827.150 5       439.630          33.750  
R17  21011777.402 6 112437871.479 6      -687.633          37.750    21011778.434 5  87451686.168 5      -534.825          32.250  
C23  25470264.003 6 132630337.257 6      1643.301          36.000                                                                  
C 3  36370143.450 6 189388878.181 6        32.575          37.750    36370142.646 5 146447498.230 5        24.838          32.500  
C 8  36491636.230 6 190021526.684 6      -455.098          38.500    36491634.053 5 146936693.257 5      -351.540          34.250  
C21  23889814.523 6 124400535.849 6       630.403          41.000                                                                  
C10  35917919.147 6 187034033.682 6       413.455          38.500    35917919.556 5 144626580.454 5       319.665          32.750  
C11  23067254.630 6 120117248.065 6       292.735          37.250    23067256.993 5  92882279.121 5       226.451          35.750  
C12  23479819.845 6 122265580.684 6      -974.740          36.250    23479820.858 6  94543510.047 6      -753.671          36.750  
C13  36544138.215 5 190294917.277 5       -83.104          34.000    36544144.298 4 147148115.792 4       -65.387          26.000  
C24  24516601.251 6 127664375.801 6     -2896.682          37.750                                                                  
C 7  35717281.170 6 185989253.544 6       -21.802          40.000    35717278.628 5 143818690.611 5       -17.037          33.750  
C 1  37381043.041 6 194652897.487 6        -6.571          38.000    37381044.197 5 150517971.992 5        -4.697          32.250  
> 2021  5 21  6 29 48.0000000  0 19                     
G19  22046201.171 6 115853562.987 6      1442.765          37.750    22046195.148 5  90275525.676 5      1124.228          33.250  
G 3  22234261.396 6 116841825.22726     -1771.624          37.000    22234275.322 4  91045562.36324     -1380.486          24.750  
G17  21730741.532 6 114195823.249 6       665.158          39.250    21730740.696 6  88983750.762 6       518.308          38.250  
G14  20184189.185 7 106068628.703 7      -493.897          42.250    20184188.580 5  82650875.009 5      -384.855          32.750  
G28  20526110.619 6 107865444.234 6      1093.145          39.750    20526108.497 4  84050983.086 4       851.800          26.000  
R14  20564176.444 6 109618223.955 6     -3208.188          38.000    20564180.505 5  85258637.656 5     -2495.260          34.500  
R 2  21816845.167 6 116418484.042 6      2380.206          36.500    21816850.533 5  90547721.131 5      1851.275          30.000  
R15  20076393.278 6 107281773.602 6       566.737          40.250    20076395.911 5  83441387.134 5       440.793          34.000  
R17  21011905.915 6 112438557.416 6      -684.245          38.250    21011906.964 5  87452219.692 5      -532.185          33.000  
C23  25469948.323 5 132628692.139 5      1646.565          34.500                                                                  
C 3  36370137.236 6 189388845.773 6        31.980          37.500    36370135.593 5 146447473.155 5        24.328          32.250  
C 8  36491723.493 6 190021981.083 6      -453.915          38.250    36491721.329 5 146937044.657 5      -351.076          34.250  
C21  23889693.694 6 124399906.626 6       627.710          39.250                                                                  
C10  35917839.594 6 187033619.416 6       414.844          38.750    35917840.022 5 144626260.121 5       320.585          33.000  
C11  23067198.170 6 120116953.652 6       295.593          38.000    23067200.526 5  92882051.505 5       228.754          34.500  
C12  23480005.945 6 122266554.975 6      -973.794          38.000    23480008.175 6  94544263.457 6      -752.908          36.250  
C24  24517157.649 6 127667273.096 6     -2898.982          39.000                                                                  
C 7  35717285.479 6 185989275.961 6       -23.218          40.000    35717282.944 5 143818707.946 5       -17.972          34.250  
C 1  37381044.478 6 194652904.940 6        -9.493          38.250    37381044.389 5 150517974.27115        -7.602          32.750  
> 2021  5 21  6 29 49.0000000  0 19                     
G19  22045926.213 6 115852118.326 6      1446.472          37.500    22045921.681 4  90274399.968 4      1127.122          25.000  
G 3  22234598.088 6 116843596.410 6     -1770.863          38.750    22234606.985 5  91046942.506 5     -1379.892          31.250  
G17  21730614.497 6 114195155.916 6       669.840          38.750    21730613.053 5  88983230.765 5       521.957          35.500  
G14  20184283.325 7 106069123.337 7      -495.220          42.250    20184282.708 5  82651260.443 5      -385.884          35.250  
G28  20525902.578 6 107864351.010 6      1094.287          39.500    20525900.514 5  84050131.242 5       852.700          35.500  
R14  20564778.733 6 109621434.419 6     -3212.521          37.250    20564782.793 5  85261134.688 5     -2498.629          34.000  
R 2  21816399.419 5 116416105.294 5      2377.368          35.750    21816404.743 5  90545871.002 5      1849.069          30.250  
R15  20076287.286 6 107281207.112 6       567.286          39.500    20076289.904 5  83440946.531 5       441.221          34.000  
R17  21012033.219 6 112439239.491 6      -680.009          37.000    21012034.747 5  87452750.212 5      -528.888          32.250  
C23  25469631.624 5 132627043.543 5      1650.442          34.000                                                                  
C 3  36370131.454 6 189388815.678 6        29.935          38.750    36370129.295 5 146447449.843 5        23.361          31.000  
C 8  36491810.595 6 190022434.646 6      -453.039          37.000    36491808.405 5 146937395.371 5      -350.012          34.000  
C21  23889573.300 6 124399279.722 6       626.335          39.500                                                                  
C10  35917759.860 6 187033204.259 6       416.249          38.750    35917760.322 5 144625939.109 5       321.502          33.750  
C11  23067140.803 6 120116655.845 6       299.805          38.000    23067143.177 5  92881821.222 5       231.828          35.750  
C12  23480193.544 5 122267527.391 5      -971.187          35.750    23480194.795 5  94545015.440 5      -751.122          34.250  
C24  24517714.918 6 127670174.946 6     -2903.739          37.000                                                                  
C 7  35717290.065 6 185989299.879 6       -24.288          39.750    35717287.528 5 143818726.447 5       -18.604          34.250  
C 1  37381046.518 6 194652915.434 6       -12.067          38.750    37381046.631 5 150517981.850 5        -8.622          34.250  
> 2021  5 21  6 29 50.0000000  0 19                     
G19  22045650.604 6 115850669.565 6      1451.164          37.750    22045645.940 5  90273271.097 5      1130.783          32.750  
G 3  22234935.338 6 116845366.377 6     -1768.408          38.250    22234940.900 4  91048321.724 4     -1377.972          29.250  
G17  21730486.766 6 114194485.024 6       673.472          38.250    21730485.003 6  88982708.003 6       524.788          36.500  
G14  20184377.706 6 106069619.341 6      -496.190          42.000    20184377.137 5  82651646.943 5      -386.639          32.250  
G28  20525694.413 6 107863257.084 6      1094.840          39.750    20525692.307 6  84049278.851 6       853.131          36.250  
R14  20565381.822 5 109624649.280 5     -3218.663          35.250    20565385.901 4  85263635.149 4     -2503.402          27.500  
R 2  21815954.317 6 116413730.067 6      2373.694          37.500    21815959.582 5  90544023.597 5      1846.208          30.750  
R15  20076181.148 6 107280639.834 6       568.295          40.250    20076183.763 5  83440505.317 5       442.006          32.750  
R17  21012159.974 6 112439916.983 6      -673.437          39.500    21012161.121 5  87453277.153 5      -523.778          32.000  
C23  25469313.897 5 132625391.600 5      1653.570          33.750                                                                  
C 3  36370126.136 6 189388788.052 6        25.586          38.750                                                                  
C 8  36491897.508 6 190022887.099 6      -451.508          37.000    36491895.343 5 146937745.259 5      -349.401          33.750  
C21  23889453.240 6 124398654.501 6       625.102          39.000                                                                  
C10  35917679.901 6 187032787.974 6       416.550          38.000    35917680.422 5 144625617.180 5       322.187          33.500  
C11  23067082.821 6 120116354.356 6       303.314          36.750    23067085.116 5  92881588.072 5       234.925          34.500  
C12  23480380.254 5 122268497.003 5      -967.741          35.000    23480380.671 5  94545765.185 5      -748.492          34.500  
C24  24518273.127 5 127673081.812 5     -2910.395          33.000                                                                  
C 7  35717294.894 6 185989325.020 6       -25.897          39.750    35717292.339 5 143818745.889 5       -19.771          34.500  
C 1  37381049.062 6 194652928.623 6       -14.273          38.500                                                                  
> 2021  5 21  6 29 51.0000000  0 18                     
G19  22045374.175 6 115849216.177 6      1455.725          37.750    22045369.598 4  90272138.603 4      1134.339          29.250  
G 3  22235272.284 6 116847134.190 6     -1766.684          36.000    22235280.565 5  91049699.234 5     -1376.635          32.500  
G17  21730358.302 6 114193809.611 6       677.380          38.500    21730356.738 6  88982181.702 6       527.831          36.000  
G14  20184472.409 7 106070116.960 7      -497.940          42.250    20184471.847 5  82652034.702 5      -388.004          36.000  
G28  20525486.075 6 107862162.351 6      1094.771          38.750    20525483.962 4  84048425.808 4       853.075          29.500  
R 2  21815509.783 6 116411357.962 6      2371.245          36.500    21815515.028 5  90542178.622 5      1844.302          32.000  
R15  20076074.903 6 107280072.058 6       568.605          39.000    20076077.512 5  83440063.717 5       442.250          33.750  
R17  21012285.493 6 112440589.242 6      -669.231          39.000    21012286.781 5  87453800.024 5      -520.508          31.000  
C23  25468995.570 4 132623735.997 4      1657.865          29.500                                                                  
C 3  36370121.382 6 189388763.250 6        24.109          38.750    36370120.425 5 146447413.03015        16.946          31.000  
C 4  38310610.185 5 199493388.63015       -25.658          33.000                                                                  
C 8  36491984.187 6 190023338.538 6      -450.810          37.000    36491982.061 5 146938094.329 5      -348.668          34.000  
C21  23889333.377 6 124398030.295 6       624.039          38.500                                                                  
C10  35917599.709 6 187032370.375 6       418.804          38.000    35917600.256 5 144625294.311 5       323.086          33.250  
C11  23067024.164 6 120116048.582 6       307.826          38.500    23067026.477 5  92881351.643 5       238.242          34.750  
C12  23480565.339 6 122269462.394 6      -963.607          36.750    23480566.278 5  94546511.661 5      -745.447          35.000  
C 7  35717299.978 6 185989351.405 6       -26.829          40.250    35717297.433 5 143818766.312 5       -20.525          34.500  
C 1  37381052.133 6 194652944.556 6       -17.310          37.750                                                                  
> 2021  5 21  6 29 52.0000000  0 17                     
G19  22045097.091 6 115847759.952 6      1456.827          37.250    22045093.708 4  90271003.907 4      1135.208          28.500  
G 3  22235608.394 6 116848900.612 6     -1766.460          37.750    22235614.974 5  91051075.667 5     -1376.461          33.000  
G17  21730229.229 6 114193131.022 6       679.542          39.000    21730228.145 6  88981652.942 6       529.518          38.750  
G14  20184567.480 7 106070616.557 7      -501.081          42.000    20184566.908 5  82652424.004 5      -390.450          34.750  
G28  20525277.757 6 107861067.642 6      1093.868          39.250    20525275.710 5  84047572.792 5       852.367          35.000  
R 2  21815065.797 6 116408988.903 6      2367.301          37.000    21815071.116 5  90540336.042 5      1841.240          32.000  
R15  20075968.817 6 107279505.061 6       565.727          39.500    20075971.406 5  83439622.739 5       440.016          33.750  
R17  21012410.438 6 112441257.851 6      -666.330          39.500    21012411.665 5  87454320.073 5      -518.246          33.500  
C23  25468676.816 5 132622078.545 5      1657.689          32.750                                                                  
C 4  38310610.886 5 199493414.43125       -26.759          32.500    38310611.413 5 154260976.13015       -20.931          30.750  
C 8  36492070.837 6 190023789.751 6      -451.690          37.750    36492068.719 5 146938443.239 5      -349.166          34.250  
C21  23889213.715 6 124397407.252 6       622.037          39.500                                                                  
C10  35917519.463 6 187031952.474 6       417.315          37.750    35917520.016 5 144624971.157 5       322.428          33.750  
C11  23066964.894 6 120115740.206 6       308.882          38.250    23066967.228 5  92881113.209 5       238.733          34.000  
C12  23480750.213 5 122270424.983 5      -963.010          35.750    23480750.742 5  94547255.879 5      -743.228          35.500  
C 7  35717305.338 6 185989379.370 6       -29.692          39.750    35717302.788 5 143818787.934 5       -22.565          34.750  
C 1  37381055.658 6 194652962.999 6       -19.702          37.750    37381057.548 5 150518024.17925       -15.464          31.750  
> 2021  5 21  6 29 53.0000000  0 18                     
G19  22044819.762 6 115846302.902 6      1457.374          36.750    22044817.470 4  90269868.560 4      1135.623          29.500  
G 3  22235944.155 6 116850666.599 6     -1765.422          38.500    22235949.867 5  91052451.761 5     -1375.649          31.500  
G 6  21625585.911 6 113643223.17016      1078.344          36.750    21625589.904 6  88553174.07016       840.268          37.000  
G17  21730099.933 6 114192451.280 6       681.080          39.000    21730098.231 6  88981123.290 6       530.719          38.250  
G14  20184662.901 6 106071118.017 6      -502.107          42.000    20184662.320 5  82652814.762 5      -391.248          34.750  
G28  20525069.610 6 107859973.798 6      1093.404          38.750    20525067.656 6  84046720.444 6       852.008          36.000  
R 2  21814622.290 6 116406621.914 6      2367.333          36.750    21814627.500 5  90538495.062 5      1841.266          30.500  
R15  20075862.985 6 107278939.569 6       564.065          40.000    20075865.599 5  83439182.926 5       438.723          33.750  
R17  21012535.348 6 112441925.348 6      -667.822          39.250                                                                  
C23  25468358.464 5 132620421.177 5      1656.870          33.250                                                                  
C 4  38310615.872 5 199493441.69625       -27.821          32.500    38310616.626 4 154260978.15514       -20.377          29.750  
C 8  36492157.584 6 190024241.504 6      -451.494          37.750    36492155.485 5 146938792.612 5      -349.631          34.500  
C21  23889094.242 6 124396785.195 6       622.204          40.750                                                                  
C10  35917439.299 6 187031534.984 6       417.412          37.750    35917439.797 5 144624648.269 5       322.865          34.000  
C11  23066905.696 6 120115431.053 6       309.251          37.500    23066907.605 5  92880874.130 5       239.314          33.500  
C12  23480934.563 5 122271385.950 5      -960.638          34.500    23480935.669 6  94547999.073 6      -742.183          36.250  
C 7  35717310.944 6 185989408.577 6       -28.914          39.000    35717308.387 5 143818810.562 5       -22.783          35.250  
C 1  37381059.555 6 194652983.170 6       -20.222          38.000    37381062.604 5 150518039.78725       -15.836          32.500  
> 2021  5 21  6 29 54.0000000  0 19                     
G19  22044542.668 6 115844846.300 6      1456.814          37.000    22044540.616 4  90268733.506 4      1135.179          25.500  
G 3  22236280.142 6 116852431.867 6     -1763.837          39.750    22236285.003 5  91053827.285 5     -1374.419          32.750  
G 6  21625382.288 6 113642145.22226      1077.813          40.750    21625386.089 6  88552334.07526       839.855          40.750  
G17  21729970.611 6 114191771.334 6       680.475          40.000    21729968.563 6  88980593.464 6       530.246          38.000  
G14  20184758.422 7 106071620.062 7      -501.668          43.750    20184757.834 5  82653205.964 5      -390.906          32.500  
G28  20524861.574 6 107858880.544 6      1093.630          39.250    20524859.442 4  84045868.555 4       852.180          27.500  
R 2  21814178.629 6 116404254.265 6      2368.463          36.000    21814183.747 5  90536653.559 5      1842.143          30.500  
R15  20075757.492 6 107278375.869 6       563.585          38.500    20075760.111 5  83438744.492 5       438.348          33.500  
R17  21012660.107 6 112442592.584 6      -666.738          38.250    21012660.716 5  87455360.22915      -518.574          33.500  
C23  25468040.502 5 132618765.224 5      1655.870          33.750                                                                  
C 4  38310621.515 5 199493467.79825       -24.763          33.750    38310625.440 4 154260998.39024       -18.890          29.250  
C 8  36492244.426 6 190024693.701 6      -451.568          38.750    36492242.331 5 146939142.265 5      -349.576          34.250  
C21  23888974.638 6 124396162.409 6       623.795          40.750                                                                  
C10  35917359.171 6 187031117.755 6       417.346          38.500    35917359.694 5 144624325.688 5       322.733          34.000  
C11  23066846.395 6 120115122.226 6       309.444          37.750    23066848.186 5  92880635.362 5       238.882          33.750  
C12  23481118.987 6 122272345.943 6      -960.940          36.750    23481120.224 6  94548741.229 6      -740.118          38.000  
C13  36544251.895 6 190295502.75326       -87.986          37.750    36544255.697 5 147148566.75915       -68.040          33.500  
C 7  35717316.546 6 185989437.748 6       -27.991          40.750    35717313.985 5 143818833.125 5       -21.972          34.250  
C 1  37381063.292 6 194653002.669 6       -17.934          38.500    37381065.860 5 150518054.380 5       -14.180          32.750  
> 2021  5 21  6 29 55.0000000  0 19                     
G19  22044265.419 6 115843389.824 6      1455.521          36.250    22044262.514 5  90267598.599 5      1134.178          31.750  
G 3  22236615.892 6 116854195.694 6     -1763.346          39.250    22236620.142 5  91055201.711 5     -1374.030          34.500  
G 6  21625176.365 6 113641067.005 6      1077.632          39.750    21625180.571 6  88551493.781 6       839.713          40.000  
G17  21729841.124 6 114191090.587 6       680.679          38.750    21729839.176 6  88980063.027 6       530.408          38.750  
G14  20184853.797 7 106072121.215 7      -500.936          43.250    20184853.211 5  82653596.473 5      -390.338          35.000  
G28  20524653.460 6 107857786.905 6      1093.337          38.500    20524651.344 5  84045016.360 5       851.952          31.250  
R 2  21813734.442 6 116401883.912 6      2371.371          37.250    21813739.518 5  90534809.958 5      1844.406          31.750  
R15  20075652.114 6 107277812.916 6       561.968          40.000    20075654.754 5  83438306.639 5       437.090          32.500  
R17  21012784.630 6 112443259.623 6      -667.760          40.000    21012785.536 5  87455879.01725      -519.369          32.500  
C23  25467722.581 5 132617110.267 5      1653.904          32.250                                                                  
C25  23245326.500 6 121044513.54526      -828.475          40.250                                                                  
C 8  36492331.115 6 190025145.266 6      -451.665          37.500    36492329.064 5 146939491.381 5      -348.957          34.500  
C21  23888854.579 6 124395537.379 6       626.187          40.500                                                                  
C10  35917278.910 6 187030699.756 6       418.262          37.750    35917279.442 5 144624002.441 5       323.177          33.750  
C11  23066787.210 6 120114813.359 6       308.367          37.250    23066788.757 5  92880396.491 5       238.634          33.750  
C12  23481303.255 6 122273303.958 6      -957.905          37.000    23481304.274 6  94549482.204 6      -740.396          37.000  
C13  36544269.083 6 190295590.41926       -87.313          37.750    36544274.494 5 147148634.55425       -67.804          32.750  
C 7  35717321.825 6 185989465.327 6       -26.946          38.750    35717319.286 5 143818854.429 5       -20.627          35.250  
C 1  37381066.562 6 194653019.647 6       -15.958          37.250                                                                  
> 2021  5 21  6 29 56.0000000  0 20                     
G19  22043988.563 6 115841935.701 6      1452.645          36.000    22043985.872 4  90266465.523 4      1131.932          25.000  
G 3  22236951.541 6 116855958.778 6     -1762.170          38.500    22236954.059 4  91056575.559 4     -1373.113          28.250  
G 6  21624972.132 6 113639991.307 6      1074.168          39.000    21624975.522 6  88550655.581 6       837.014          39.500  
G17  21729711.736 6 114190411.027 6       678.302          38.250    21729709.612 6  88979533.507 6       528.555          38.500  
G14  20184949.157 7 106072622.360 7      -500.826          42.250    20184948.606 5  82653986.989 5      -390.249          36.000  
G28  20524445.535 6 107856694.304 6      1091.961          38.250    20524443.416 5  84044164.989 5       850.881          35.500  
R 2  21813289.692 5 116399510.436 5      2376.362          35.500    21813294.754 4  90532963.920 4      1848.286          29.500  
R15  20075547.239 6 107277252.620 6       559.103          38.500    20075549.909 5  83437870.855 5       434.861          33.500  
R17  21012909.607 6 112443928.578 6      -670.607          38.250    21012910.600 5  87456399.31325      -521.583          33.250  
C23  25467405.305 5 132615458.738 5      1649.502          31.500                                                                  
C 2  37062722.895 5 192995319.95115        29.050          32.250    37062722.088 5 149236222.29915        22.623          33.000  
C25  23245485.495 6 121045343.97926      -831.461          38.750                                                                  
C 8  36492417.975 6 190025597.631 6      -453.243          37.000    36492415.929 5 146939841.197 5      -350.310          34.000  
C21  23888734.109 6 124394910.055 6       629.181          42.000                                                                  
C10  35917198.797 6 187030282.490 6       416.708          37.000    35917199.309 5 144623679.761 5       322.444          33.750  
C11  23066728.265 6 120114506.499 6       305.355          37.000    23066729.768 5  92880159.240 5       236.426          33.750  
C12  23481487.299 5 122274261.795 5      -957.723          34.750    23481488.388 5  94550222.889 5      -740.528          34.500  
C13  36544286.070 6 190295679.03026       -88.837          36.250    36544291.276 5 147148703.06325       -69.154          32.750  
C 7  35717326.913 6 185989491.842 6       -25.663          38.000    35717324.381 5 143818874.917 5       -19.884          35.500  
C 1  37381069.307 6 194653033.893 6       -12.313          37.750    37381069.516 5 150518076.01315        -9.627          33.000  
> 2021  5 21  6 29 57.0000000  0 21                     
G19  22043712.526 6 115840485.977 6      1447.419          36.500    22043710.886 5  90265335.886 5      1127.864          30.750  
G 3  22237287.263 6 116857721.420 6     -1761.906          37.500    22237288.380 5  91057949.064 5     -1372.905          31.750  
G 6  21624768.342 6 113638918.544 6      1071.615          39.000    21624771.929 6  88549819.672 6       835.024          39.750  
G17  21729582.883 6 114189733.990 6       675.745          38.000    21729580.748 6  88979005.936 6       526.557          38.000  
G14  20185044.485 7 106073123.334 7      -500.281          42.000    20185043.939 5  82654377.348 5      -389.828          33.000  
G28  20524237.966 6 107855603.449 6      1090.065          38.250    20524235.872 5  84043314.985 5       849.407          31.500  
R 2  21812844.077 6 116397132.564 6      2381.216          36.500    21812849.127 5  90531114.467 5      1852.061          30.750  
R15  20075443.090 6 107276696.321 6       554.114          38.500    20075445.808 5  83437438.179 5       430.980          33.750  
R24  22918110.984 5 122553045.33125     -1902.682          33.750                                                                  
R17  21013035.222 6 112444601.307 6      -674.399          38.000    21013036.609 5  87456922.553 5      -524.533          32.750  
C23  25467089.410 5 132613812.825 5      1643.131          32.250                                                                  
C 3  36370097.335 6 189388645.180 6        24.052          38.500    36370094.590 5 146447311.88215        18.751          32.750  
C25  23245646.904 6 121046176.305 6      -833.871          40.000                                                                  
C 8  36492505.140 6 190026051.596 6      -454.613          36.750    36492503.095 5 146940192.246 5      -351.485          34.500  
C21  23888613.108 6 124394279.902 6       631.812          39.750                                                                  
C10  35917118.927 6 187029866.595 6       415.627          37.000    35917119.481 5 144623358.217 5       320.939          34.000  
C11  23066670.096 6 120114203.466 6       301.389          37.000    23066671.404 5  92879924.928 5       232.601          34.000  
C12  23481671.196 5 122275219.705 5      -957.098          34.500    23481672.299 5  94550963.565 5      -740.410          33.750  
C13  36544302.598 6 190295769.08526       -90.809          37.500    36544308.125 5 147148772.693 5       -70.132          32.500  
C 7  35717331.746 6 185989517.028 6       -24.107          39.500    35717329.220 5 143818894.396 5       -19.283          35.000  
C 1  37381071.322 6 194653044.394 6        -8.007          37.500                                                                  
> 2021  5 21  6 29 58.0000000  0 22                     
G19  22043437.522 6 115839040.684 6      1443.611          37.000    22043434.929 5  90264209.651 5      1124.892          32.000  
G 3  22237622.622 5 116859482.812 5     -1759.842          35.250    22237624.200 5  91059321.586 5     -1371.297          34.000  
G 6  21624564.366 6 113637848.954 6      1068.418          38.500    21624567.442 6  88548986.232 6       832.535          38.250  
G17  21729454.707 6 114189059.349 6       673.936          38.000    21729452.575 6  88978480.242 6       525.148          38.750  
G14  20185139.730 7 106073623.837 7      -500.122          42.000    20185139.176 5  82654767.346 5      -389.705          34.750  
G28  20524030.693 6 107854514.196 6      1088.599          38.000    20524028.587 5  84042466.222 5       848.261          30.750  
R14  20570224.904 6 109650490.27426     -3225.668          40.000    20570227.192 5  85283722.87015     -2508.853          31.500  
R 2  21812397.442 6 116394749.327 6      2386.066          37.000    21812402.515 5  90529260.852 5      1855.836          32.250  
R15  20075339.709 6 107276144.030 6       550.914          40.000    20075342.462 5  83437008.621 5       428.492          34.000  
R24  22918463.611 5 122554947.30225     -1899.655          34.000                                                                  
R17  21013161.470 6 112445277.727 6      -677.370          38.750    21013162.964 5  87457448.674 5      -526.843          31.750  
C23  25466774.667 5 132612172.775 5      1636.842          30.500                                                                  
C 3  36370092.877 6 189388620.849 6        25.057          38.750    36370091.588 5 146447293.01525        19.828          32.250  
C25  23245806.745 6 121047011.803 6      -836.945          40.500                                                                  
C 8  36492592.611 6 190026507.120 6      -456.158          36.750    36492590.587 5 146940544.473 5      -352.537          34.000  
C21  23888491.250 6 124393641.66516       636.756          38.000                                                                  
C10  35917039.300 6 187029452.039 6       414.029          36.250    35917039.861 5 144623037.636 5       320.327          33.250  
C11  23066612.613 6 120113904.321 6       297.346          37.500    23066613.754 5  92879693.584 5       230.026          34.000  
C12  23481854.732 5 122276177.362 5      -956.953          34.500    23481856.063 5  94551704.127 5      -740.207          34.500  
C13  36544320.975 6 190295860.186 6       -92.528          38.250    36544325.594 5 147148843.467 5       -71.066          32.500  
C 7  35717336.238 6 185989540.434 6       -22.510          38.750    35717333.719 5 143818912.496 5       -17.416          34.250  
C 1  37381072.469 6 194653050.404 6        -3.599          37.750                                                                  
> 2021  5 21  6 29 59.0000000  0 22                     
G19  22043163.267 6 115837598.349 6      1441.217          37.250    22043159.588 4  90263085.753 4      1123.026          28.250  
G 3  22237956.925 5 116861243.113 5     -1760.344          35.000    22237960.849 4  91060693.238 4     -1371.693          27.000  
G 6  21624361.081 6 113636781.866 6      1065.759          38.500    21624363.538 6  88548154.739 6       830.462          37.750  
G17  21729326.584 6 114188386.082 6       672.078          38.000    21729324.294 6  88977955.616 6       523.699          38.250  
G14  20185234.941 6 106074124.118 6      -500.778          41.750    20185234.359 5  82655157.173 5      -390.217          35.250  
G28  20523823.618 6 107853426.107 6      1087.187          38.250    20523821.563 5  84041618.347 5       847.159          32.250  
R14  20570831.044 6 109653715.18126     -3225.112          37.750    20570834.018 5  85286231.13525     -2508.421          33.250  
R 2  21811950.111 6 116392362.242 6      2388.187          36.500    21811955.161 5  90527404.250 5      1857.487          31.750  
R15  20075236.966 6 107275594.893 6       547.578          39.000    20075239.707 5  83436581.517 5       425.896          33.500  
R24  22918817.979 5 122556847.819 5     -1901.583          33.500                                                                  
R17  21013288.312 6 112445956.541 6      -679.959          38.250    21013289.727 5  87457976.644 5      -528.858          31.500  
C23  25466460.377 4 132610536.857 4      1634.786          27.750                                                                  
C 3  36370087.790 6 189388595.331 6        25.498          38.750    36370086.080 5 146447272.762 5        20.571          31.750  
C25  23245967.880 6 121047849.478 6      -839.057          40.500                                                                  
C 8  36492680.261 6 190026963.613 6      -457.478          36.500    36492678.268 5 146940897.450 5      -353.613          34.000  
C21  23888368.881 6 124393004.49326       638.665          39.750                                                                  
C10  35916959.847 6 187029038.325 6       413.162          36.750    35916960.405 5 144622717.751 5       319.108          33.750  
C11  23066555.732 6 120113607.626 6       295.809          38.000    23066556.742 5  92879464.193 5       228.446          34.250  
C12  23482038.234 5 122277134.227 5      -956.925          35.250    23482039.781 5  94552444.041 5      -740.014          34.500  
C13  36544339.024 6 190295952.961 6       -93.767          38.250    36544344.151 5 147148915.225 5       -72.405          32.250  
C 7  35717340.476 6 185989562.533 6       -21.813          39.000    35717337.992 5 143818929.609 5       -17.168          34.750  
C 1  37381072.969 6 194653053.079 6        -1.753          38.500    37381073.460 5 150518086.82415        -1.344          32.000  
> 2021  5 21  6 30  0.0000000  0 22                     
G19  22042889.029 6 115836157.379 6      1440.365          37.250    22042885.236 5  90261962.907 5      1122.359          30.750  
G 3  22238292.031 5 116863003.931 5     -1762.051          35.750    22238294.068 4  91062065.268 4     -1373.035          30.000  
G 6  21624158.643 6 113635716.039 6      1065.516          37.500    21624161.336 6  88547324.224 6       830.273          37.250  
G17  21729198.671 6 114187713.614 6       672.006          37.250    21729196.114 6  88977431.601 6       523.638          37.500  
G14  20185330.284 6 106074625.046 6      -501.524          41.750    20185329.643 5  82655547.502 5      -390.800          34.750  
G28  20523616.762 6 107852339.036 6      1086.363          38.750    20523614.678 5  84040771.289 5       846.520          32.250  
R14  20571434.919 6 109656940.37526     -3225.078          37.250    20571439.452 5  85288739.62825     -2508.394          32.500  
R 2  21811502.651 6 116389974.521 6      2387.301          36.250    21811507.718 5  90525547.135 5      1856.796          31.250  
R15  20075134.574 6 107275047.635 6       546.331          39.250    20075137.294 5  83436155.873 5       424.927          32.750  
R24  22919175.248 5 122558748.944 5     -1901.931          33.500    22919176.491 5  95323472.12715     -1479.280          30.500  
R17  21013415.556 6 112446636.513 6      -680.375          38.750    21013416.937 5  87458505.491 5      -529.186          32.250  
C23  25466146.637 4 132608903.038 4      1633.310          28.250                                                                  
C 3  36370083.013 6 189388569.659 6        25.691          38.500    36370081.377 5 146447252.956 5        19.935          31.750  
C25  23246129.073 6 121048688.302 6      -838.421          40.250                                                                  
C 8  36492768.061 6 190027420.818 6      -457.641          36.250    36492766.112 5 146941250.997 5      -353.933          33.750  
C21  23888246.466 6 124392366.65926       637.080          39.000                                                                  
C10  35916880.516 6 187028625.283 6       412.849          37.000    35916881.078 5 144622398.341 5       319.164          33.500  
C11  23066499.108 6 120113312.216 6       295.013          37.500    23066500.053 5  92879235.744 5       227.716          34.250  
C12  23482222.017 6 122278091.404 6      -957.637          36.000    23482223.531 5  94553184.158 5      -740.753          35.000  
C13  36544356.369 6 190296046.409 6       -93.522          38.500    36544363.636 5 147148987.468 5       -71.873          31.250  
C 7  35717344.726 6 185989584.633 6       -22.720          39.000    35717342.204 5 143818946.660 5       -17.326          34.250  
C 1  37381073.345 6 194653055.038 6        -2.139          37.000    37381073.038 5 150518087.827 5        -1.384          33.500  
> 2021  5 21  6 30  1.0000000  0 23                     
G19  22042614.977 6 115834717.026 6      1439.272          37.500    22042611.334 5  90260840.540 5      1121.504          30.250  
G 3  22238627.103 6 116864766.464 6     -1763.119          37.750    22238627.926 5  91063438.605 5     -1373.876          35.500  
G 6  21623955.652 6 113634650.304 6      1065.162          37.250    21623959.643 5  88546493.771 5       829.994          35.750  
G17  21729070.691 6 114187042.110 6       670.646          37.500    21729068.399 6  88976908.336 6       522.576          36.750  
G14  20185425.765 6 106075126.759 6      -502.066          41.750    20185425.174 5  82655938.440 5      -391.224          34.250  
G28  20523410.069 6 107851252.843 6      1085.674          39.250    20523407.970 5  84039924.914 5       845.983          31.500  
R14  20572039.886 6 109660165.042 6     -3224.307          37.500    20572044.982 5  85291248.091 5     -2507.794          35.000  
R 2  21811055.383 6 116387587.664 6      2387.011          37.750    21811060.410 5  90523690.677 5      1856.567          30.500  
R15  20075032.318 6 107274501.255 6       545.421          40.250    20075035.040 5  83435730.909 5       424.216          33.750  
R24  22919531.010 5 122560651.405 5     -1903.454          34.000    22919533.049 4  95324951.81624     -1480.465          26.750  
R17  21013542.725 6 112447317.498 6      -681.968          38.250    21013544.072 5  87459035.113 5      -530.431          32.750  
C23  25465832.932 4 132607269.832 4      1631.618          28.000                                                                  
C 3  36370077.763 6 189388543.773 6        26.124          39.000                                                                  
C 4  38310640.338 5 199493540.08315        -5.319          31.250    38310640.570 4 154261068.13914        -5.580          29.250  
C25  23246289.935 6 121049527.248 6      -838.852          38.750                                                                  
C 8  36492855.926 6 190027878.406 6      -457.836          36.750    36492853.994 5 146941604.850 5      -354.196          34.750  
C21  23888124.330 6 124391730.74326       634.703          38.250                                                                  
C10  35916801.303 6 187028212.741 6       411.968          37.750    35916801.864 5 144622079.312 5       318.723          34.000  
C11  23066442.459 6 120113017.389 6       294.081          37.000    23066443.410 5  92879007.735 5       227.521          36.000  
C12  23482406.052 5 122279049.744 5      -958.977          34.000    23482407.543 5  94553925.239 5      -742.059          34.000  
C13  36544374.392 6 190296139.747 6       -93.089          39.250    36544381.229 5 147149059.649 5       -72.157          32.000  
C 7  35717349.028 6 185989607.095 6       -22.660          39.000    35717346.494 5 143818963.992 5       -17.186          35.000  
C 1  37381073.762 6 194653057.178 6        -2.285          37.000                                                                  
> 2021  5 21  6 30  2.0000000  0 23                     
G19  22042341.442 6 115833279.170 6      1437.462          38.000    22042338.145 4  90259720.139 4      1120.098          28.250  
G 3  22238962.806 5 116866530.700 5     -1762.975          36.000    22238962.973 5  91064813.350 5     -1373.754          32.000  
G 6  21623752.811 6 113633585.546 6      1064.537          37.250    21623756.921 5  88545664.065 5       829.501          35.750  
G17  21728943.393 6 114186372.817 6       669.458          38.750    21728941.381 6  88976386.802 6       521.651          39.000  
G14  20185521.338 6 106075628.997 6      -501.209          42.000    20185520.759 5  82656329.791 5      -390.555          35.250  
G28  20523203.651 6 107850168.141 6      1085.105          39.750    20523201.481 5  84039079.660 5       845.536          30.750  
R14  20572644.651 6 109663389.208 6     -3222.220          38.750    20572648.988 5  85293755.752 5     -2506.171          34.500  
R 2  21810607.863 6 116385199.788 6      2390.892          39.000    21810612.936 5  90521833.415 5      1859.578          33.250  
R15  20074930.499 6 107273957.048 6       543.712          41.000    20074933.194 5  83435307.618 5       422.882          35.250  
R24  22919885.848 5 122562555.531 5     -1903.667          35.000    22919889.282 5  95326432.77425     -1480.630          30.000  
R17  21013670.608 6 112448001.087 6      -684.268          38.000    21013671.940 5  87459566.775 5      -532.222          34.000  
C23  25465520.048 4 132605644.98514      1628.647          25.750                                                                  
C 3  36370072.381 6 189388517.019 6        28.191          37.500    36370072.549 5 146447201.77315        21.667          34.000  
C 4  38310644.071 5 199493545.52725        -6.485          33.750    38310640.871 5 154261074.64915        -1.862          35.000  
C25  23246451.651 6 121050366.899 6      -839.152          38.250                                                                  
C 8  36492944.008 6 190028337.149 6      -458.390          37.750    36492942.081 6 146941959.551 6      -354.058          36.250  
C21  23888002.219 6 124391094.85126       636.969          37.750                                                                  
C10  35916722.307 6 187027801.284 6       412.086          37.750    35916722.875 5 144621761.161 5       318.027          35.500  
C11  23066386.303 6 120112724.866 6       292.696          37.250    23066387.216 6  92878781.526 6       225.848          37.500  
C12  23482590.386 6 122280009.724 6      -959.453          36.250    23482591.721 6  94554667.506 6      -741.941          37.250  
C13  36544392.289 6 190296233.466 6       -92.990          38.500    36544399.238 5 147149132.092 5       -71.916          34.250  
C 7  35717353.326 6 185989629.452 6       -21.118          39.250    35717350.780 6 143818981.255 6       -16.029          36.500  
C 1  37381073.972 6 194653058.220 6         0.994          36.500                                                                  
> 2021  5 21  6 30  3.0000000  0 22                     
G19  22042067.856 6 115831842.146 6      1436.212          37.000    22042064.660 5  90258600.357 5      1119.118          33.500  
G 3  22239298.103 6 116868293.851 6     -1762.205          36.500    22239298.616 5  91066187.235 5     -1373.155          31.750  
G 6  21623550.528 6 113632520.371 6      1065.245          38.250    21623554.115 6  88544834.042 6       830.051          38.000  
G17  21728816.032 6 114185703.608 6       669.274          39.250    21728814.050 6  88975865.338 6       521.508          40.000  
G14  20185616.606 6 106076129.573 6      -499.615          41.750    20185616.050 5  82656719.847 5      -389.313          34.250  
G28  20522997.106 6 107849082.852 6      1085.337          40.000    20522994.947 4  84038233.980 4       845.712          29.750  
R14  20573248.481 6 109666610.423 6     -3219.833          39.250    20573253.111 5  85296261.099 5     -2504.318          34.500  
R 2  21810159.744 6 116382808.388 6      2390.043          37.250    21810164.787 5  90519973.421 5      1858.916          34.750  
R15  20074828.729 6 107273413.326 6       543.751          40.750    20074831.441 5  83434884.704 5       422.910          34.250  
R24  22920244.440 5 122564458.625 5     -1902.613          33.500    22920245.095 4  95327912.94224     -1479.810          28.000  
R17  21013798.491 6 112448685.302 6      -684.000          39.000    21013799.796 5  87460098.932 5      -532.013          32.750  
C 3  36370067.151 6 189388487.378 6        31.016          37.000    36370066.832 5 146447178.81325        24.247          35.250  
C 4  38310642.397 5 199493570.23915        -0.061          35.000                                                                  
C25  23246612.718 6 121051205.787 6      -838.139          38.250                                                                  
C 8  36493031.932 6 190028795.016 6      -457.590          37.750    36493030.014 5 146942313.583 5      -353.731          35.500  
C21  23887879.519 6 124390455.95026       640.119          39.750                                                                  
C10  35916643.089 6 187027388.917 6       412.970          38.000    35916643.676 5 144621442.262 5       319.179          35.000  
C11  23066330.166 6 120112432.808 6       291.838          37.250    23066331.170 6  92878555.721 6       225.570          39.000  
C12  23482774.735 5 122280968.762 5      -958.617          34.250    23482775.933 6  94555409.104 6      -741.012          36.000  
C13  36544410.021 6 190296325.912 6       -91.735          39.250    36544417.073 5 147149203.573 5       -71.228          34.250  
C 7  35717357.141 6 185989649.340 6       -18.671          39.500    35717354.579 5 143818996.640 5       -14.412          35.500  
C 1  37381073.447 6 194653055.485 6         4.891          36.750    37381076.460 5 150518094.64925         3.884          34.750  
> 2021  5 21  6 30  4.0000000  0 23                     
G19  22041794.497 6 115830405.837 6      1435.509          39.000    22041791.705 4  90257481.124 4      1118.563          29.250  
G 3  22239633.345 6 116870055.301 6     -1760.498          36.750    22239633.296 5  91067559.796 5     -1371.823          32.750  
G 6  21623348.018 6 113631456.039 6      1062.374          38.250    21623351.593 6  88544004.670 6       827.812          38.250  
G17  21728688.754 6 114185033.948 6       669.559          39.500    21728686.721 6  88975343.498 6       521.724          39.250  
G14  20185711.700 6 106076629.268 6      -500.388          41.750    20185711.135 5  82657109.210 5      -389.918          35.500  
G28  20522790.560 6 107847997.405 6      1084.590          40.000    20522788.380 5  84037388.159 5       845.127          32.500  
R14  20573852.782 6 109669830.763 6     -3222.242          36.750    20573857.305 5  85298765.791 5     -2506.193          32.500  
R 2  21809710.926 6 116380413.285 6      2396.847          39.000    21809715.925 5  90518110.553 5      1864.207          33.500  
R18  22347612.551 4 119292691.13014       838.972          28.250    22347618.380 4  92783222.36814       652.534          24.000  
R15  20074727.219 6 107272870.966 6       540.558          39.750    20074729.925 5  83434462.859 5       420.426          33.500  
R24  22920599.410 5 122566359.966 5     -1901.336          35.750    22920599.915 4  95329391.76424     -1478.817          29.250  
R17  21013926.538 6 112449369.774 6      -684.852          38.500    21013927.762 5  87460631.280 5      -532.677          32.000  
C 3  36370060.986 6 189388456.251 6        30.471          38.250    36370059.683 5 146447154.282 5        23.018          32.750  
C 4  38310641.052 6 199493567.75526         4.056          36.000                                                                  
C25  23246773.824 6 121052045.560 6      -841.854          41.000                                                                  
C 8  36493119.806 6 190029252.488 6      -458.116          37.750    36493117.855 5 146942667.316 5      -354.116          33.250  
C21  23887756.308 6 124389813.913 6       642.695          40.250                                                                  
C10  35916563.810 6 187026976.098 6       412.501          38.250    35916564.373 5 144621122.990 5       318.994          33.250  
C11  23066274.217 6 120112141.259 6       291.164          38.000    23066275.237 6  92878330.254 6       224.976          36.750  
C12  23482958.471 5 122281926.075 5      -956.062          35.250    23482959.932 5  94556149.303 5      -739.134          34.250  
C13  36544427.592 6 190296418.302 6       -93.804          38.250    36544434.824 5 147149274.993 5       -72.316          32.750  
C 7  35717360.648 6 185989667.561 6       -18.478          38.750    35717358.105 5 143819010.747 5       -14.353          32.500  
C 1  37381072.355 6 194653049.794 6         6.138          37.000    37381075.095 4 150518093.34314         5.137          28.750  
> 2021  5 21  6 30  5.0000000  0 22                     
G19  22041521.277 6 115828969.889 6      1436.410          38.250    22041518.417 5  90256362.177 5      1119.262          32.750  
G 3  22239968.137 6 116871814.752 6     -1758.540          38.500    22239969.283 4  91068930.809 4     -1370.290          24.750  
G 6  21623146.042 6 113630395.250 6      1059.451          37.500    21623149.390 6  88543178.075 6       825.536          37.000  
G17  21728561.085 6 114184363.291 6       671.559          40.750    21728559.155 6  88974820.899 6       523.283          40.750  
G14  20185807.088 6 106077130.447 6      -501.964          42.000    20185806.503 5  82657499.739 5      -391.145          34.000  
G28  20522584.212 6 107846913.020 6      1084.363          39.750    20522582.053 5  84036543.138 5       844.940          34.000  
R14  20574458.893 6 109673054.798 6     -3225.867          37.500    20574462.411 5  85301273.354 5     -2509.018          33.000  
R 2  21809262.112 6 116378016.01616      2395.373          41.500                                                                  
R15  20074626.235 6 107272331.452 6       538.731          40.750    20074628.965 5  83434043.220 5       419.002          34.750  
R24  22920954.090 6 122568257.834 6     -1896.362          38.000    22920954.495 4  95330867.377 4     -1474.950          28.500  
R17  21014054.314 6 112450053.558 6      -682.938          40.000    21014055.402 5  87461163.101 5      -531.187          34.000  
C 3  36370055.757 6 189388427.192 6        28.274          38.750                                                                  
C 4  38310639.033 5 199493564.89025         3.024          34.250                                                                  
C25  23246935.870 6 121052888.889 6      -844.854          39.500                                                                  
C 8  36493207.837 6 190029710.962 6      -458.703          38.000    36493205.895 5 146943021.828 5      -354.561          33.750  
C21  23887632.921 6 124389171.346 6       642.902          40.250                                                                  
C10  35916484.666 6 187026563.957 6       411.993          38.000    35916485.224 5 144620804.288 5       318.693          33.500  
C11  23066218.317 6 120111849.881 6       291.966          37.000    23066219.225 5  92878104.942 5       225.809          35.000  
C12  23483141.933 5 122282880.872 5      -953.338          34.250    23483143.477 5  94556887.654 5      -737.703          34.000  
C13  36544446.277 6 190296513.384 6       -95.912          39.500    36544453.054 5 147149348.514 5       -74.016          32.000  
C 7  35717364.278 6 185989686.305 6       -19.227          39.000    35717361.699 5 143819025.207 5       -14.741          32.750  
C 1  37381071.280 5 194653044.093 5         6.058          32.750    37381072.489 5 150518088.86425         4.399          33.750  
> 2021  5 21  6 30  6.0000000  0 21                     
G19  22041247.932 6 115827533.720 6      1435.955          37.750    22041245.995 5  90255243.057 5      1118.910          34.250  
G 3  22240303.030 6 116873573.687 6     -1759.634          38.500    22240304.696 4  91070301.422 4     -1371.140          30.000  
G 6  21622944.160 6 113629336.500 6      1057.898          37.500    21622947.771 6  88542353.062 6       824.325          37.500  
G17  21728433.316 6 114183691.824 6       671.097          41.000    21728431.468 6  88974297.672 6       522.924          41.000  
G14  20185902.720 6 106077633.109 6      -503.451          41.750    20185902.184 5  82657891.421 5      -392.302          34.250  
G28  20522378.055 6 107845829.521 6      1082.698          39.750    20522375.898 5  84035698.825 5       843.641          30.750  
R14  20575063.694 6 109676281.861 6     -3227.772          37.250    20575067.524 5  85303783.256 5     -2510.505          32.500  
R 2  21808813.464 6 116375621.69126      2393.936          40.500    21808817.861 5  90514390.82915      1861.950          34.250  
R15  20074525.648 6 107271793.839 6       536.458          40.500    20074528.346 5  83433625.056 5       417.233          34.250  
R24  22921307.680 6 122570153.905 6     -1896.312          38.250    22921309.250 4  95332342.078 4     -1474.916          29.250  
R17  21014181.866 6 112450736.569 6      -683.160          40.000    21014182.663 5  87461694.330 5      -531.357          33.000  
C 3  36370050.619 6 189388399.883 6        26.952          38.500    36370049.684 5 146447119.17015        20.796          31.250  
C 4  38310638.884 5 199493562.313 5         1.853          33.250    38310636.094 5 154261055.49815         1.636          31.250  
C25  23247098.661 6 121053734.695 6      -846.825          39.750                                                                  
C 8  36493295.991 6 190030170.078 6      -459.559          38.000    36493294.072 5 146943376.848 5      -355.274          33.750  
C21  23887509.572 6 124388528.983 6       641.870          40.000                                                                  
C10  35916405.615 6 187026152.318 6       410.996          37.750    35916406.187 5 144620485.991 5       317.647          33.250  
C11  23066162.294 6 120111558.346 6       291.206          36.750    23066163.150 5  92877879.499 5       225.146          34.500  
C12  23483325.054 5 122283834.334 5      -954.215          33.500    23483326.358 5  94557624.875 5      -737.643          34.000  
C13  36544465.157 6 190296610.099 6       -96.914          39.000    36544470.983 5 147149423.353 5       -75.433          31.250  
C 7  35717368.044 6 185989705.941 6       -20.299          38.750    35717365.485 5 143819040.394 5       -15.337          32.750  
> 2021  5 21  6 30  7.0000000  0 21                     
G19  22040974.682 6 115826097.951 6      1435.903          38.000    22040972.337 4  90254124.311 4      1118.884          29.750  
G 3  22240638.043 6 116875333.539 6     -1760.179          38.750    22240639.577 5  91071672.752 5     -1371.563          31.250  
G 6  21622742.781 6 113628278.520 6      1057.957          37.250    21622746.558 6  88541528.652 6       824.371          37.250  
G17  21728305.505 6 114183020.705 6       671.295          40.750    21728303.909 6  88973774.721 6       523.080          41.250  
G14  20185998.576 6 106078136.777 6      -503.808          41.750    20185998.029 5  82658283.897 5      -392.577          34.500  
G28  20522172.044 6 107844746.859 6      1082.657          40.000    20522169.946 4  84034855.176 4       843.612          28.500  
R14  20575669.124 6 109679509.889 6     -3228.333          37.500    20575672.856 5  85306293.916 5     -2510.943          32.750  
R 2  21808364.965 6 116373228.14926      2393.544          40.750    21808370.095 5  90512529.23225      1861.646          34.250  
R15  20074425.264 6 107271257.503 6       536.033          40.250    20074427.956 5  83433207.897 5       416.904          34.500  
R24  22921662.900 6 122572050.181 6     -1896.235          38.250    22921664.195 4  95333816.940 4     -1474.859          29.250  
R17  21014309.497 6 112451419.941 6      -683.155          39.750    21014310.256 5  87462225.849 5      -531.349          33.500  
C 3  36370045.354 6 189388372.981 6        26.967          38.500    36370043.484 5 146447098.35325        20.881          32.000  
C 4  38310637.619 5 199493560.077 5         2.578          33.250    38310639.797 5 154261053.79125         1.961          31.250  
C25  23247261.598 6 121054581.345 6      -846.919          39.750                                                                  
C 8  36493384.245 6 190030629.669 6      -459.619          37.750    36493382.351 5 146943732.255 5      -355.571          33.500  
C21  23887386.370 6 124387887.429 6       641.697          39.750                                                                  
C10  35916326.656 6 187025741.136 6       411.026          38.000    35916327.233 5 144620168.031 5       317.735          33.750  
C11  23066106.353 6 120111267.142 6       291.522          37.000    23066107.294 5  92877654.327 5       225.258          34.750  
C12  23483508.228 5 122284788.027 5      -953.809          33.250    23483509.569 5  94558362.334 5      -737.115          33.750  
C13  36544483.950 6 190296707.378 6       -97.371          38.750    36544489.170 5 147149498.532 5       -75.091          31.250  
C 7  35717371.918 6 185989726.078 6       -20.258          38.500    35717369.328 5 143819055.956 5       -15.404          32.500  
> 2021  5 21  6 30  8.0000000  0 21                     
G19  22040701.546 6 115824662.301 6      1435.356          38.250    22040699.459 4  90253005.643 4      1118.462          24.000  
G 3  22240972.985 6 116877094.083 6     -1761.137          38.500    22240974.585 5  91073044.606 5     -1372.310          31.500  
G 6  21622541.524 6 113627221.063 6      1057.073          37.500    21622545.116 6  88540704.658 6       823.686          37.750  
G17  21728177.817 6 114182349.691 6       670.913          40.750    21728176.346 6  88973251.851 6       522.784          40.500  
G14  20186094.545 6 106078641.166 6      -504.784          41.750    20186093.992 5  82658676.930 5      -393.338          33.000  
G28  20521966.132 6 107843664.845 6      1081.555          40.000    20521964.081 5  84034012.044 5       842.756          30.250  
R14  20576274.840 6 109682738.560 6     -3229.028          37.500    20576278.472 5  85308805.088 5     -2511.482          32.250  
R 2  21807916.539 6 116370835.16126      2392.788          41.250    21807921.424 5  90510668.03125      1861.057          34.250  
R15  20074325.062 6 107270722.194 6       534.813          40.250    20074327.762 5  83432791.543 5       415.957          34.250  
R24  22922017.396 6 122573946.390 6     -1896.482          38.250    22922018.555 4  95335291.752 4     -1475.052          29.000  
R17  21014437.296 6 112452103.427 6      -683.879          40.000    21014437.712 5  87462757.457 5      -531.908          33.500  
C 3  36370040.180 6 189388346.194 6        26.387          38.500                                                                  
C 4  38310637.951 5 199493557.991 5         1.462          33.250    38310638.877 5 154261052.13125         2.128          31.250  
C25  23247424.499 6 121055428.574 6      -847.861          39.500                                                                  
C 8  36493472.527 6 190031089.470 6      -460.166          37.750    36493470.602 5 146944087.771 5      -355.563          33.500  
C21  23887263.289 6 124387246.459 6       640.529          39.750                                                                  
C10  35916247.718 6 187025330.173 6       410.792          38.250    35916248.261 5 144619850.271 5       317.267          33.750  
C11  23066050.442 6 120110976.063 6       290.836          37.000    23066051.320 5  92877429.237 5       224.809          34.750  
C12  23483691.415 5 122285741.830 5      -954.468          33.750    23483692.563 5  94559099.876 5      -737.806          34.000  
C13  36544502.761 6 190296804.861 6       -97.722          39.000    36544507.260 5 147149573.908 5       -75.345          30.750  
C 7  35717375.831 6 185989746.478 6       -20.838          38.750    35717373.274 5 143819071.744 5       -15.810          33.000  
> 2021  5 21  6 30  9.0000000  0 20                     
G19  22040428.252 6 115823226.873 6      1435.698          38.000    22040426.167 4  90251887.139 4      1118.728          27.750  
G 3  22241308.127 6 116878855.387 6     -1761.239          38.500    22241310.289 4  91074417.055 4     -1372.389          29.750  
G 6  21622340.279 6 113626164.218 6      1056.100          36.750    21622343.902 6  88539881.148 6       822.931          37.500  
G17  21728050.196 6 114181678.897 6       670.824          40.750    21728048.768 6  88972729.158 6       522.717          40.750  
G14  20186190.686 6 106079146.384 6      -505.453          41.750    20186190.105 5  82659070.606 5      -393.859          35.000  
G28  20521760.339 6 107842583.479 6      1081.212          40.000    20521758.293 5  84033169.427 5       842.496          31.750  
R14  20576880.961 6 109685968.045 6     -3229.894          37.500    20576884.172 5  85311316.904 5     -2512.154          32.500  
R 2  21807468.247 6 116368442.842 6      2392.299          41.750    21807473.560 5  90508806.840 5      1860.677          34.500  
R15  20074225.075 6 107270187.959 6       533.958          40.250    20074227.755 5  83432376.028 5       415.294          34.250  
R24  22922371.938 6 122575842.688 6     -1896.316          38.500    22922373.790 4  95336766.642 4     -1474.922          29.500  
R17  21014565.106 6 112452787.124 6      -683.727          40.250    21014565.358 5  87463289.228 5      -531.788          33.750  
C 3  36370034.800 6 189388319.590 6        26.811          38.500    36370034.021 5 146447056.05115        20.593          31.750  
C25  23247587.493 6 121056276.463 6      -848.237          39.250                                                                  
C 8  36493560.887 6 190031549.611 6      -460.520          37.750    36493558.936 5 146944443.573 5      -355.787          33.250  
C21  23887140.325 6 124386606.172 6       640.104          39.750                                                                  
C10  35916168.868 6 187024919.536 6       410.755          38.250    35916169.382 5 144619532.718 5       317.469          33.500  
C11  23065994.513 6 120110685.172 6       290.951          37.250    23065995.393 5  92877204.307 5       224.740          34.750  
C12  23483874.673 5 122286695.771 5      -953.559          33.500    23483875.839 5  94559837.552 5      -737.491          34.000  
C13  36544521.577 6 190296902.705 6       -97.906          38.750    36544525.809 5 147149649.551 5       -75.404          30.750  
C 7  35717379.801 6 185989767.157 6       -20.659          38.750    35717377.241 5 143819087.725 5       -15.472          32.750  
> 2021  5 21  6 30 10.0000000  0 20                     
G19  22040154.919 6 115821791.448 6      1435.278          38.000    22040152.770 5  90250768.604 5      1118.395          36.000  
G 3  22241643.363 6 116880617.260 6     -1762.244          38.750    22241646.034 4  91075789.958 4     -1373.170          27.250  
G 6  21622138.865 6 113625107.692 6      1055.832          37.000    21622142.938 6  88539057.881 6       822.723          37.000  
G17  21727922.490 6 114181008.062 6       670.371          40.750    21727921.061 6  88972206.426 6       522.363          40.500  
G14  20186286.935 6 106079652.174 6      -506.519          41.750    20186286.370 5  82659464.722 5      -394.691          32.750  
G28  20521554.651 6 107841502.585 6      1080.349          40.000    20521552.601 5  84032327.205 5       841.830          31.250  
R14  20577486.880 6 109689197.900 6     -3230.196          37.750    20577489.893 5  85313829.014 5     -2512.384          32.250  
R 2  21807020.030 6 116366050.924 6      2391.427          41.750    21807025.447 5  90506946.463 5      1859.998          34.250  
R15  20074125.269 6 107269654.573 6       532.556          40.250    20074127.918 5  83431961.176 5       414.207          34.500  
R24  22922726.270 6 122577738.836 6     -1896.616          38.500    22922728.435 4  95338241.412 4     -1475.155          29.250  
R17  21014692.931 6 112453470.795 6      -683.947          40.500    21014693.326 5  87463820.975 5      -531.958          33.250  
C 3  36370029.645 6 189388292.973 6        26.362          38.750                                                                  
C25  23247750.418 6 121057124.786 6      -848.715          39.250                                                                  
C 8  36493649.248 6 190032009.770 6      -460.510          37.750    36493647.280 5 146944799.426 5      -356.090          33.000  
C21  23887017.430 6 124385966.295 6       639.388          40.000                                                                  
C10  35916090.020 6 187024508.957 6       410.119          38.000    35916090.540 5 144619215.224 5       317.133          33.750  
C11  23065938.609 6 120110394.231 6       290.738          37.250    23065939.436 5  92876979.330 5       224.796          34.750  
C12  23484058.020 5 122287649.689 5      -954.772          33.250    23484058.940 5  94560575.132 5      -737.647          34.000  
C13  36544540.442 6 190297000.624 6       -98.441          38.500    36544544.517 5 147149725.283 5       -76.022          31.250  
C 7  35717383.808 6 185989788.000 6       -21.026          38.500    35717381.307 5 143819103.852 5       -16.466          32.500  
> 2021  5 21  6 30 11.0000000  0 21                     
G19  22039881.817 6 115820356.547 6      1435.118          37.500    22039879.925 4  90249650.517 4      1118.275          29.750  
G 3  22241978.766 6 116882380.240 6     -1763.521          38.250    22241981.797 4  91077163.692 4     -1374.174          26.500  
G 6  21621937.932 6 113624052.068 6      1055.431          37.250    21621942.131 6  88538235.320 6       822.412          36.750  
G17  21727794.947 6 114180337.729 6       670.289          40.750    21727793.625 6  88971684.091 6       522.301          40.250  
G14  20186383.405 6 106080159.088 6      -507.186          42.000    20186382.791 5  82659859.720 5      -395.212          35.500  
G28  20521349.172 6 107840422.718 6      1079.611          40.000    20521347.082 5  84031485.747 5       841.256          32.250  
R14  20578093.174 6 109692428.876 6     -3231.349          37.500    20578096.046 5  85316342.000 5     -2513.279          32.000  
R 2  21806571.997 6 116363659.961 6      2390.728          41.750    21806577.057 5  90505086.833 5      1859.456          34.750  
R15  20074025.721 6 107269122.609 6       531.303          40.250    20074028.336 5  83431547.428 5       413.233          34.500  
R24  22923080.685 6 122579635.334 6     -1896.423          38.250    22923082.844 4  95339716.459 4     -1475.006          29.000  
R17  21014820.822 6 112454155.035 6      -684.246          40.250    21014821.217 5  87464353.168 5      -532.190          34.000  
C 3  36370024.759 6 189388266.880 6        26.102          38.750                                                                  
C 4  38310636.085 5 199493545.76325         1.407          33.250                                                                  
C25  23247913.510 6 121057974.102 6      -849.541          39.000                                                                  
C 8  36493737.747 6 190032470.572 6      -460.650          37.750    36493735.792 5 146945155.731 5      -356.287          33.500  
C21  23886894.746 6 124385327.404 6       638.815          40.250                                                                  
C10  35916011.307 6 187024098.990 6       409.917          38.000    35916011.828 5 144618898.210 5       316.840          33.500  
C11  23065882.862 6 120110103.824 6       290.529          37.500    23065883.731 5  92876754.765 5       224.507          34.750  
C12  23484241.291 5 122288604.069 5      -954.497          33.500    23484242.212 5  94561313.112 5      -737.749          33.750  
C13  36544559.533 6 190297099.153 6       -98.612          38.500    36544563.474 5 147149801.479 5       -76.134          31.250  
C 7  35717387.928 6 185989809.469 6       -21.568          38.500    35717385.416 5 143819120.450 5       -16.287          32.250  
> 2021  5 21  6 30 12.0000000  0 22                     
G19  22039608.809 6 115818921.972 6      1434.493          37.750    22039606.935 5  90248532.658 5      1117.788          34.000  
G 3  22242314.475 6 116884144.052 6     -1763.970          37.750    22242317.304 3  91078538.052 3     -1374.529          23.250  
G 6  21621737.292 6 113622997.134 6      1054.813          36.750    21621741.493 6  88537413.300 6       821.932          36.750  
G17  21727667.442 6 114179667.699 6       670.099          40.500    21727666.180 6  88971162.001 6       522.156          40.500  
G14  20186480.046 6 106080666.915 6      -508.234          41.750    20186479.431 5  82660255.420 5      -396.030          34.500  
G28  20521143.828 6 107839343.608 6      1078.759          39.500    20521141.722 5  84030644.884 5       840.592          34.750  
R14  20578699.526 6 109695660.636 6     -3231.954          37.500    20578702.318 5  85318855.587 5     -2513.748          32.250  
R 2  21806124.108 7 116361269.730 7      2390.035          42.000    21806129.372 5  90503227.766 5      1858.917          34.500  
R15  20073926.414 6 107268591.817 6       530.240          40.250    20073929.000 5  83431134.590 5       412.407          34.500  
R24  22923435.368 6 122581531.996 6     -1896.640          37.750    22923437.439 4  95341191.633 4     -1475.173          29.250  
R17  21014948.793 6 112454839.587 6      -684.760          40.000    21014949.257 5  87464885.597 5      -532.590          33.750  
C 3  36370019.770 6 189388241.075 6        25.696          38.500    36370018.604 5 146446990.35825        19.790          32.000  
C 4  38310635.039 5 199493544.666 5         1.093          33.000                                                                  
C25  23248076.736 6 121058824.186 6      -850.323          38.750                                                                  
C 8  36493826.298 6 190032931.730 6      -461.170          37.750    36493824.361 5 146945512.317 5      -356.397          33.500  
C21  23886772.194 6 124384689.261 6       637.853          39.750                                                                  
C10  35915932.657 6 187023689.401 6       409.331          38.250    35915933.212 5 144618581.501 5       316.467          33.000  
C11  23065827.136 6 120109813.677 6       290.085          37.250    23065827.949 5  92876530.404 5       224.126          34.750  
C12  23484424.538 5 122289558.652 5      -954.865          33.250    23484425.464 5  94562051.293 5      -738.599          34.000  
C13  36544578.517 6 190297198.120 6       -99.305          38.500    36544582.532 5 147149877.997 5       -76.449          31.000  
C 7  35717392.136 6 185989831.385 6       -21.995          38.500    35717389.640 5 143819137.394 5       -16.769          32.750  
C 1  37381066.268 5 194653016.00415         2.927          32.000                                                                  
> 2021  5 21  6 30 13.0000000  0 21                     
G19  22039335.854 6 115817487.555 6      1434.848          37.250    22039333.879 3  90247414.950 3      1118.067          23.250  
G 3  22242650.390 6 116885908.631 6     -1764.611          38.250    22242652.568 5  91079913.091 5     -1375.016          32.000  
G 6  21621536.790 6 113621942.774 6      1054.319          37.000    21621540.847 6  88536591.733 6       821.550          37.000  
G17  21727540.013 6 114178997.823 6       670.156          40.500    21727538.815 6  88970640.021 6       522.201          40.000  
G14  20186576.811 6 106081175.522 6      -508.537          42.000    20186576.228 6  82660651.740 6      -396.264          36.000  
G28  20520938.628 6 107838265.124 6      1078.572          40.000    20520936.537 5  84029804.511 5       840.447          33.500  
R14  20579305.790 6 109698893.119 6     -3232.404          37.500    20579308.970 5  85321369.741 5     -2514.096          32.750  
R 2  21805676.293 7 116358880.088 7      2389.527          42.000    21805681.474 5  90501369.155 5      1858.521          34.500  
R15  20073827.284 6 107268062.084 6       529.539          40.000    20073829.823 5  83430722.575 5       411.862          34.750  
R24  22923790.237 6 122583428.692 6     -1896.365          37.500    22923792.054 4  95342666.836 4     -1474.958          28.500  
R17  21015076.765 6 112455524.303 6      -684.431          40.000    21015077.168 5  87465418.149 5      -532.336          34.000  
C 3  36370014.782 6 189388215.444 6        25.987          38.500                                                                  
C25  23248240.223 6 121059674.892 6      -850.823          39.000                                                                  
C 8  36493914.912 6 190033393.179 6      -461.169          37.750    36493912.969 5 146945869.168 5      -356.626          34.250  
C21  23886649.757 6 124384051.755 6       637.367          40.000                                                                  
C10  35915854.059 6 187023280.086 6       409.539          38.250    35915854.637 5 144618264.978 5       316.840          33.750  
C11  23065771.378 6 120109523.685 6       289.994          37.000    23065772.280 5  92876306.143 5       224.554          35.000  
C12  23484607.699 5 122290513.377 5      -954.845          33.750    23484608.766 5  94562789.538 5      -737.797          34.000  
C13  36544597.499 6 190297297.384 6       -99.126          38.000    36544601.718 5 147149954.781 5       -76.457          30.750  
C 7  35717396.399 6 185989853.557 6       -21.852          38.250    35717393.891 5 143819154.583 5       -17.311          32.750  
C 1  37381062.156 5 194653012.197 5         3.303          32.250    37381063.346 5 150518056.91715         2.650          34.500  
> 2021  5 21  6 30 14.0000000  0 20                     
G19  22039062.812 6 115816052.793 6      1434.858          37.250    22039060.929 5  90246296.950 5      1118.076          32.750  
G 3  22242986.293 6 116887673.383 6     -1764.857          38.250    22242988.759 5  91081288.245 5     -1375.207          31.000  
G 6  21621336.269 6 113620888.386 6      1054.394          36.750    21621340.224 6  88535770.143 6       821.611          36.000  
G17  21727412.434 6 114178327.567 6       670.807          40.750    21727411.267 6  88970117.753 6       522.709          40.750  
G14  20186673.642 6 106081684.350 6      -508.998          42.000    20186673.076 5  82661048.236 5      -396.621          33.750  
G28  20520733.439 6 107837186.812 6      1078.179          39.750    20520731.356 5  84028964.259 5       840.136          31.750  
R14  20579912.066 6 109702125.714 6     -3232.499          37.000    20579915.180 5  85323883.982 5     -2514.169          32.250  
R 2  21805228.520 7 116356490.435 7      2389.768          42.000    21805233.545 5  90499510.540 5      1858.710          35.000  
R15  20073728.207 6 107267532.865 6       528.735          40.000    20073730.759 5  83430310.961 5       411.237          34.500  
R24  22924144.536 6 122585324.840 6     -1896.123          36.750    22924146.439 5  95344141.615 5     -1474.769          30.250  
R17  21015204.652 6 112456208.631 6      -684.314          40.250    21015204.955 5  87465950.405 5      -532.244          33.750  
C 3  36370009.669 6 189388189.451 6        26.022          38.750    36370009.014 5 146446956.43615        20.290          31.500  
C25  23248403.497 6 121060525.695 6      -851.116          39.000                                                                  
C 8  36494003.457 6 190033854.357 6      -461.172          38.000    36494001.485 5 146946225.756 5      -356.450          33.250  
C21  23886527.367 6 124383414.326 6       637.212          40.000                                                                  
C10  35915775.402 6 187022870.521 6       409.699          38.500    35915775.964 5 144617948.278 5       316.822          33.250  
C11  23065715.611 6 120109233.332 6       290.627          36.750    23065716.557 5  92876081.647 5       224.495          34.750  
C12  23484790.866 5 122291467.691 5      -954.037          33.500    23484791.983 5  94563527.455 5      -737.438          33.750  
C13  36544616.383 6 190297396.412 6       -98.987          38.000    36544620.339 5 147150031.341 5       -76.636          30.750  
C 7  35717400.614 6 185989875.522 6       -21.813          38.500    35717398.078 5 143819171.538 5       -16.829          32.750  
> 2021  5 21  6 30 15.0000000  0 21                     
G19  22038789.735 6 115814617.572 6      1434.957          37.000    22038787.745 5  90245178.600 5      1118.147          32.000  
G 3  22243321.971 6 116889438.269 6     -1765.083          37.750    22243324.004 4  91082663.467 4     -1375.387          28.750  
G 6  21621135.626 6 113619833.944 6      1054.251          37.250    21621139.642 6  88534948.511 6       821.500          37.000  
G17  21727284.787 6 114177656.852 6       670.728          40.750    21727283.576 6  88969595.126 6       522.649          40.250  
G14  20186770.499 6 106082193.322 6      -509.413          42.000    20186769.975 5  82661444.841 5      -396.944          30.750  
G28  20520528.232 6 107836108.472 6      1078.007          40.000    20520526.167 5  84028123.985 5       840.002          32.000  
R14  20580518.817 6 109705358.414 6     -3233.361          37.250    20580521.843 5  85326398.305 5     -2514.839          32.000  
R 2  21804780.751 6 116354100.727 6      2389.528          42.000    21804785.828 5  90497651.882 5      1858.524          34.250  
R15  20073629.196 6 107267003.996 6       528.343          40.000    20073631.772 5  83429899.618 5       410.933          34.500  
R24  22924498.938 6 122587220.329 6     -1895.620          36.750                                                                  
R17  21015332.352 6 112456892.473 6      -684.207          40.250    21015332.743 5  87466482.284 5      -532.161          33.750  
C 3  36370004.679 6 189388162.969 6        26.563          38.750    36370002.934 5 146446935.95825        20.508          32.000  
C 4  38310637.445 5 199493546.66115         1.953          33.500                                                                  
C25  23248566.825 6 121061376.470 6      -851.246          38.750                                                                  
C 8  36494091.958 6 190034315.163 6      -461.061          37.750    36494089.980 5 146946582.108 5      -356.575          32.750  
C21  23886404.953 6 124382776.874 6       637.092          39.750                                                                  
C10  35915696.657 6 187022460.543 6       410.014          38.250    35915697.191 5 144617631.279 5       316.977          33.750  
C11  23065659.860 6 120108942.505 6       290.604          37.250    23065660.643 5  92875856.763 5       224.679          34.750  
C12  23484973.793 5 122292421.503 5      -954.091          33.500    23484975.069 5  94564265.056 5      -737.926          33.750  
C13  36544635.228 6 190297495.110 6       -99.040          37.750    36544639.259 5 147150107.642 5       -75.992          30.750  
C 7  35717404.764 6 185989897.115 6       -21.560          38.250    35717402.232 5 143819188.285 5       -17.664          32.750  
> 2021  5 21  6 30 16.0000000  0 22                     
G19  22038516.759 6 115813182.739 6      1434.186          37.000    22038514.703 5  90244060.521 5      1117.542          31.500  
G 3  22243657.982 6 116891204.056 6     -1766.273          37.750    22243659.333 5  91084039.377 5     -1376.322          31.500  
G 6  21620935.116 6 113618780.255 6      1052.901          37.000    21620939.210 6  88534127.461 6       820.448          37.250  
G17  21727157.257 6 114176986.492 6       669.980          41.000    21727156.018 6  88969072.770 6       522.066          41.000  
G14  20186867.534 6 106082703.273 6      -510.669          41.750    20186867.005 5  82661842.222 5      -397.920          31.500  
G28  20520323.203 6 107835030.994 6      1077.185          39.750    20520321.130 5  84027284.383 5       839.359          31.500  
R14  20581125.581 6 109708591.951 6     -3234.237          37.250    20581128.537 5  85328913.273 5     -2515.521          32.250  
R 2  21804333.101 6 116351711.793 6      2388.413          41.500    21804338.110 5  90495793.824 5      1857.656          34.750  
R15  20073530.477 6 107266476.400 6       526.889          40.000    20073533.014 5  83429489.269 5       409.803          34.750  
R24  22924853.297 6 122589116.035 6     -1896.070          36.500    22924854.724 4  95347086.81714     -1474.721          29.750  
R17  21015460.256 6 112457576.691 6      -684.677          40.250    21015460.558 5  87467014.455 5      -532.526          33.500  
C 3  36369999.648 6 189388136.861 6        26.016          38.500    36369999.070 5 146446915.76025        20.126          31.750  
C 4  38310635.640 5 199493545.26625         1.133          33.750                                                                  
C25  23248730.329 6 121062228.054 6      -851.900          39.000                                                                  
C 8  36494180.564 6 190034776.406 6      -461.270          37.750    36494178.563 5 146946938.778 5      -356.912          33.000  
C21  23886282.709 6 124382140.260 6       635.987          40.250                                                                  
C10  35915618.032 6 187022051.061 6       409.072          38.000    35915618.503 5 144617314.596 5       316.741          33.750  
C11  23065604.124 6 120108652.015 6       290.035          37.250    23065604.838 5  92875632.126 5       224.177          34.750  
C12  23485156.894 5 122293375.634 5      -954.694          32.750    23485158.062 5  94565002.842 5      -738.188          34.000  
C13  36544654.108 6 190297594.269 6       -99.714          37.750    36544658.225 5 147150184.343 5       -77.102          31.000  
C 7  35717409.031 6 185989919.253 6       -22.659          38.750    35717406.457 5 143819205.327 5       -17.544          33.000  
C 1  37381061.350 5 194652997.11415         3.589          31.750    37381061.840 5 150518044.96715         2.412          34.000  
> 2021  5 21  6 30 17.0000000  0 22                     
G19  22038243.810 6 115811748.044 6      1434.589          37.000    22038241.656 5  90242942.570 5      1117.855          30.750  
G 3  22243994.147 6 116892970.555 6     -1766.601          37.500    22243994.936 5  91085415.842 5     -1376.580          30.500  
G 6  21620734.667 6 113617727.098 6      1052.583          37.500    21620738.770 6  88533306.826 6       820.200          36.750  
G22  24777024.605 5 130204167.84915     -3058.149          32.750                                                                  
G17  21727029.799 6 114176316.240 6       670.522          41.250    21727028.464 6  88968550.493 6       522.487          41.000  
G14  20186964.713 6 106083213.951 6      -510.939          41.500    20186964.180 5  82662240.139 5      -398.135          36.000  
G28  20520118.289 6 107833954.118 6      1077.021          40.000    20520116.168 5  84026445.254 5       839.234          32.250  
R14  20581732.108 6 109711826.122 6     -3234.217          37.000    20581735.391 5  85331428.737 5     -2515.505          32.000  
R 2  21803885.561 6 116349323.405 6      2388.242          42.000    21803890.418 5  90493936.189 5      1857.523          34.750  
R15  20073431.954 6 107265949.782 6       525.967          40.000    20073434.460 5  83429079.679 5       409.085          34.750  
R24  22925207.696 6 122591011.700 6     -1895.481          36.750    22925209.424 5  95348561.23925     -1474.263          30.000  
R17  21015588.118 6 112458261.042 6      -684.185          40.250    21015588.450 5  87467546.731 5      -532.143          33.250  
C 3  36369994.709 6 189388110.886 6        25.995          38.750    36369993.769 5 146446895.166 5        20.211          31.750  
C25  23248894.081 6 121063080.256 6      -852.313          39.000                                                                  
C 8  36494269.190 6 190035237.908 6      -461.444          37.500    36494267.157 5 146947295.611 5      -356.622          33.250  
C21  23886160.567 6 124381504.214 6       635.906          40.000                                                                  
C10  35915539.436 6 187021641.793 6       409.490          38.250    35915539.869 5 144616998.157 5       316.621          34.000  
C11  23065548.393 6 120108361.632 6       290.670          37.500    23065549.108 5  92875407.589 5       224.471          35.250  
C12  23485340.031 5 122294329.888 5      -954.164          33.500    23485341.261 5  94565740.679 5      -737.720          33.750  
C13  36544673.034 6 190297693.686 6       -99.529          37.500    36544677.264 5 147150261.218 5       -77.190          31.000  
C 7  35717413.327 6 185989941.624 6       -22.466          38.750    35717410.738 5 143819222.655 5       -17.291          32.750  
C 1  37381062.327 5 194652993.47725         3.635          32.500    37381061.874 5 150518042.143 5         2.670          35.000  
> 2021  5 21  6 30 18.0000000  0 22                     
G19  22037970.753 6 115810313.110 6      1435.470          37.000    22037967.919 5  90241824.452 5      1118.551          32.750  
G 3  22244330.328 6 116894737.393 6     -1766.882          37.750    22244331.978 4  91086792.621 4     -1376.790          25.250  
G 6  21620534.159 6 113616674.031 6      1053.032          37.250    21620538.437 6  88532486.257 6       820.550          37.000  
G22  24777605.763 5 130207225.95025     -3058.194          32.750                                                                  
G17  21726902.208 6 114175645.784 6       670.499          41.500    21726900.993 6  88968028.060 6       522.468          41.500  
G14  20187061.952 6 106083725.001 6      -511.282          41.750    20187061.485 5  82662638.352 5      -398.404          34.250  
G28  20519913.409 6 107832877.518 6      1076.294          40.000    20519911.321 5  84025606.355 5       838.669          35.000  
R14  20582338.920 6 109715060.636 6     -3234.642          37.250    20582342.034 5  85333944.466 5     -2515.836          32.750  
R 2  21803438.050 6 116346935.218 6      2388.192          41.750    21803442.878 5  90492078.707 5      1857.483          35.000  
R15  20073333.550 6 107265423.824 6       525.504          39.500    20073336.029 5  83428670.601 5       408.726          34.750  
R24  22925561.991 6 122592907.045 6     -1895.623          36.750    22925564.892 5  95350035.40025     -1474.374          31.000  
R17  21015715.970 6 112458945.177 6      -683.973          40.000    21015716.202 5  87468078.833 5      -531.979          33.500  
C 3  36369989.718 6 189388084.686 6        26.179          38.750                                                                  
C25  23249057.697 6 121063932.679 6      -852.422          39.000                                                                  
C 8  36494357.790 6 190035699.282 6      -461.713          38.250    36494355.764 5 146947652.366 5      -356.651          33.750  
C21  23886038.470 6 124380868.425 6       635.527          40.000                                                                  
C10  35915460.817 6 187021232.385 6       409.544          38.250    35915461.216 5 144616681.573 5       316.853          34.000  
C11  23065492.580 6 120108071.043 6       290.665          37.750    23065493.387 5  92875182.885 5       224.909          35.250  
C12  23485523.247 5 122295283.815 5      -953.424          33.250    23485524.390 5  94566478.348 5      -737.692          34.000  
C13  36544691.948 6 190297792.989 6       -99.312          37.000    36544696.225 5 147150338.002 5       -76.961          30.750  
C 7  35717417.613 6 185989963.881 6       -22.100          38.750    35717414.952 5 143819239.877 5       -17.178          32.750  
C 1  37381060.568 5 194652989.58025         3.935          32.000    37381061.527 5 150518039.134 5         3.454          34.250  
> 2021  5 21  6 30 19.0000000  0 22                     
G19  22037697.711 6 115808878.463 6      1433.784          37.000    22037695.198 5  90240706.577 5      1117.240          31.500  
G 3  22244666.639 6 116896505.035 6     -1768.743          37.750    22244667.934 5  91088170.025 5     -1378.240          30.250  
G 6  21620333.956 6 113615621.623 6      1051.372          37.750    21620338.046 6  88531666.205 6       819.257          36.750  
G22  24778189.701 5 130210284.554 5     -3059.199          32.750                                                                  
G17  21726774.676 6 114174975.524 6       669.541          41.250    21726773.402 6  88967505.778 6       521.721          41.500  
G14  20187159.360 6 106084236.909 6      -513.081          41.750    20187158.934 5  82663037.236 5      -399.806          35.250  
G28  20519708.690 6 107831801.599 6      1074.844          40.000    20519706.558 5  84024767.969 5       837.538          30.500  
R14  20582945.568 6 109718295.904 6     -3236.580          37.000    20582949.087 5  85336460.779 5     -2517.344          32.000  
R 2  21802990.649 6 116344547.706 6      2386.811          42.000    21802995.595 5  90490221.748 5      1856.407          35.250  
R15  20073235.330 6 107264899.024 6       523.639          39.750    20073237.802 5  83428262.423 5       407.275          35.000  
R24  22925916.587 6 122594802.402 6     -1896.015          37.250    22925919.470 4  95351509.065 4     -1474.679          30.000  
R17  21015843.869 6 112459629.537 6      -684.943          40.500    21015844.006 5  87468611.111 5      -532.734          33.500  
C 3  36369984.736 6 189388058.711 6        25.281          38.750    36369984.513 5 146446861.34115        19.632          32.250  
C25  23249221.555 6 121064785.826 6      -854.182          38.750                                                                  
C 8  36494446.421 6 190036160.933 6      -462.423          38.000    36494444.422 5 146948009.343 5      -357.392          33.750  
C21  23885916.504 6 124380233.321 6       633.961          40.000                                                                  
C10  35915382.257 6 187020823.307 6       408.230          38.500    35915382.652 5 144616365.244 5       315.947          34.000  
C11  23065436.849 6 120107780.670 6       289.536          37.750    23065437.537 5  92874958.336 5       224.067          35.000  
C12  23485706.452 5 122296237.989 5      -954.832          33.250    23485707.459 5  94567216.159 5      -738.269          34.000  
C13  36544710.836 6 190297892.675 6      -100.499          37.250    36544715.462 5 147150415.077 5       -77.480          31.000  
C 7  35717421.965 6 185989986.519 6       -23.641          38.500    35717419.291 5 143819257.380 5       -18.030          32.500  
C 1  37381061.082 5 194652985.97125         2.133          31.750    37381062.693 5 150518036.341 5         2.215          34.750  
> 2021  5 21  6 30 20.0000000  0 22                     
G19  22037424.716 6 115807444.219 6      1434.633          37.500    22037422.450 5  90239588.970 5      1117.896          33.500  
G 3  22245003.168 6 116898273.701 6     -1768.791          37.750    22245004.359 5  91089548.205 5     -1378.277          31.750  
G 6  21620133.878 6 113614570.029 6      1051.563          37.750    21620138.094 6  88530846.783 6       819.405          37.500  
G22  24778772.615 5 130213343.810 5     -3059.058          32.500                                                                  
G17  21726647.176 6 114174305.691 6       670.137          41.500    21726645.966 6  88966983.830 6       522.185          41.250  
G14  20187256.957 6 106084749.834 6      -512.770          41.750    20187256.536 5  82663436.923 5      -399.561          33.750  
G28  20519504.141 6 107830726.619 6      1075.122          40.000    20519502.054 5  84023930.325 5       837.757          33.750  
R14  20583552.609 6 109721532.113 6     -3235.816          36.750    20583556.236 5  85338977.827 5     -2516.750          32.000  
R 2  21802543.412 6 116342161.093 6      2386.866          42.000    21802548.210 5  90488365.493 5      1856.451          35.000  
R15  20073137.362 6 107264375.532 6       523.514          39.500    20073139.847 5  83427855.267 5       407.179          34.250  
R24  22926271.065 6 122596698.127 6     -1895.351          38.000    22926273.834 5  95352983.518 5     -1474.162          30.750  
R17  21015971.787 6 112460314.324 6      -684.268          40.500    21015972.066 5  87469143.720 5      -532.210          33.500  
C 3  36369979.856 6 189388033.150 6        25.894          38.750                                                                  
C25  23249385.447 6 121065639.816 6      -853.805          39.000                                                                  
C 8  36494535.183 6 190036623.142 6      -461.987          38.000    36494533.182 5 146948366.779 5      -357.267          33.750  
C21  23885794.692 6 124379599.071 6       634.241          40.000                                                                  
C10  35915303.792 6 187020414.751 6       408.915          38.500    35915304.165 5 144616049.342 5       316.084          33.750  
C11  23065381.128 6 120107490.710 6       289.982          37.750    23065381.957 5  92874734.147 5       224.174          35.000  
C12  23485889.707 5 122297192.483 5      -954.499          33.500    23485890.628 5  94567954.243 5      -737.862          34.250  
C13  36544729.940 6 190297992.892 6       -99.924          37.000    36544734.470 5 147150492.606 5       -77.692          30.750  
C 7  35717426.415 6 185990009.698 6       -22.674          38.750    35717423.770 5 143819275.286 5       -17.430          33.000  
C 1  37381059.895 5 194652982.70325         3.779          32.250    37381060.141 5 150518033.866 5         2.495          34.750  
> 2021  5 21  6 30 21.0000000  0 22                     
G19  22037151.663 6 115806009.312 6      1434.451          37.250    22037149.525 3  90238470.868 3      1117.756          20.750  
G 3  22245339.643 6 116900042.186 6     -1768.964          37.750    22245340.778 4  91090926.294 4     -1378.397          28.750  
G 6  21619933.750 6 113613518.101 6      1051.184          37.750    21619937.885 6  88530027.100 6       819.108          38.750  
G22  24779352.056 5 130216402.615 5     -3058.506          33.500                                                                  
G17  21726519.574 6 114173635.147 6       670.188          41.500    21726518.401 6  88966461.327 6       522.225          41.750  
G14  20187354.537 6 106085262.673 6      -513.620          42.000    20187354.071 5  82663836.541 5      -400.223          33.750  
G28  20519299.534 6 107829651.409 6      1074.594          40.250    20519297.400 4  84023092.509 4       837.348          29.500  
R14  20584159.727 6 109724768.144 6     -3236.830          37.000    20584163.360 5  85341494.740 5     -2517.537          32.250  
R 2  21802096.124 7 116339774.213 7      2386.086          42.250    21802100.964 5  90486509.036 5      1855.846          35.000  
R15  20073039.429 6 107263852.182 6       522.451          39.500    20073041.905 5  83427448.218 5       406.352          34.750  
R24  22926625.712 6 122598592.985 6     -1895.444          38.000    22926628.634 5  95354457.297 5     -1474.234          30.250  
R17  21016099.653 6 112460998.440 6      -684.722          40.250    21016099.817 5  87469675.810 5      -532.562          33.750  
C 3  36369974.741 6 189388006.908 6        25.732          39.000                                                                  
C25  23249549.392 6 121066493.602 6      -854.719          38.750                                                                  
C 8  36494623.819 6 190037084.737 6      -461.932          38.000    36494621.842 5 146948723.716 5      -357.450          33.500  
C21  23885672.860 6 124378964.577 6       634.113          40.250                                                                  
C10  35915225.223 6 187020005.597 6       408.578          38.500    35915225.618 5 144615732.963 5       315.668          33.250  
C11  23065325.316 6 120107200.046 6       289.969          38.000    23065326.151 5  92874509.350 5       224.602          35.000  
C12  23486072.745 5 122298146.290 5      -954.265          33.000    23486073.902 5  94568691.779 5      -737.833          33.500  
C13  36544748.849 6 190298092.548 6      -100.359          36.500    36544753.483 5 147150569.664 5       -77.730          31.000  
C 7  35717430.757 6 185990032.336 6       -23.277          38.500    35717428.121 5 143819292.816 5       -18.128          32.750  
C 1  37381058.857 5 194652978.79625         3.499          32.000    37381060.795 5 150518030.797 5         2.583          34.750  
> 2021  5 21  6 30 22.0000000  0 22                     
G19  22036878.842 6 115804575.542 6      1433.583          37.250    22036876.931 4  90237353.643 4      1117.079          29.500  
G 3  22245676.535 6 116901812.442 6     -1771.209          37.750    22245677.964 5  91092305.702 5     -1380.164          31.750  
G 6  21619733.881 6 113612467.719 6      1049.580          37.500    21619738.123 6  88529208.618 6       817.857          37.750  
G22  24779934.296 5 130219462.888 5     -3060.681          33.000    24779930.447 5 101469671.41615     -2384.946          30.500  
G17  21726392.242 6 114172965.754 6       669.002          41.250    21726391.085 6  88965939.727 6       521.302          41.000  
G14  20187452.464 6 106085777.278 6      -515.076          41.750    20187452.009 5  82664237.532 5      -401.358          34.750  
G28  20519095.239 6 107828577.838 6      1072.930          40.000    20519093.099 5  84022255.968 5       836.053          32.250  
R14  20584767.051 6 109728005.821 6     -3237.968          36.750    20584770.804 5  85344012.930 5     -2518.423          32.250  
R 2  21801649.147 7 116337388.925 7      2384.801          42.500    21801653.885 5  90484653.819 5      1854.848          35.000  
R15  20072941.844 6 107263330.869 6       520.675          39.750    20072944.354 5  83427042.752 5       404.970          34.750  
R24  22926980.432 6 122600488.843 6     -1896.069          38.500    22926983.042 5  95355931.856 5     -1474.720          30.750  
R17  21016227.708 6 112461683.706 6      -685.501          40.000    21016227.797 5  87470208.797 5      -533.167          33.500  
C 3  36369969.952 6 189387981.785 6        24.989          38.750    36369969.818 5 146446795.87715        18.980          31.000  
C25  23249713.564 6 121067348.951 6      -855.823          38.250                                                                  
C 8  36494712.700 6 190037547.566 6      -463.217          38.000    36494710.692 5 146949081.611 5      -358.165          33.750  
C21  23885551.318 6 124378331.706 6       632.182          40.000                                                                  
C10  35915146.878 6 187019597.695 6       407.204          38.500    35915147.259 5 144615417.525 5       315.055          33.500  
C11  23065269.779 6 120106910.507 6       289.177          38.000    23065270.590 5  92874285.479 5       223.611          35.250  
C12  23486256.063 5 122299101.140 5      -955.220          33.750    23486257.358 5  94569430.134 5      -738.352          34.000  
C13  36544768.131 6 190298193.396 6      -101.004          36.500    36544772.841 5 147150647.620 5       -78.137          30.500  
C 7  35717435.335 6 185990056.225 6       -24.244          38.750    35717432.667 5 143819311.274 5       -18.983          33.000  
C 1  37381058.109 5 194652976.03425         1.968          31.750    37381060.309 5 150518028.665 5         1.851          34.750  
> 2021  5 21  6 30 23.0000000  0 22                     
G19  22036606.069 6 115803142.243 6      1432.928          37.250    22036604.451 4  90236236.778 4      1116.566          28.750  
G 3  22246013.604 6 116903583.641 6     -1771.736          37.500    22246015.345 5  91093685.809 5     -1380.584          31.500  
G 6  21619534.090 6 113611418.112 6      1049.114          37.500    21619538.387 6  88528390.745 6       817.494          37.250  
G22  24780517.847 5 130222523.816 5     -3061.672          33.250    24780515.666 5 101472056.482 5     -2385.718          30.750  
G17  21726264.986 6 114172296.737 6       668.740          41.000    21726263.670 6  88965418.417 6       521.098          41.500  
G14  20187550.586 6 106086292.877 6      -516.157          41.750    20187550.097 5  82664639.290 5      -402.204          34.000  
G28  20518891.133 6 107827505.165 6      1071.849          40.000    20518889.024 5  84021420.129 5       835.212          32.500  
R14  20585374.667 6 109731244.404 6     -3239.197          37.000    20585378.463 5  85346531.828 5     -2519.377          32.000  
R 2  21801202.340 7 116335004.483 7      2383.965          42.250    21801207.197 5  90482799.260 5      1854.199          35.000  
R15  20072844.520 6 107262810.813 6       519.328          40.000    20072847.031 5  83426638.263 5       403.922          34.750  
R24  22927335.152 6 122602384.951 6     -1896.292          38.500    22927337.882 5  95357406.607 5     -1474.894          31.250  
R17  21016355.918 6 112462369.413 6      -686.177          40.000    21016356.058 5  87470742.127 5      -533.693          33.750  
C 3  36369965.226 6 189387957.093 6        24.419          38.750    36369964.268 5 146446776.238 5        19.191          31.500  
C25  23249877.883 6 121068205.176 6      -856.597          38.250                                                                  
C 8  36494801.693 6 190038010.894 6      -463.589          38.000    36494799.630 5 146949439.857 5      -358.299          34.000  
C21  23885429.952 6 124377699.705 6       631.269          40.000                                                                  
C10  35915068.643 6 187019190.283 6       407.302          38.500    35915068.985 5 144615102.458 5       315.021          33.750  
C11  23065214.236 6 120106621.349 6       288.821          38.000    23065215.059 5  92874061.879 5       223.428          35.500  
C12  23486439.496 5 122300056.369 5      -955.891          33.750    23486440.830 5  94570168.765 5      -738.748          34.250  
C13  36544787.428 6 190298294.824 6      -102.229          36.750    36544792.231 5 147150726.028 5       -78.556          30.750  
C 7  35717440.037 6 185990080.652 6       -24.764          38.500    35717437.330 5 143819330.110 5       -19.072          33.000  
C 1  37381057.819 5 194652973.66025         1.994          32.750    37381059.816 5 150518026.818 5         1.676          34.750  
> 2021  5 21  6 30 24.0000000  0 22                     
G19  22036333.328 6 115801708.749 6      1433.497          37.750    22036331.519 5  90235119.755 5      1117.005          34.000  
G 3  22246350.690 6 116905355.246 6     -1771.834          37.750    22246352.876 4  91095066.244 4     -1380.661          29.750  
G 6  21619334.371 6 113610368.723 6      1049.641          37.750    21619338.794 6  88527573.047 6       817.906          37.750  
G22  24781100.859 5 130225584.740 5     -3060.565          33.750    24781100.981 4 101474441.523 4     -2384.856          25.250  
G17  21726137.670 6 114171627.569 6       669.244          41.000    21726136.330 6  88964896.983 6       521.489          41.000  
G14  20187648.776 6 106086808.913 6      -516.172          41.750    20187648.245 5  82665041.395 5      -402.212          34.250  
G28  20518687.055 6 107826432.768 6      1072.394          39.750    20518684.966 5  84020584.486 5       835.633          33.250  
R14  20585982.244 6 109734483.343 6     -3239.115          36.750    20585986.116 5  85349051.002 5     -2519.314          32.250  
R 2  21800755.548 7 116332620.246 7      2384.305          42.000    21800760.498 5  90480944.859 5      1854.463          35.250  
R15  20072747.350 6 107262291.481 6       519.166          40.000    20072749.857 5  83426234.336 5       403.796          34.750  
R24  22927689.621 6 122604280.723 6     -1895.359          38.250    22927692.210 4  95358881.084 4     -1474.171          30.000  
R17  21016484.029 6 112463054.868 6      -685.062          40.000    21016484.129 5  87471275.257 5      -532.826          33.500  
C 3  36369960.491 6 189387932.213 6        25.217          38.750                                                                  
C25  23250042.344 6 121069061.725 6      -856.427          38.000                                                                  
C 8  36494890.676 6 190038474.204 6      -463.312          38.000    36494888.607 5 146949798.126 5      -358.142          33.750  
C21  23885308.629 6 124377067.957 6       631.648          40.000                                                                  
C10  35914990.385 6 187018782.805 6       407.533          38.500    35914990.735 5 144614787.384 5       315.369          34.000  
C11  23065158.673 6 120106332.024 6       289.459          37.750    23065159.516 5  92873838.169 5       223.967          35.000  
C12  23486622.841 5 122301011.336 5      -954.548          34.000    23486624.308 5  94570907.279 5      -738.199          34.250  
C13  36544806.768 6 190298396.162 6      -101.059          36.250    36544811.736 5 147150804.413 5       -78.289          30.500  
C 7  35717444.713 6 185990105.009 6       -24.186          38.500    35717442.013 5 143819348.990 5       -18.922          33.000  
C 1  37381057.504 5 194652971.07825         3.171          32.250    37381059.607 5 150518024.852 5         1.940          34.250  
> 2021  5 21  6 30 25.0000000  0 22                     
G19  22036060.440 6 115800274.944 6      1433.651          37.750    22036058.514 5  90234002.482 5      1117.124          30.750  
G 3  22246687.864 6 116907127.080 6     -1772.310          37.500    22246689.754 5  91096446.882 5     -1381.035          34.750  
G 6  21619134.619 6 113609319.391 6      1049.221          37.750    21619139.072 6  88526755.388 6       817.577          37.250  
G22  24781682.941 5 130228645.680 5     -3061.131          33.250    24781691.290 4 101476826.711 4     -2385.297          28.250  
G17  21726010.247 6 114170958.027 6       669.672          40.750    21726008.905 6  88964375.261 6       521.822          40.250  
G14  20187747.033 6 106087325.223 6      -516.413          41.750    20187746.521 5  82665443.716 5      -402.401          35.000  
G28  20518483.015 6 107825360.555 6      1071.788          40.000    20518480.903 5  84019749.000 5       835.163          35.750  
R14  20586589.794 6 109737722.529 6     -3239.139          36.500    20586593.840 5  85351570.365 5     -2519.333          31.750  
R 2  21800308.776 6 116330236.072 6      2384.061          41.750    21800313.713 5  90479090.502 5      1854.273          35.250  
R15  20072650.288 6 107261772.704 6       518.508          39.750    20072652.784 5  83425830.844 5       403.284          34.250  
R24  22928044.084 6 122606176.006 6     -1895.084          38.000    22928046.456 4  95360355.178 4     -1473.960          29.750  
R17  21016612.097 6 112463740.010 6      -685.224          39.750    21016612.109 5  87471808.142 5      -532.953          33.250  
C 3  36369955.671 6 189387907.009 6        25.235          38.750    36369955.127 5 146446735.51025        19.661          31.750  
C25  23250206.665 6 121069918.383 6      -857.046          37.750                                                                  
C 8  36494979.584 6 190038937.236 6      -463.203          38.000    36494977.538 5 146950156.177 5      -358.109          33.500  
C21  23885187.336 6 124376436.329 6       631.485          40.000                                                                  
C10  35914912.073 6 187018375.059 6       407.840          38.250    35914912.453 5 144614472.097 5       315.510          33.500  
C11  23065103.064 6 120106042.353 6       289.732          37.750    23065103.965 5  92873614.171 5       223.821          35.250  
C12  23486806.134 5 122301966.010 5      -954.660          33.500    23486807.727 5  94571645.447 5      -737.972          34.000  
C13  36544826.027 6 190298497.359 6      -101.648          36.250    36544831.269 5 147150882.627 5       -78.218          30.500  
C 7  35717449.370 6 185990129.200 6       -24.182          38.250    35717446.681 5 143819367.677 5       -18.579          32.500  
C 1  37381056.832 5 194652968.21025         2.970          32.250    37381058.579 5 150518022.597 5         2.486          34.500  
> 2021  5 21  6 30 26.0000000  0 22                     
G19  22035787.522 6 115798841.048 6      1433.725          37.500    22035785.808 5  90232885.146 5      1117.178          32.000  
G 3  22247025.130 6 116908899.358 6     -1772.409          37.250    22247027.218 5  91097827.880 5     -1381.095          32.750  
G 6  21618935.015 6 113608270.322 6      1048.920          38.000    21618939.515 6  88525937.928 6       817.342          37.750  
G22  24782265.678 5 130231706.702 5     -3061.189          33.250    24782275.143 4 101479212.024 4     -2385.342          29.000  
G17  21725882.806 6 114170288.367 6       669.788          41.000    21725881.500 6  88963853.447 6       521.913          40.750  
G14  20187845.385 6 106087842.021 6      -516.948          41.750    20187844.886 5  82665846.423 5      -402.816          34.250  
G28  20518279.057 6 107824288.687 6      1071.474          40.000    20518276.942 5  84018913.794 5       834.921          31.500  
R14  20587197.669 6 109740962.114 6     -3239.812          36.750    20587201.651 5  85354090.039 5     -2519.856          31.750  
R 2  21799862.061 6 116327852.176 6      2383.913          41.750    21799866.990 5  90477236.363 5      1854.158          35.250  
R15  20072553.333 6 107261254.714 6       517.447          39.750    20072555.849 5  83425427.963 5       402.459          34.500  
R24  22928398.472 6 122608071.089 6     -1895.452          38.000    22928401.085 5  95361829.119 5     -1474.248          30.750  
R17  21016740.085 6 112464425.054 6      -684.982          39.750    21016740.076 5  87472340.955 5      -532.764          33.500  
C 3  36369950.804 6 189387881.695 6        25.158          38.750    36369949.946 5 146446715.94625        19.448          31.500  
C25  23250371.059 6 121070775.379 6      -857.475          38.000                                                                  
C 8  36495068.510 6 190039400.263 6      -463.179          38.250    36495066.482 5 146950514.200 5      -357.892          33.250  
C21  23885066.112 6 124375805.066 6       631.116          39.750                                                                  
C10  35914833.763 6 187017967.325 6       407.602          38.000    35914834.156 5 144614156.829 5       314.818          32.750  
C11  23065047.420 6 120105752.556 6       290.064          37.500    23065048.303 5  92873390.100 5       224.061          35.250  
C12  23486989.439 5 122302920.495 5      -954.007          33.250    23486991.058 5  94572383.534 5      -738.203          33.750  
C13  36544845.300 5 190298598.494 5      -101.240          36.000    36544850.572 5 147150960.868 5       -78.032          30.250  
C 7  35717453.997 6 185990153.374 6       -24.245          38.750    35717451.315 5 143819386.398 5       -19.014          32.750  
C 1  37381056.473 5 194652965.20425         2.845          32.250    37381058.527 5 150518020.310 5         2.088          34.500  
> 2021  5 21  6 30 27.0000000  0 22                     
G19  22035514.651 6 115797407.131 6      1433.577          37.500    22035513.107 5  90231767.820 5      1117.072          34.000  
G 3  22247362.398 6 116910672.202 6     -1773.247          37.250    22247364.248 4  91099209.383 4     -1381.744          24.250  
G 6  21618735.511 6 113607221.625 6      1048.242          37.750    21618739.933 6  88525120.766 6       816.814          37.250  
G22  24782847.642 5 130234767.965 5     -3060.905          33.750                                                                  
G17  21725755.346 6 114169618.702 6       669.567          40.500    21725754.074 6  88963331.636 6       521.742          40.500  
G14  20187943.844 6 106088359.418 6      -517.601          41.750    20187943.299 5  82666249.589 5      -403.325          34.000  
G28  20518075.205 6 107823217.300 6      1071.142          39.750    20518073.117 5  84018078.945 5       834.659          31.250  
R14  20587805.554 6 109744202.220 6     -3240.564          36.750    20587809.464 5  85356610.119 5     -2520.442          32.250  
R 2  21799415.409 7 116325468.699 7      2383.110          42.000    21799420.346 5  90475382.550 5      1853.533          35.500  
R15  20072456.551 6 107260737.575 6       516.438          39.750    20072459.059 5  83425025.741 5       401.674          34.750  
R24  22928752.766 6 122609965.930 6     -1895.162          36.750    22928755.606 5  95363302.875 5     -1474.022          31.250  
R17  21016868.056 6 112465110.142 6      -685.318          39.750    21016868.108 5  87472873.802 5      -533.025          33.250  
C 3  36369945.950 6 189387856.364 6        24.960          38.750    36369944.666 5 146446696.360 5        19.566          31.500  
C25  23250535.590 6 121071632.813 6      -857.773          37.750                                                                  
C 8  36495157.439 6 190039863.362 6      -463.110          38.000    36495155.409 5 146950872.286 5      -358.011          33.500  
C21  23884944.976 6 124375174.249 6       630.266          39.750                                                                  
C10  35914755.465 6 187017559.639 6       407.550          38.250    35914755.833 5 144613841.579 5       315.087          33.250  
C11  23064991.802 6 120105462.750 6       289.730          38.000    23064992.654 5  92873165.997 5       224.030          35.000  
C12  23487172.702 5 122303874.884 5      -953.521          32.750    23487174.451 5  94573121.547 5      -738.140          34.000  
C13  36544864.676 6 190298699.802 6      -101.801          36.000    36544870.014 5 147151039.180 5       -78.512          30.500  
C 7  35717458.663 6 185990177.688 6       -24.458          38.750    35717455.986 5 143819405.162 5       -18.770          33.000  
C 1  37381055.117 5 194652962.21515         2.692          32.000    37381057.596 5 150518017.937 5         2.430          34.250  
> 2021  5 21  6 30 28.0000000  0 23                     
G19  22035241.823 6 115795973.580 6      1433.571          37.750    22035240.240 4  90230650.805 4      1117.073          28.500  
G 3  22247699.915 6 116912445.978 6     -1774.470          37.500    22247702.269 4  91100591.537 4     -1382.702          29.500  
G 6  21618536.055 6 113606173.670 6      1047.658          37.750    21618540.534 6  88524304.183 6       816.360          37.000  
G22  24783430.425 5 130237829.888 5     -3061.844          33.500    24783437.918 4 101484034.04014     -2385.881          27.500  
G17  21725628.002 6 114168949.371 6       669.118          40.750    21725626.597 6  88962810.081 6       521.391          40.750  
G14  20188042.489 6 106088877.777 6      -518.731          41.750    20188041.881 5  82666653.498 5      -404.207          34.250  
G28  20517871.479 6 107822146.725 6      1070.334          39.750    20517869.416 5  84017244.708 5       834.024          34.000  
R14  20588413.597 6 109747443.196 6     -3241.066          37.000    20588417.417 5  85359130.870 5     -2520.833          32.250  
R 2  21798968.894 6 116323085.980 6      2382.721          42.000    21798973.756 5  90473529.326 5      1853.230          35.250  
R15  20072360.015 6 107260221.643 6       515.350          39.750    20072362.516 5  83424624.461 5       400.827          34.500  
R24  22929107.264 5 122611861.005 5     -1895.146          35.750    22929109.918 5  95364776.811 5     -1474.011          31.250  
R17  21016996.124 6 112465795.512 6      -685.342          40.000    21016996.222 5  87473406.868 5      -533.043          33.250  
C 2  37062571.230 5 192994537.59315        21.559          30.000                                                                  
C 3  36369941.146 6 189387831.352 6        25.101          38.750                                                                  
C25  23250700.325 6 121072491.066 6      -858.402          37.750                                                                  
C 8  36495246.435 6 190040326.878 6      -463.590          38.000    36495244.451 5 146951230.740 5      -358.677          33.250  
C21  23884823.979 6 124374544.213 6       629.693          39.500                                                                  
C10  35914677.249 6 187017152.374 6       407.332          38.500    35914677.656 5 144613526.658 5       314.595          33.250  
C11  23064936.204 6 120105173.252 6       289.780          38.000    23064937.073 5  92872942.154 5       223.765          35.000  
C12  23487356.009 5 122304829.625 5      -953.980          33.000    23487357.820 5  94573859.811 5      -738.491          33.750  
C13  36544884.075 5 190298801.555 5      -102.233          36.000    36544889.505 5 147151117.864 5       -79.085          30.250  
C 7  35717463.433 6 185990202.471 6       -25.034          38.500    35717460.760 5 143819424.298 5       -18.760          32.750  
C 1  37381054.256 5 194652959.48725         3.020          31.750    37381056.663 5 150518015.887 5         1.820          34.250  
> 2021  5 21  6 30 29.0000000  0 23                     
G19  22034968.993 6 115794540.373 6      1433.194          37.500    22034967.687 5  90229534.015 5      1116.774          33.750  
G 3  22248037.624 6 116914220.641 6     -1775.221          37.750    22248039.435 5  91101974.382 5     -1383.290          32.000  
G 6  21618336.719 6 113605126.422 6      1046.732          37.500    21618341.302 6  88523488.144 6       815.636          38.750  
G22  24784013.283 5 130240892.396 5     -3063.232          33.250                                                                  
G17  21725500.674 6 114168280.383 6       668.521          41.000    21725499.336 6  88962288.789 6       520.926          40.750  
G14  20188141.307 6 106089397.071 6      -520.016          42.000    20188140.663 5  82667058.145 5      -405.206          33.500  
G28  20517667.915 6 107821077.017 6      1069.198          40.250    20517665.880 5  84016411.177 5       833.142          34.000  
R14  20589021.843 6 109750685.031 6     -3242.388          37.000    20589025.632 5  85361652.290 5     -2521.862          31.500  
R 2  21798522.538 7 116320704.073 7      2381.556          42.000    21798527.358 5  90471676.736 5      1852.325          35.000  
R15  20072263.744 6 107259706.949 6       513.955          40.000    20072266.201 5  83424224.144 5       399.743          34.750  
R24  22929461.411 5 122613756.261 5     -1895.737          34.750    22929464.632 5  95366250.890 5     -1474.470          30.500  
R17  21017124.232 6 112466481.216 6      -686.005          40.000    21017124.387 5  87473940.196 5      -533.559          33.500  
C 2  37062567.699 5 192994515.90625        21.475          30.250                                                                  
C 3  36369936.434 6 189387806.710 6        24.423          38.750    36369934.969 5 146446655.98715        18.573          31.250  
C25  23250865.184 6 121073350.110 6      -859.940          38.000                                                                  
C 8  36495335.538 6 190040790.869 6      -464.346          38.000    36495333.565 5 146951589.542 5      -359.263          33.250  
C21  23884703.157 6 124373914.997 6       628.298          39.750                                                                  
C10  35914599.134 6 187016745.611 6       406.191          38.000    35914599.514 5 144613212.118 5       314.323          33.250  
C11  23064880.724 6 120104884.117 6       289.036          37.750    23064881.658 5  92872718.563 5       223.035          34.750  
C12  23487539.432 5 122305784.662 5      -955.041          33.000    23487541.327 5  94574598.281 5      -739.017          33.750  
C13  36544903.530 5 190298903.725 5      -102.216          35.750    36544909.138 5 147151196.879 5       -79.143          30.500  
C 7  35717468.265 6 185990227.691 6       -25.614          38.500    35717465.627 5 143819443.846 5       -19.530          33.000  
C 1  37381053.877 5 194652957.19425         1.649          31.750    37381055.999 5 150518014.102 5         1.562          34.250  
> 2021  5 21  6 30 30.0000000  0 23                     
G19  22034696.309 6 115793107.469 6      1432.769          37.250    22034695.553 4  90228417.466 4      1116.447          28.500  
G 3  22248375.444 6 116915996.118 6     -1775.736          37.750    22248377.240 4  91103357.865 4     -1383.688          28.500  
G 6  21618137.502 6 113604079.776 6      1046.660          38.000    21618142.154 6  88522672.576 6       815.581          37.000  
G22  24784595.779 5 130243955.375 5     -3063.005          33.250    24784598.333 4 101488796.26414     -2386.760          25.250  
G17  21725373.366 6 114167611.598 6       669.055          41.250    21725372.046 6  88961767.653 6       521.341          40.750  
G14  20188240.296 7 106089917.218 7      -520.521          42.000    20188239.635 5  82667463.451 5      -405.601          35.000  
G28  20517464.492 6 107820007.978 6      1068.756          40.500    20517462.429 5  84015578.152 5       832.795          34.250  
R14  20589630.171 6 109753927.582 6     -3243.153          37.000    20589633.961 5  85364174.269 5     -2522.457          32.000  
R 2  21798076.323 6 116318322.853 6      2381.043          41.750    21798081.072 5  90469824.678 5      1851.925          34.750  
R15  20072167.658 6 107259193.379 6       513.500          40.000    20072170.106 5  83423824.705 5       399.390          34.500  
R24  22929816.000 5 122615651.598 5     -1895.127          34.250    22929818.484 5  95367725.041 5     -1473.994          30.500  
R17  21017252.460 6 112467167.123 6      -685.653          40.000    21017252.561 5  87474473.678 5      -533.285          33.500  
C 2  37062563.669 4 192994494.57624        20.724          30.000                                                                  
C 3  36369931.728 6 189387782.290 6        24.608          38.750    36369930.218 5 146446637.08425        18.939          31.250  
C25  23251030.170 6 121074209.840 6      -859.753          38.000                                                                  
C 8  36495424.701 6 190041255.176 6      -464.229          38.000    36495422.712 5 146951948.558 5      -359.076          34.000  
C21  23884582.461 6 124373286.456 6       628.246          40.000                                                                  
C10  35914521.091 6 187016339.124 6       406.543          38.000    35914521.460 5 144612897.802 5       314.129          33.250  
C11  23064825.266 6 120104595.184 6       288.658          38.250    23064826.176 5  92872495.106 5       223.446          34.750  
C12  23487722.723 5 122306739.866 5      -954.685          33.000    23487724.753 5  94575336.881 5      -738.420          33.500  
C13  36544923.163 5 190299006.256 5      -102.078          35.750    36544928.817 5 147151276.145 5       -78.782          30.750  
C 7  35717473.191 6 185990253.306 6       -25.673          38.500    35717470.587 5 143819463.635 5       -19.992          33.000  
C 1  37381053.386 5 194652955.05425         2.732          31.500    37381055.974 5 150518012.466 5         1.681          34.250  
> 2021  5 21  6 30 31.0000000  0 23                     
G19  22034423.629 6 115791674.263 6      1433.501          37.000    22034422.635 5  90227300.690 5      1117.015          33.500  
G 3  22248713.320 6 116917771.964 6     -1776.243          38.000    22248715.458 5  91104741.641 5     -1384.089          30.750  
G 6  21617938.426 6 113603033.300 6      1046.687          38.000    21617943.009 6  88521857.148 6       815.604          38.250  
G22  24785178.336 5 130247018.352 5     -3062.490          32.750                                                                  
G17  21725246.068 6 114166942.599 6       669.031          41.250    21725244.727 6  88961246.350 6       521.321          41.250  
G14  20188339.350 6 106090437.728 6      -520.753          42.000    20188338.709 5  82667869.042 5      -405.783          34.000  
G28  20517261.124 6 107818939.225 6      1068.649          40.250    20517259.018 5  84014745.355 5       832.712          35.500  
R14  20590238.448 6 109757170.393 6     -3242.712          36.750    20590242.303 5  85366696.450 5     -2522.114          31.750  
R 2  21797630.136 7 116315941.804 7      2380.751          42.000    21797634.977 5  90467972.749 5      1851.697          35.000  
R15  20072071.682 6 107258680.477 6       512.376          40.000    20072074.134 5  83423425.784 5       398.516          34.250  
R24  22930170.260 5 122617546.443 5     -1894.218          33.750    22930172.846 5  95369198.822 5     -1473.282          30.750  
R17  21017380.556 6 112467852.863 6      -685.462          40.000    21017380.623 5  87475007.030 5      -533.137          33.000  
C 2  37062560.071 5 192994476.94115        21.564          30.250                                                                  
C 3  36369926.951 6 189387757.648 6        24.477          38.750    36369924.928 5 146446618.00225        19.410          31.000  
C25  23251195.134 6 121075069.798 6      -859.982          38.000                                                                  
C 8  36495513.851 6 190041719.351 6      -464.149          38.250    36495511.858 5 146952307.489 5      -358.960          33.500  
C21  23884461.807 6 124372658.129 6       628.074          39.750                                                                  
C10  35914443.025 6 187015932.545 6       406.667          38.250    35914443.383 5 144612583.393 5       314.376          33.500  
C11  23064769.742 6 120104305.997 6       289.533          38.250    23064770.650 5  92872271.542 5       223.303          35.000  
C12  23487906.175 5 122307694.796 5      -954.588          33.500    23487908.147 5  94576075.318 5      -738.457          33.750  
C13  36544942.692 5 190299108.771 5      -102.443          35.250    36544948.451 5 147151355.424 5       -79.268          30.750  
C 7  35717478.085 6 185990278.810 6       -25.368          38.500    35717475.537 5 143819483.378 5       -19.710          32.500  
C 1  37381053.229 5 194652952.274 5         2.276          32.250    37381055.470 5 150518010.657 5         1.820          34.250  
> 2021  5 21  6 30 32.0000000  0 23                     
G19  22034150.869 6 115790240.874 6      1433.465          37.250    22034149.551 5  90226183.751 5      1116.986          34.250  
G 3  22249051.278 6 116919548.086 6     -1776.171          38.000    22249053.509 4  91106125.627 4     -1384.031          24.500  
G 6  21617739.417 6 113601986.960 6      1046.340          38.000    21617743.913 6  88521041.825 6       815.334          38.250  
G22  24785761.200 5 130250081.383 5     -3062.667          33.250                                                                  
G17  21725118.677 6 114166273.341 6       669.291          41.500    21725117.421 6  88960724.848 6       521.524          41.500  
G14  20188438.459 7 106090958.600 7      -521.026          42.000    20188437.792 5  82668274.913 5      -405.996          35.500  
G28  20517057.794 6 107817870.669 6      1068.637          40.250    20517055.705 5  84013912.708 5       832.701          32.750  
R14  20590846.705 6 109760413.537 6     -3243.356          36.000    20590850.809 5  85369218.886 5     -2522.616          32.000  
R 2  21797183.983 7 116313560.919 7      2380.770          42.000    21797188.844 5  90466120.949 5      1851.712          34.750  
R15  20071975.835 6 107258168.157 6       512.057          40.000    20071978.269 5  83423027.313 5       398.267          34.250  
R24  22930524.324 5 122619441.002 5     -1894.419          34.000    22930526.989 4  95370672.385 4     -1473.435          29.750  
R17  21017508.659 6 112468538.367 6      -685.091          40.000    21017508.725 5  87475540.200 5      -532.849          33.250  
C 2  37062556.780 5 192994455.04125        22.454          31.500                                                                  
C 3  36369922.191 6 189387732.748 6        24.972          38.750    36369921.149 5 146446598.746 5        19.584          31.500  
C25  23251360.228 6 121075929.995 6      -860.327          38.000                                                                  
C 8  36495602.963 6 190042183.368 6      -463.933          38.250    36495600.958 5 146952666.288 5      -358.830          33.750  
C21  23884341.170 6 124372030.024 6       628.077          39.750                                                                  
C10  35914364.915 6 187015525.781 6       406.942          38.250    35914365.247 5 144612268.868 5       314.780          33.250  
C11  23064714.198 6 120104016.592 6       289.351          38.000    23064715.011 5  92872047.724 5       223.972          34.750  
C12  23488089.363 5 122308649.443 5      -954.531          33.250    23488091.530 5  94576813.505 5      -738.138          34.000  
C13  36544962.346 5 190299211.088 5      -102.247          35.250    36544967.931 5 147151434.573 5       -79.434          30.250  
C 7  35717482.969 6 185990304.222 6       -25.195          38.250    35717480.354 5 143819503.016 5       -19.553          32.500  
C 1  37381052.850 5 194652949.637 5         2.881          32.000    37381054.841 5 150518008.673 5         2.140          35.000  
> 2021  5 21  6 30 33.0000000  0 22                     
G19  22033878.018 6 115788807.134 6      1433.799          36.750    22033876.440 5  90225066.582 5      1117.252          34.250  
G 3  22249389.288 6 116921324.421 6     -1776.274          38.000    22249392.211 4  91107509.789 4     -1384.107          27.000  
G 6  21617540.311 6 113600940.640 6      1046.690          38.250    21617544.709 6  88520226.518 6       815.607          38.750  
G22  24786343.753 5 130253144.305 5     -3062.409          32.750    24786342.885 4 101495943.54814     -2386.293          27.250  
G17  21724991.258 6 114165603.701 6       669.903          41.750    21724990.017 7  88960203.056 7       522.003          42.250  
G14  20188537.634 6 106091479.706 6      -521.100          41.750    20188536.915 5  82668680.966 5      -406.055          33.500  
G28  20516854.479 6 107816802.263 6      1068.373          40.000    20516852.427 5  84013080.178 5       832.496          33.500  
R14  20591454.949 6 109763656.850 6     -3243.396          36.250    20591459.228 5  85371741.458 5     -2522.647          31.750  
R 2  21796737.831 7 116311180.057 7      2381.019          42.000    21796742.683 5  90464269.173 5      1851.906          34.500  
R15  20071880.038 6 107257656.324 6       511.547          39.750    20071882.475 5  83422629.220 5       397.870          34.250  
R24  22930878.272 5 122621334.988 5     -1893.752          35.000    22930881.264 4  95372145.504 4     -1472.912          29.750  
R17  21017636.684 6 112469223.507 6      -684.989          39.750    21017636.790 5  87476073.084 5      -532.770          33.000  
C 2  37062552.567 5 192994432.82025        22.732          31.000                                                                  
C 3  36369917.367 6 189387707.480 6        25.638          38.750    36369916.524 5 146446579.191 5        20.304          31.250  
C25  23251525.280 6 121076790.270 6      -860.358          38.250                                                                  
C 8  36495692.034 6 190042647.138 6      -463.572          37.750    36495690.006 5 146953024.859 5      -358.130          33.750  
C21  23884220.560 6 124371402.024 6       628.082          39.250                                                                  
C10  35914286.757 6 187015118.785 6       407.104          38.000    35914287.072 5 144611954.140 5       315.051          33.000  
C11  23064658.574 6 120103726.778 6       290.074          38.000    23064659.346 5  92871823.617 5       224.427          35.000  
C12  23488272.619 5 122309603.696 5      -953.719          33.500    23488274.740 5  94577551.367 5      -737.498          34.000  
C13  36544981.873 5 190299313.193 5      -101.884          34.750    36544987.493 5 147151513.513 5       -78.753          30.750  
C 7  35717487.791 6 185990329.379 6       -24.855          38.500    35717485.182 5 143819522.435 5       -18.734          32.500  
> 2021  5 21  6 30 34.0000000  0 22                     
G19  22033605.047 6 115787372.906 6      1434.838          36.250    22033603.532 5  90223949.000 5      1118.062          32.000  
G 3  22249727.315 6 116923100.868 6     -1776.442          38.250    22249730.844 5  91108894.057 5     -1384.239          34.250  
G 6  21617341.210 6 113599894.232 6      1046.506          38.250    21617345.575 6  88519411.133 6       815.462          38.750  
G22  24786926.583 5 130256206.966 5     -3062.111          32.750    24786934.643 4 101498329.965 4     -2386.061          27.500  
G17  21724863.740 6 114164933.581 6       670.563          41.500    21724862.480 6  88959680.881 6       522.516          41.750  
G14  20188636.814 6 106092000.962 6      -521.142          41.750    20188636.144 5  82669087.133 5      -406.088          33.750  
G28  20516651.184 6 107815733.862 6      1068.382          40.250    20516649.150 5  84012247.660 5       832.504          34.750  
R14  20592063.229 6 109766900.169 6     -3242.897          36.500    20592067.633 5  85374264.031 5     -2522.259          32.250  
R 2  21796291.669 6 116308799.152 6      2381.167          42.000    21796296.498 5  90462417.361 5      1852.021          34.500  
R15  20071784.354 6 107257144.914 6       511.199          40.000    20071786.776 5  83422231.458 5       397.600          34.500  
R24  22931232.310 5 122623228.401 5     -1892.939          35.750    22931235.179 5  95373618.167 5     -1472.280          30.750  
R17  21017764.616 6 112469908.113 6      -684.137          39.750    21017764.740 5  87476605.547 5      -532.109          33.500  
C 2  37062548.254 5 192994410.137 5        23.090          30.750                                                                  
C 3  36369912.410 6 189387681.742 6        26.127          38.750    36369911.415 5 146446561.32115        20.435          31.500  
C25  23251690.356 6 121077650.516 6      -859.871          38.000                                                                  
C 8  36495781.005 6 190043110.501 6      -462.917          37.750    36495779.014 5 146953383.211 5      -358.119          33.750  
C21  23884099.960 6 124370774.009 6       627.910          39.500                                                                  
C10  35914208.547 6 187014711.412 6       407.512          38.000    35914208.838 5 144611639.130 5       315.213          33.750  
C11  23064602.873 6 120103436.521 6       290.483          38.000    23064603.703 5  92871599.191 5       224.608          34.750  
C12  23488455.761 5 122310557.450 5      -953.441          33.750    23488457.970 5  94578288.871 5      -737.156          34.000  
C13  36545001.298 5 190299414.896 5      -101.281          35.000    36545006.903 5 147151592.212 5       -78.748          30.750  
C 7  35717492.549 6 185990354.217 6       -24.468          38.500    35717489.995 5 143819541.635 5       -18.721          32.750  
> 2021  5 21  6 30 35.0000000  0 22                     
G19  22033332.001 6 115785938.329 6      1435.029          36.750    22033330.311 5  90222831.170 5      1118.214          32.000  
G 3  22250065.435 6 116924877.470 6     -1776.856          38.250    22250068.901 4  91110278.414 4     -1384.561          28.250  
G 6  21617142.072 6 113598847.825 6      1046.124          38.250    21617146.282 6  88518595.757 6       815.166          38.250  
G22  24787509.355 5 130259269.536 5     -3062.503          32.750                                                                  
G17  21724736.175 6 114164263.078 6       670.469          41.500    21724734.897 6  88959158.412 6       522.443          41.250  
G14  20188736.048 7 106092522.439 7      -521.989          42.000    20188735.415 5  82669493.479 5      -406.744          32.000  
G28  20516447.900 6 107814665.569 6      1067.956          40.250    20516445.751 5  84011415.225 5       832.174          36.000  
R14  20592671.440 6 109770143.587 6     -3243.512          36.500    20592676.129 5  85376786.688 5     -2522.736          32.000  
R 2  21795845.531 6 116306418.289 6      2380.924          42.000    21795850.253 5  90460565.584 5      1851.833          34.750  
R15  20071688.777 6 107256634.002 6       510.302          39.750    20071691.160 5  83421834.081 5       396.902          34.250  
R24  22931586.055 6 122625121.266 6     -1892.522          36.000    22931589.181 5  95375090.401 5     -1471.956          30.250  
R17  21017892.449 6 112470592.362 6      -683.952          39.750    21017892.677 5  87477137.739 5      -531.964          33.500  
C 3  36369907.451 6 189387655.625 6        26.557          38.500    36369906.390 5 146446541.13225        20.347          31.500  
C 4  38310633.540 5 199493538.71715         1.630          33.250                                                                  
C25  23251855.558 6 121078510.879 6      -860.275          38.250                                                                  
C 8  36495869.943 6 190043573.587 6      -462.778          38.000    36495867.937 5 146953741.290 5      -358.145          34.000  
C21  23883979.363 6 124370146.081 6       627.735          39.500                                                                  
C10  35914130.273 6 187014303.757 6       407.592          38.250    35914130.570 5 144611323.905 5       315.291          34.000  
C11  23064547.062 6 120103145.834 6       290.873          38.250    23064547.970 5  92871374.403 5       224.728          35.000  
C12  23488638.891 5 122311510.738 5      -953.504          33.250    23488640.999 5  94579026.032 5      -737.493          34.250  
C13  36545020.744 5 190299516.447 5      -101.645          35.250    36545026.355 5 147151670.644 5       -78.104          31.000  
C 7  35717497.260 6 185990378.785 6       -24.829          38.250    35717494.714 5 143819560.675 5       -19.159          32.750  
> 2021  5 21  6 30 36.0000000  0 22                     
G19  22033058.942 6 115784503.648 6      1434.981          36.750    22033057.795 4  90221713.239 4      1118.173          28.000  
G 3  22250403.563 6 116926654.533 6     -1777.018          38.500    22250407.031 5  91111663.146 5     -1384.686          31.250  
G 6  21616943.021 6 113597801.648 6      1046.206          38.250    21616947.138 6  88517780.558 6       815.230          39.000  
G22  24788091.976 5 130262332.229 5     -3062.263          32.500    24788103.116 4 101503143.85414     -2386.179          29.750  
G17  21724608.575 6 114163592.419 6       671.138          41.500    21724607.270 6  88958635.818 6       522.964          41.250  
G14  20188835.385 7 106093044.377 7      -521.880          42.000    20188834.716 5  82669900.194 5      -406.659          34.750  
G28  20516244.683 6 107813597.581 6      1068.128          40.500    20516242.442 5  84010583.031 5       832.304          31.500  
R14  20593279.684 6 109773387.381 6     -3243.789          36.250    20593284.748 5  85379309.639 5     -2522.951          32.000  
R 2  21795399.447 6 116304037.701 6      2380.820          41.750    21795404.034 5  90458714.019 5      1851.752          35.000  
R15  20071593.304 6 107256123.785 6       510.481          40.000    20071595.695 5  83421437.243 5       397.040          34.250  
R24  22931939.997 6 122627013.870 6     -1892.227          36.250    22931942.926 4  95376562.420 4     -1471.729          29.250  
R17  21018020.276 6 112471276.482 6      -683.724          39.750    21018020.494 5  87477669.830 5      -531.787          33.000  
C 3  36369902.377 6 189387629.379 6        26.824          38.750    36369900.599 5 146446520.86225        20.373          31.750  
C 4  38310634.523 5 199493536.640 5         2.042          33.250    38310631.949 5 154261034.06815         1.190          31.250  
C25  23252020.742 6 121079371.544 6      -860.336          38.500                                                                  
C 8  36495958.876 6 190044036.644 6      -462.704          38.250    36495956.851 5 146954099.334 5      -357.713          33.750  
C21  23883858.836 6 124369518.435 6       628.022          39.500                                                                  
C10  35914051.965 6 187013896.023 6       407.966          38.500    35914052.251 5 144611008.605 5       315.798          33.250  
C11  23064491.277 6 120102855.017 6       291.120          38.250    23064492.100 5  92871149.527 5       225.212          35.000  
C12  23488821.929 5 122312463.844 5      -952.739          33.750    23488823.982 5  94579763.053 5      -736.904          34.500  
C13  36545040.126 5 190299617.880 5      -100.892          35.250    36545045.782 5 147151749.148 5       -78.387          31.000  
C 7  35717501.995 6 185990403.349 6       -24.307          38.500    35717499.417 5 143819579.668 5       -18.733          33.000  
> 2021  5 21  6 30 37.0000000  0 21                     
G19  22032785.916 6 115783068.896 6      1434.397          36.750    22032784.648 5  90220595.266 5      1117.719          33.750  
G 3  22250741.796 6 116928432.076 6     -1778.066          38.000    22250744.833 4  91113048.239 4     -1385.506          27.000  
G 6  21616744.001 6 113596755.776 6      1045.524          38.250    21616748.142 6  88516965.603 6       814.700          38.000  
G22  24788675.007 5 130265395.113 5     -3063.229          32.250    24788681.145 5 101505530.561 5     -2386.932          31.500  
G17  21724480.943 6 114162921.676 6       670.662          41.250    21724479.672 6  88958113.153 6       522.591          41.250  
G14  20188934.831 7 106093566.851 7      -522.963          42.250    20188934.138 5  82670307.324 5      -407.501          35.250  
G28  20516041.552 6 107812530.025 6      1067.156          40.250    20516039.315 5  84009751.166 5       831.551          33.500  
R14  20593888.314 6 109776631.615 6     -3244.947          36.250    20593893.382 5  85381832.933 5     -2523.850          32.000  
R 2  21794953.420 6 116301657.464 6      2379.675          41.750    21794957.894 5  90456862.725 5      1850.861          34.750  
R15  20071497.967 6 107255614.417 6       508.664          40.250    20071500.366 5  83421041.069 5       395.628          34.250  
R24  22932293.880 6 122628906.184 6     -1892.516          36.500    22932296.803 5  95378034.206 5     -1471.957          30.250  
R17  21018148.081 6 112471960.532 6      -684.392          39.750    21018148.342 5  87478201.873 5      -532.305          33.000  
C 3  36369897.314 6 189387603.080 6        25.894          38.500                                                                  
C25  23252186.009 6 121080232.616 6      -861.443          38.500                                                                  
C 8  36496047.797 6 190044499.737 6      -463.616          38.000    36496045.799 5 146954457.447 5      -358.408          33.750  
C21  23883738.396 6 124368891.216 6       626.757          39.750                                                                  
C10  35913973.671 6 187013488.368 6       407.373          37.750    35913973.974 5 144610693.425 5       314.847          33.250  
C11  23064435.482 6 120102564.129 6       290.852          37.750    23064436.325 5  92870924.612 5       224.546          35.000  
C12  23489004.916 5 122313416.850 5      -952.907          33.500    23489006.980 5  94580499.960 5      -737.153          34.500  
C13  36545059.497 5 190299719.449 5      -102.544          35.250    36545065.245 5 147151827.607 5       -78.527          31.250  
C 7  35717506.741 6 185990427.980 6       -24.954          38.500    35717504.148 5 143819598.708 5       -19.508          33.000  
> 2021  5 21  6 30 38.0000000  0 21                     
G19  22032512.948 6 115781634.801 6      1434.245          37.000    22032511.900 5  90219477.798 5      1117.605          33.500  
G 3  22251080.318 6 116930210.846 6     -1778.792          38.250    22251082.831 5  91114434.253 5     -1386.082          31.250  
G 6  21616545.062 6 113595710.955 6      1044.803          38.000    21616549.396 6  88516151.464 6       814.138          37.750  
G22  24789258.081 5 130268458.876 5     -3063.549          32.500    24789264.017 5 101507899.01715     -2387.181          30.750  
G17  21724353.448 6 114162251.602 6       670.075          41.250    21724352.089 6  88957591.014 6       522.133          41.500  
G14  20189034.495 7 106094090.587 7      -524.010          42.000    20189033.838 5  82670715.426 5      -408.319          34.250  
G28  20515838.637 6 107811463.614 6      1066.439          40.250    20515836.427 4  84008920.205 4       830.992          28.500  
R14  20594497.072 6 109779877.069 6     -3245.732          36.750    20594502.344 5  85384357.173 5     -2524.461          32.000  
R 2  21794507.588 6 116299278.296 6      2379.192          41.750    21794511.969 5  90455012.263 5      1850.486          34.750  
R15  20071402.939 6 107255106.554 6       507.709          40.250    20071405.306 5  83420646.070 5       394.886          33.750  
R24  22932647.813 6 122630799.009 6     -1892.644          36.250    22932650.801 4  95379506.394 4     -1472.059          29.750  
R17  21018276.076 6 112472645.221 6      -684.582          39.750    21018276.372 5  87478734.410 5      -532.453          33.500  
C 3  36369892.399 6 189387577.400 6        25.826          38.500    36369891.827 5 146446479.65315        19.727          31.250  
C25  23252351.505 6 121081094.781 6      -862.235          38.500                                                                  
C 8  36496136.867 6 190044963.557 6      -463.577          37.750    36496134.808 5 146954816.111 5      -358.707          33.750  
C21  23883618.139 6 124368265.114 6       626.120          39.750                                                                  
C10  35913895.531 6 187013081.471 6       406.877          38.000    35913895.787 5 144610378.753 5       314.518          33.500  
C11  23064379.721 6 120102273.875 6       290.284          38.000    23064380.560 5  92870700.138 5       224.762          35.000  
C12  23489188.089 5 122314370.459 5      -953.198          33.500    23489190.091 5  94581237.346 5      -737.159          34.250  
C13  36545079.089 5 190299821.703 5      -102.241          35.250    36545084.833 5 147151906.746 5       -79.229          31.750  
C 7  35717511.629 6 185990453.397 6       -25.764          38.250    35717509.017 5 143819618.370 5       -19.866          33.250  
> 2021  5 21  6 30 39.0000000  0 21                     
G19  22032240.012 6 115780200.849 6      1433.905          37.000    22032239.036 5  90218360.420 5      1117.328          30.750  
G 3  22251418.911 6 116931990.311 6     -1779.985          38.500    22251421.064 5  91115820.866 5     -1387.002          32.250  
G 6  21616346.392 6 113594666.666 6      1043.541          38.000    21616350.683 6  88515337.737 6       813.155          38.000  
G22  24789841.285 5 130271523.023 5     -3064.635          32.250    24789845.098 4 101510286.624 4     -2388.028          25.750  
G17  21724225.949 6 114161581.629 6       669.608          41.000    21724224.612 6  88957068.949 6       521.769          40.750  
G14  20189134.291 7 106094615.068 7      -525.286          42.250    20189133.674 5  82671124.116 5      -409.313          35.750  
G28  20515635.813 6 107810397.809 6      1065.340          40.500    20515633.578 5  84008089.702 5       830.136          32.750  
R14  20595106.007 6 109783123.143 6     -3246.854          36.250    20595111.284 5  85386881.891 5     -2525.334          32.500  
R 2  21794061.864 6 116296899.705 6      2378.069          41.500    21794066.221 5  90453162.251 5      1849.612          34.750  
R15  20071308.136 6 107254599.737 6       505.907          40.250    20071310.464 5  83420251.884 5       393.485          34.750  
R24  22933001.895 5 122632691.798 5     -1892.958          35.750    22933004.467 5  95380978.547 5     -1472.306          30.000  
R17  21018403.990 6 112473330.029 6      -685.242          39.750    21018404.374 5  87479267.041 5      -532.966          33.750  
C 3  36369887.490 6 189387551.852 6        25.459          38.500                                                                  
C25  23252517.121 6 121081957.513 6      -863.407          38.750                                                                  
C 8  36496225.990 6 190045427.630 6      -464.451          37.750    36496223.927 5 146955174.937 5      -359.165          34.000  
C21  23883498.009 6 124367639.566 6       625.033          39.750                                                                  
C10  35913817.430 6 187012674.747 6       406.237          38.000    35913817.688 5 144610064.262 5       314.239          33.250  
C11  23064324.040 6 120101983.738 6       289.682          38.000    23064324.894 5  92870475.784 5       224.126          35.000  
C12  23489371.317 5 122315324.191 5      -954.351          34.000    23489373.240 5  94581974.816 5      -737.465          34.500  
C13  36545098.812 5 190299924.222 5      -102.734          35.000    36545104.429 5 147151986.036 5       -79.722          31.000  
C 7  35717516.551 6 185990479.036 6       -25.798          38.250    35717513.939 5 143819638.180 5       -19.914          33.000  
> 2021  5 21  6 30 40.0000000  0 21                     
G19  22031967.145 6 115778766.928 6      1434.344          37.000    22031965.825 5  90217243.041 5      1117.665          34.250  
G 3  22251757.618 6 116933770.383 6     -1780.305          38.250    22251759.707 4  91117207.949 4     -1387.252          29.500  
G 6  21616147.809 6 113593622.754 6      1043.725          38.250    21616151.982 6  88514524.307 6       813.299          38.500  
G22  24790424.364 5 130274587.486 5     -3064.177          32.250    24790423.407 4 101512674.473 4     -2387.670          27.500  
G17  21724098.438 6 114160911.655 6       670.206          41.000    21724097.132 6  88956546.895 6       522.236          40.750  
G14  20189234.229 7 106095140.155 7      -525.342          42.250    20189233.604 5  82671533.271 5      -409.357          34.750  
G28  20515433.100 6 107809332.519 6      1065.254          40.500    20515430.898 5  84007259.605 5       830.068          31.500  
R14  20595715.191 6 109786369.724 6     -3246.875          36.000    20595720.400 5  85389407.005 5     -2525.351          32.500  
R 2  21793616.235 6 116294521.548 6      2377.733          41.000    21793620.519 5  90451312.572 5      1849.349          34.750  
R15  20071213.497 6 107254093.802 6       505.679          40.000    20071215.767 5  83419858.381 5       393.308          34.500  
R24  22933355.831 5 122634584.503 5     -1892.711          34.750    22933358.357 5  95382450.638 5     -1472.116          30.250  
R17  21018532.029 6 112474014.858 6      -684.696          40.000    21018532.334 5  87479799.686 5      -532.541          33.250  
C 3  36369882.565 6 189387526.335 6        25.491          39.000    36369882.145 5 146446444.15615        19.763          31.750  
C25  23252682.802 6 121082820.755 6      -863.377          38.750                                                                  
C 8  36496315.125 6 190045891.796 6      -463.806          38.000    36496313.069 5 146955533.893 5      -359.256          33.750  
C21  23883377.958 6 124367014.486 6       625.163          40.000                                                                  
C10  35913739.343 6 187012268.151 6       406.717          38.000    35913739.638 5 144609749.861 5       314.660          33.250  
C11  23064268.325 6 120101693.585 6       290.088          38.000    23064269.197 5  92870251.426 5       224.738          35.000  
C12  23489554.451 5 122316277.856 5      -953.646          33.750    23489556.364 5  94582712.245 5      -737.258          34.750  
C13  36545118.504 5 190300026.930 5      -102.728          35.250    36545124.010 5 147152065.429 5       -79.456          31.250  
C 7  35717521.529 6 185990504.844 6       -25.953          38.500    35717518.853 5 143819658.152 5       -19.714          32.750  
> 2021  5 21  6 30 41.0000000  0 21                     
G19  22031694.355 6 115777333.141 6      1433.285          37.250    22031692.992 5  90216125.796 5      1116.840          34.000  
G 3  22252096.463 6 116935551.068 6     -1781.015          38.500    22252098.233 4  91118595.499 4     -1387.800          27.250  
G 6  21615949.306 6 113592579.298 6      1043.023          38.500    21615953.492 6  88513711.224 6       812.750          39.000  
G22  24791007.528 5 130277652.286 5     -3066.004          32.000    24791006.122 5 101515062.750 5     -2389.094          30.500  
G17  21723970.944 6 114160241.770 6       669.780          40.750    21723969.649 6  88956024.911 6       521.906          40.500  
G14  20189334.288 7 106095665.942 7      -526.361          42.250    20189333.630 5  82671942.968 5      -410.153          34.250  
G28  20515230.480 6 107808267.793 6      1064.236          40.250    20515228.297 5  84006429.945 5       829.273          32.000  
R14  20596324.469 6 109789616.961 6     -3247.734          36.000    20596329.600 5  85391932.629 5     -2526.019          31.250  
R 2  21793170.679 6 116292143.858 6      2377.521          41.250    21793174.862 5  90449463.260 5      1849.185          34.250  
R15  20071119.022 6 107253588.845 6       504.516          40.000    20071121.261 5  83419465.635 5       392.403          34.250  
R24  22933709.705 5 122636477.104 5     -1892.756          33.750    22933712.349 4  95383922.649 4     -1472.152          29.500  
R17  21018660.029 6 112474699.833 6      -685.506          40.250    21018660.383 5  87480332.446 5      -533.171          33.250  
C 3  36369877.658 6 189387500.898 6        25.013          38.750    36369876.281 5 146446424.46725        19.764          31.750  
C25  23252848.681 6 121083684.504 6      -864.224          38.750                                                                  
C 8  36496404.313 6 190046356.157 6      -464.774          38.000    36496402.258 5 146955892.934 5      -359.368          33.750  
C21  23883258.017 6 124366389.968 6       624.139          39.750                                                                  
C10  35913661.269 6 187011861.749 6       405.930          38.250    35913661.592 5 144609435.615 5       313.818          33.000  
C11  23064212.616 6 120101403.511 6       289.955          37.750    23064213.519 5  92870027.141 5       224.261          35.000  
C12  23489737.495 5 122317231.557 5      -953.529          34.000    23489739.517 5  94583449.726 5      -737.728          34.250  
C13  36545138.232 5 190300129.816 5      -103.259          35.500    36545143.780 5 147152144.995 5       -79.809          31.500  
C 7  35717526.526 6 185990530.861 6       -26.347          38.750    35717523.854 5 143819678.245 5       -20.026          33.250  
> 2021  5 21  6 30 42.0000000  0 21                     
G19  22031421.504 6 115775899.474 6      1433.587          38.250    22031420.535 5  90215008.636 5      1117.072          33.000  
G 3  22252435.482 6 116937332.670 6     -1782.159          39.000    22252437.143 4  91119983.756 4     -1388.693          29.500  
G 6  21615750.798 6 113591535.957 6      1044.139          38.000    21615754.908 6  88512898.232 6       813.618          38.500  
G22  24791591.044 5 130280717.709 5     -3065.701          32.000    24791588.646 3 101517411.50813     -2388.858          23.500  
G17  21723843.523 6 114159572.155 6       669.263          41.500    21723842.262 6  88955503.136 6       521.503          41.250  
G14  20189434.445 7 106096192.218 7      -526.427          42.500    20189433.768 5  82672353.048 5      -410.206          32.750  
G28  20515027.969 6 107807203.550 6      1064.086          40.000    20515025.802 5  84005600.670 5       829.159          31.750  
R14  20596933.476 6 109792864.249 6     -3246.698          36.500    20596938.773 5  85394458.291 5     -2525.214          32.250  
R 2  21792725.168 6 116289766.418 6      2377.687          41.000    21792729.409 5  90447614.145 5      1849.315          35.250  
R15  20071024.670 6 107253084.688 6       504.171          39.250    20071026.910 5  83419073.513 5       392.133          34.750  
R24  22934063.831 6 122638370.032 6     -1894.269          37.250    22934066.371 4  95385394.920 4     -1473.328          28.250  
R17  21018788.073 6 112475385.081 6      -685.541          39.000    21018788.501 5  87480865.416 5      -533.198          34.250  
C 3  36369872.664 6 189387475.126 6        26.278          38.500    36369870.889 5 146446404.52925        20.397          31.500  
C25  23253014.558 6 121084548.369 6      -863.388          38.000                                                                  
C 8  36496493.479 6 190046820.552 6      -464.456          38.000    36496491.467 5 146956252.039 5      -359.213          34.250  
C21  23883138.166 6 124365765.975 6       623.788          40.000                                                                  
C10  35913583.232 6 187011455.469 6       405.993          37.750    35913583.572 5 144609121.395 5       314.368          33.250  
C11  23064156.962 6 120101113.606 6       289.443          37.750    23064157.898 6  92869802.968 6       224.007          36.750  
C12  23489920.791 5 122318185.589 5      -954.181          34.000    23489922.726 5  94584187.452 5      -738.258          34.750  
C13  36545158.092 6 190300232.569 6      -102.374          36.250    36545163.633 5 147152224.436 5       -79.109          31.500  
C 7  35717531.551 6 185990556.937 6       -26.145          38.500    35717528.875 5 143819698.427 5       -19.925          33.250  
> 2021  5 21  6 30 43.0000000  0 20                     
G19  22031149.114 6 115774468.002 6      1428.896          37.750    22031148.090 5  90213893.207 5      1113.417          33.500  
G 3  22252775.281 6 116939117.911 6     -1788.365          38.250    22252776.772 4  91121374.868 4     -1393.526          27.000  
G 6  21615552.013 6 113590491.162 6      1045.260          39.750    21615556.023 6  88512084.093 6       814.486          39.500  
G22  24792175.609 5 130283787.935 5     -3074.729          31.500    24792173.805 3 101519803.894 3     -2395.892          23.250  
G17  21723716.660 6 114158905.547 6       663.369          41.000    21723715.415 6  88954983.701 6       516.911          40.500  
G14  20189534.531 7 106096718.127 7      -525.483          42.250    20189533.790 5  82672762.840 5      -409.470          31.250  
G28  20514825.594 6 107806140.173 6      1062.424          40.000    20514823.431 4  84004772.055 4       827.860          29.250  
R14  20597541.889 6 109796107.732 6     -3240.753          37.250    20597547.242 5  85396980.993 5     -2520.591          33.000  
R15  20070930.381 6 107252580.866 6       503.032          39.750    20070932.634 5  83418681.641 5       391.245          35.750  
R24  22934418.616 6 122640267.285 6     -1901.291          36.500    22934421.212 5  95386870.575 5     -1478.784          31.500  
R17  21018916.766 6 112476073.557 6      -691.732          40.250    21018917.266 5  87481400.894 5      -538.014          34.500  
C 3  36369867.249 6 189387446.678 6        30.389          39.000    36369866.494 5 146446382.51525        23.587          32.750  
C25  23253180.172 6 121085410.268 6      -860.959          41.250                                                                  
C 8  36496582.715 6 190047285.224 6      -465.679          38.250    36496580.676 5 146956611.333 5      -359.744          34.000  
C21  23883018.577 6 124365143.268 6       621.690          40.000                                                                  
C10  35913505.289 6 187011049.629 6       404.803          37.500    35913505.621 5 144608807.589 5       312.951          33.750  
C11  23064101.693 6 120100825.779 6       285.195          37.750    23064102.572 6  92869580.345 6       221.028          36.000  
C12  23490104.714 5 122319143.271 5      -960.454          35.250    23490106.565 5  94584927.996 5      -743.177          33.000  
C13  36545177.660 6 190300333.581 6      -100.108          40.250    36545183.101 5 147152302.535 5       -77.088          34.250  
C 7  35717536.432 6 185990582.367 6       -25.265          39.250    35717533.750 5 143819718.077 5       -19.742          33.250  
> 2021  5 21  6 30 44.0000000  0 21                     
G19  22030877.648 6 115773041.390 6      1424.994          37.750    22030876.411 4  90212781.565 4      1110.382          26.250  
G 3  22253116.117 6 116940909.048 6     -1794.056          38.500    22253117.291 5  91122770.546 5     -1397.966          33.000  
G 6  21615352.887 6 113589444.466 6      1047.625          39.750    21615356.731 6  88511268.465 6       816.326          39.750  
G22  24792761.125 5 130286866.054 5     -3080.475          32.250    24792760.184 5 101522202.329 5     -2400.370          30.750  
G17  21723590.885 6 114158244.690 6       658.347          40.750    21723589.643 6  88954468.743 6       512.996          41.000  
G14  20189634.510 7 106097243.450 7      -524.791          42.250    20189633.774 5  82673172.188 5      -408.929          33.750  
G28  20514623.566 6 107805078.558 6      1060.988          40.000    20514621.471 5  84003944.812 5       826.739          33.500  
R14  20598149.109 6 109799344.831 6     -3233.901          37.500    20598154.449 5  85399498.732 5     -2515.261          32.000  
R15  20070836.293 6 107252078.089 6       502.078          40.250    20070838.562 5  83418290.592 5       390.504          34.750  
R24  22934774.862 5 122642172.138 5     -1908.139          36.000    22934777.374 4  95388352.139 4     -1484.108          29.500  
R17  21019046.616 6 112476768.360 6      -697.337          40.250    21019047.194 5  87481941.295 5      -542.374          33.000  
C 3  36369861.021 6 189387414.080 6        34.440          38.500                                                                  
C25  23253345.207 6 121086269.389 6      -858.287          39.250                                                                  
C 8  36496672.178 6 190047750.961 6      -465.936          38.000    36496670.113 5 146956971.493 5      -360.479          33.250  
C21  23882899.327 6 124364522.315 6       620.099          39.500                                                                  
C10  35913427.633 6 187010645.266 6       403.896          38.000    35913427.947 5 144608494.908 5       312.110          33.750  
C11  23064047.265 6 120100542.413 6       281.694          37.250    23064048.190 6  92869361.263 6       217.599          36.000  
C12  23490289.833 5 122320107.317 5      -966.578          35.000    23490291.709 5  94585673.476 5      -747.529          33.750  
C13  36545196.822 6 190300432.440 6       -98.032          39.000    36545202.251 5 147152378.996 5       -75.462          34.750  
C 7  35717541.168 6 185990606.927 6       -24.111          39.250    35717538.478 5 143819737.081 5       -18.685          33.000  
C 1  37381044.528 6 194652900.19326         7.856          37.750                                                                  
> 2021  5 21  6 30 45.0000000  0 21                     
G19  22030606.873 6 115771618.428 6      1422.801          38.000    22030605.601 5  90211672.793 5      1108.684          30.250  
G 3  22253458.212 6 116942706.681 6     -1800.893          38.750    22253459.240 5  91124171.312 5     -1403.288          31.750  
G 6  21615153.246 6 113588395.014 6      1052.634          39.250    21615156.970 6  88510450.705 6       820.230          38.000  
G22  24793348.412 5 130289952.662 5     -3091.709          34.750    24793348.485 4 101524607.470 4     -2409.124          26.750  
G17  21723466.100 6 114157589.087 6       654.275          41.000    21723464.876 6  88953957.888 6       509.825          40.500  
G14  20189734.430 7 106097768.485 7      -523.763          42.750    20189733.739 5  82673581.302 5      -408.130          34.000  
G28  20514421.804 6 107804018.415 6      1061.087          40.000    20514419.743 4  84003118.727 4       826.821          29.250  
R14  20598755.207 6 109802575.998 6     -3227.134          37.500    20598760.621 5  85402011.862 5     -2509.996          32.000  
R15  20070742.192 6 107251575.401 6       504.200          39.750    20070744.497 5  83417899.613 5       392.155          34.750  
R24  22935132.570 6 122644084.934 6     -1916.878          37.250    22935135.072 5  95389839.890 5     -1490.900          31.000  
R17  21019177.493 6 112477468.572 6      -701.583          40.500    21019178.116 5  87482485.905 5      -545.676          33.750  
C 2  37062496.986 5 192994159.53115        40.908          33.750    37062494.485 5 149235316.61615        30.359          31.500  
C 3  36369854.102 6 189387377.709 6        38.751          38.500    36369853.763 5 146446331.21115        30.000          32.250  
C25  23253509.509 6 121087124.897 6      -852.260          38.750                                                                  
C 8  36496761.782 6 190048217.406 6      -465.243          38.250    36496759.702 5 146957332.194 5      -359.939          33.500  
C21  23882780.648 6 124363904.276 6       616.047          39.750                                                                  
C10  35913350.164 6 187010241.963 6       404.600          38.250    35913350.543 5 144608183.102 5       312.219          33.000  
C11  23063993.505 6 120100262.489 6       279.900          37.750    23063994.513 5  92869144.854 5       215.324          35.500  
C12  23490476.332 5 122321078.103 5      -974.177          34.000    23490478.153 5  94586424.145 5      -753.549          33.250  
C13  36545215.243 6 190300528.360 6       -91.770          38.250    36545220.815 5 147152453.321 5       -73.441          32.750  
C 7  35717545.812 6 185990631.136 6       -23.097          38.250    35717543.124 5 143819755.832 5       -18.864          32.000  
> 2021  5 21  6 30 46.0000000  0 20                     
G19  22030336.367 6 115770196.887 6      1420.616          38.250    22030335.095 5  90210565.128 5      1106.983          33.000  
G 3  22253801.576 6 116944510.830 6     -1807.033          38.500    22253802.593 4  91125577.150 4     -1408.074          29.500  
G 6  21614952.809 6 113587341.621 6      1056.865          39.500    21614956.464 6  88509629.877 6       823.527          39.500  
G22  24793937.130 6 130293046.973 6     -3097.727          37.500                                                                  
G17  21723342.043 6 114156937.237 6       650.182          41.250    21723340.890 6  88953449.962 6       506.638          40.750  
G14  20189834.308 7 106098293.383 7      -524.612          42.750    20189833.635 5  82673990.311 5      -408.791          32.000  
G28  20514220.196 6 107802958.990 6      1059.418          40.000    20514218.198 5  84002293.224 5       825.523          32.000  
R14  20599360.456 6 109805802.110 6     -3223.094          37.000    20599365.772 5  85404521.064 5     -2506.852          32.250  
R15  20070647.911 6 107251071.370 6       504.687          40.000    20070650.171 5  83417507.585 5       392.533          33.750  
R24  22935491.652 6 122646005.046 6     -1923.227          38.000    22935494.100 4  95391333.322 4     -1495.837          30.000  
R17  21019309.040 6 112478172.230 6      -704.914          40.000    21019309.628 5  87483033.197 5      -548.266          33.250  
C 3  36369846.530 6 189387338.109 6        41.052          38.500    36369844.367 5 146446300.58725        31.751          32.000  
C25  23253672.948 6 121087975.983 6      -848.221          39.750                                                                  
C 8  36496851.321 6 190048683.671 6      -465.825          38.000    36496849.253 5 146957692.735 5      -360.199          33.500  
C21  23882662.806 5 124363290.649 5       610.296          34.750                                                                  
C10  35913272.787 6 187009839.045 6       403.151          38.250    35913273.124 5 144607871.498 5       311.692          33.000  
C11  23063940.028 6 120099984.070 6       277.909          37.250    23063940.802 6  92868930.88216       216.953          37.000  
C12  23490664.009 5 122322054.925 5      -979.184          35.000    23490665.735 5  94587179.459 5      -757.073          33.500  
C13  36545233.114 6 190300621.007 6       -90.137          37.750    36545238.795 5 147152524.984 5       -71.676          32.250  
C 7  35717550.480 6 185990655.459 6       -24.327          39.500    35717547.779 5 143819774.579 5       -18.635          31.500  
> 2021  5 21  6 30 47.0000000  0 19                     
G19  22030066.059 6 115768776.266 6      1420.093          38.750    22030064.491 5  90209458.152 5      1106.574          33.500  
G 3  22254146.092 6 116946320.883 6     -1813.451          37.750    22254147.307 4  91126987.564 4     -1413.082          29.000  
G 6  21614751.756 6 113586284.744 6      1057.335          39.500    21614755.278 6  88508806.337 6       823.896          39.250  
G22  24794527.286 6 130296148.231 6     -3104.924          39.500    24794520.974 5 101529424.89915     -2419.422          30.250  
G17  21723218.606 6 114156288.518 6       646.389          41.000    21723217.390 6  88952944.469 6       503.682          40.250  
G14  20189934.152 7 106098818.053 7      -525.400          42.250    20189933.473 5  82674399.145 5      -409.401          34.750  
G28  20514018.682 6 107801900.054 6      1058.057          40.250    20514016.760 5  84001468.069 5       824.459          32.750  
R14  20599964.820 6 109809023.724 6     -3220.350          36.500    20599970.095 5  85407026.762 5     -2504.718          33.250  
R15  20070553.462 6 107250566.526 6       505.757          39.750    20070555.706 5  83417114.931 5       393.371          32.250  
R24  22935852.001 6 122647931.674 6     -1929.972          36.750    22935854.398 4  95392831.814 4     -1501.083          28.500  
R17  21019441.089 6 112478878.772 6      -709.455          38.750    21019441.714 5  87483582.727 5      -551.799          33.000  
C 3  36369838.399 6 189387295.503 6        43.391          38.750    36369838.014 5 146446267.643 5        33.675          32.500  
C25  23253835.630 6 121088823.029 6      -846.307          39.750                                                                  
C 8  36496940.783 6 190049149.552 6      -466.070          38.000    36496938.732 5 146958052.994 5      -360.658          33.750  
C10  35913195.411 6 187009436.183 6       401.602          38.750    35913195.773 5 144607559.995 5       310.836          33.500  
C11  23063886.802 6 120099706.741 6       276.237          37.750    23063887.639 6  92868716.53526       213.117          36.500  
C12  23490852.608 5 122323037.178 5      -985.336          35.000    23490854.373 5  94587938.980 5      -761.849          33.750  
C13  36545250.390 6 190300710.635 6       -89.249          38.000    36545256.144 5 147152593.993 5       -67.563          32.000  
C 7  35717555.134 6 185990679.733 6       -24.683          38.000    35717552.448 5 143819793.400 5       -19.197          32.500  
