     3.03           OBSERVATION DATA    M: Mixed            RINEX VERSION / TYPE
RTKCONV demo5 b33c                      20210524 111811 UTC PGM / RUN BY / DATE 
log: C:\Users\Ivan_PolyU_Dktp\Dropbox\HUAWEI Exp\20210521_  COMMENT             
format: RINEX                                               COMMENT             
Geo++                                                       MARKER NAME         
                                                            MARKER NUMBER       
                                                            MARKER TYPE         
                                                            OBSERVER / AGENCY   
unknown             HUAWEI              ELS-AN00            REC # / TYPE / VERS 
unknown             ELS-AN00                                ANT # / TYPE        
 -2419233.5482  5385469.3948  2405343.5459                  APPROX POSITION XYZ 
        0.0000        0.0000        0.0000                  ANTENNA: DELTA H/E/N
G    8 C1C L1C D1C S1C C5Q L5Q D5Q S5Q                      SYS / # / OBS TYPES 
R    4 C1C L1C D1C S1C                                      SYS / # / OBS TYPES 
E    4 C5Q L5Q D5Q S5Q                                      SYS / # / OBS TYPES 
J    8 C1C L1C D1C S1C C5Q L5Q D5Q S5Q                      SYS / # / OBS TYPES 
C    4 C2I L2I D2I S2I                                      SYS / # / OBS TYPES 
  2021     5    21     6    29    5.9987950     GPS         TIME OF FIRST OBS   
  2021     5    21     6    54   39.9978363     GPS         TIME OF LAST OBS    
G                                                           SYS / PHASE SHIFT   
R                                                           SYS / PHASE SHIFT   
E                                                           SYS / PHASE SHIFT   
J                                                           SYS / PHASE SHIFT   
C                                                           SYS / PHASE SHIFT   
  3 R01  1 R09 -2 R17  4                                    GLONASS SLOT / FRQ #
 C1C    0.000 C1P    0.000 C2C    0.000 C2P    0.000        GLONASS COD/PHS/BIS 
                                                            END OF HEADER       
> 2021  5 21  6 29  5.9987950  0 26                     
C 7  35717103.164 1 185988330.131 1     -1027.006          30.000  
C 8  36488049.449 1 190002833.445 1     -1469.976          27.000  
C10  35921179.685 1 187051002.013 1      -599.314          29.000  
C11  23069581.861 1 120129376.075 1      -725.656          27.000  
C12  23472248.401 1 122226139.412 1     -1973.512          28.000  
C13  36543421.716 1 190291084.347 1     -1105.114          26.000  
C21  23894891.611 1 124427009.348 1      -345.889          26.000  
C23  25483255.909 1 132697998.263 1       633.557          25.000  
C24  24493661.091 1 127544878.169 1     -3918.956          35.000  
C25  23237556.474 1 121004067.585 1     -1834.734          20.000  
C34  23031365.817 1 119930353.68411     -1267.749          20.000  
E 1  25234269.878 1  99024684.727 1       516.394          27.000  
E13  25336136.058 1  99424458.037 1     -2014.189          24.000  
E27  26217466.825 1 102882964.655 1     -2842.922          31.000  
G 3  22220324.689 1 116768585.357 1     -2750.792          34.000    22220327.987 1  87197334.785 1     -2053.565          31.000  
G 6  21635262.020 1 113694026.673 1        55.482          23.000    21635269.215 1  84901448.202 1        43.644          30.000  
G14  20180340.441 1 106048392.621 1     -1492.242          40.000                                                                  
G17  21736133.188 1 114224153.949 1      -354.584          30.000                                                                  
G19  22057758.931 1 115914285.134 1       411.056          38.000                                                                  
G28  20534937.658 1 107911814.703 1        86.522          35.000                                                                  
J 1  37415359.386 1 196619094.60211     -1001.211          26.000                                                                  
J 2                                                                  35953242.788 1 141088242.259 1      -610.038          35.000  
J 3  39704302.683 1 208647532.650 1      -673.563          35.000                                                                  
R14  20538883.227 1 109483804.569 1     -4235.590          39.000  
R15  20080951.746 1 107306516.996 1      -452.860          34.000  
R17  21006611.925 1 112410622.913 1     -1725.662          29.000  
> 2021  5 21  6 29  6.9987942  0 26                     
C 7  35717057.895 1 185988109.341 1     -1028.875          29.000  
C 8  36488092.619 1 190003054.167 1     -1469.964          27.000  
C10  35921054.671 1 187050351.836 1      -599.439          29.000  
C11  23069482.630 1 120128852.017 1      -724.609          27.000  
C12  23472388.404 1 122226863.905 1     -1973.244          29.000  
C13  36543393.835 1 190290941.049 1     -1105.816          26.000  
C21  23894719.530 1 124426106.543 1      -347.210          24.000  
C23  25482895.858 1 132696116.296 1       632.557          26.000  
C24  24494174.336 1 127547548.063 1     -3918.605          35.000  
C25  23237667.398 1 121004653.884 1     -1836.595          20.000  
C34  23031368.815 1 119930371.084 1     -1264.571          21.000  
E 1  25233898.436 1  99023226.498 1       517.004          28.000  
E13  25336409.769 1  99425530.572 1     -2014.521          23.000  
E27  26217951.890 1 102884866.518 1     -2844.922          31.000  
G 3  22220612.490 1 116770075.825 1     -2750.231          32.000    22220610.392 1  87198447.779 1     -2056.374          33.000  
G 6  21635008.995 1 113692710.726 1        55.812          21.000    21635017.689 1  84900465.283 1        42.873          31.000  
G14  20180385.710 1 106048624.613 1     -1493.432          40.000                                                                  
G17  21735960.508 1 114223247.541 1      -353.942          31.000                                                                  
G19  22057439.952 1 115912613.268 1       411.677          38.000                                                                  
G28  20534682.535 1 107910467.912 1        85.207          35.000                                                                  
J 1  37415308.421 1 196618836.322 1     -1003.252          26.000                                                                  
J 2                                                                  35953158.546 1 141087911.599 1      -609.756          35.000  
J 3  39704195.657 1 208646945.621 1      -674.750          36.000                                                                  
R14  20539438.443 1 109486764.302 1     -4236.124          39.000  
R15  20080796.154 1 107305685.888 1      -453.924          34.000  
R17  21006691.370 1 112411048.685 1     -1726.088          28.000  
> 2021  5 21  6 29  7.9987937  0 25                     
C 7  35717101.365 1 185988357.492 1     -1030.402          30.000  
C 8  36488223.628 1 190003742.799 1     -1469.210          27.000  
C10  35921019.596 1 187050169.923 1      -598.634          30.000  
C11  23069474.535 1 120128797.249 1      -726.766          25.000  
C12  23472614.747 1 122228055.102 1     -1971.001          28.000  
C13  36543456.491 1 190291265.368 1     -1104.989          27.000  
C21  23894637.986 1 124425672.944 1      -348.131          22.000  
C23  25482624.846 1 132694702.584 1       633.841          27.000  
C24  24494773.921 1 127550686.392 1     -3919.477          34.000  
C34  23031459.952 1 119930855.160 1     -1264.910          24.000  
E 1  25233617.230 1  99022122.844 1       514.330          28.000  
E13  25336774.316 1  99426956.603 1     -2014.044          25.000  
E27  26218526.292 1 102887121.915 1     -2841.879          31.000  
G 2  24252812.327 1 127449430.03211       837.781          27.000                                                                  
G 3  22220986.931 1 116772041.539 1     -2753.492          25.000    22220985.432 1  87199914.900 1     -2056.017          32.000  
G 6  21634847.107 1 113691867.427 1        55.901          25.000    21634856.401 1  84899834.732 1        43.091          31.000  
G14  20180518.218 1 106049329.989 1     -1492.939          41.000                                                                  
G17  21735879.264 1 114222814.202 1      -354.536          32.000                                                                  
G19  22057212.709 1 115911413.359 1       412.300          38.000                                                                  
G28  20534511.354 1 107909594.172 1        84.667          34.000                                                                  
J 2  35953159.146 1 188935134.02111      -819.618          25.000    35953163.943 1 141087934.241 1      -610.349          34.000  
J 3  39704173.473 1 208646831.794 1      -674.228          36.000                                                                  
R14  20540084.795 1 109490209.787 1     -4236.282          40.000  
R15  20080728.701 1 107305325.114 1      -454.290          34.000  
R17  21006861.952 1 112411961.045 1     -1727.822          28.000  
> 2021  5 21  6 29  8.9987932  0 27                     
C 7  35717152.330 1 185988606.064 1     -1028.648          30.000  
C 8  36488355.837 1 190004432.105 1     -1470.261          25.000  
C10  35920987.818 1 187049988.007 1      -597.748          29.000  
C11  23069461.944 1 120128742.917 1      -725.814          22.000  
C12  23472841.390 1 122229245.974 1     -1972.300          23.000  
C13  36543520.048 1 190291589.013 1     -1103.480          28.000  
C21  23894556.443 1 124425242.544 1      -352.744          20.000  
C23  25482353.534 1 132693287.460 1       635.148          26.000  
C24  24495373.206 1 127553824.204 1     -3916.265          33.000  
C25  23238079.013 1 121006766.46311     -1835.272          21.000  
E 1  25233336.025 1  99021018.898 1       515.767          29.000  
E13  25337139.763 1  99428382.850 1     -2018.530          24.000  
E27  26219100.095 1 102889377.672 1     -2846.230          30.000  
G 2  24252505.940 1 127447803.629 1       840.298          28.000                                                                  
G 3  22221358.674 1 116774007.611 1     -2754.547          29.000    22221360.472 1  87201383.571 1     -2058.961          33.000  
G 6  21634686.418 1 113691023.073 1        56.936          27.000    21634696.911 1  84899203.482 1        43.530          33.000  
G14  20180653.724 1 106050036.112 1     -1494.236          40.000                                                                  
G17  21735795.322 1 114222380.356 1      -355.150          30.000                                                                  
G19  22056984.867 1 115910213.006 1       413.964          38.000                                                                  
G28  20534344.369 1 107908720.804 1        85.223          35.000                                                                  
G30  23633512.760 1 124194977.77111     -3705.425          33.000                                                                  
J 1  37415391.463 1 196619266.35411     -1003.983          24.000                                                                  
J 2  35953164.542 1 188935165.083 1      -818.732          33.000    35953169.339 1 141087957.047 1      -612.022          33.000  
J 3  39704145.592 1 208646718.878 1      -672.950          35.000                                                                  
R14  20540733.846 1 109493669.901 1     -4236.625          38.000  
R15  20080661.247 1 107304965.329 1      -454.201          32.000  
R17  21007032.234 1 112412872.429 1     -1727.696          26.000  
> 2021  5 21  6 29  9.9987924  0 25                     
C 7  35717110.959 1 185988386.713 1     -1027.749          27.000  
C 8  36488398.407 1 190004653.154 1     -1469.200          27.000  
C10  35920857.108 1 187049337.677 1      -601.196          31.000  
C11  23069361.513 1 120128220.966 1      -727.429          22.000  
C12  23472978.995 1 122229969.663 1     -1974.181          22.000  
C13  36543491.267 1 190291443.805 1     -1104.774          27.000  
C24  24495887.350 1 127556494.077 1     -3920.205          30.000  
C25  23238192.934 1 121007353.425 1     -1837.051          25.000  
C34  23031557.385 1 119931354.57411     -1265.179          23.000  
E 1  25232964.882 1  99019562.612 1       515.362          31.000  
E13  25337415.272 1  99429459.338 1     -2017.936          27.000  
E27  26219584.859 1 102891281.153 1     -2845.183          27.000  
G 2  24252108.115 1 127445702.227 1       841.650          29.000                                                                  
G 3  22221641.078 1 116775502.671 1     -2756.381          29.000    22221644.676 1  87202500.603 1     -2058.440          32.000  
G 6  21634437.291 1 113689705.157 1        57.755          25.000    21634446.884 1  84898218.757 1        43.821          34.000  
G14  20180694.796 1 106050270.391 1     -1495.001          40.000                                                                  
G17  21735622.342 1 114221478.013 1      -357.968          22.000                                                                  
G19  22056669.485 1 115908539.117 1       413.296          33.000                                                                  
G28  20534091.944 1 107907375.072 1        85.288          36.000                                                                  
J 1  37415344.996 1 196619010.450 1     -1006.418          24.000                                                                  
J 2  35953078.202 1 188934723.462 1      -818.742          38.000    35953085.397 1 141087627.531 1      -613.924          31.000  
J 3  39704039.765 1 208646133.481 1      -674.157          31.000                                                                  
R14  20541285.764 1 109496611.920 1     -4236.799          38.000  
R15  20080505.056 1 107304129.789 1      -453.829          26.000  
R17  21007113.178 1 112413305.240 1     -1724.921          24.000  
> 2021  5 21  6 29 10.9987917  0 24                     
C 7  35717099.267 1 185988321.980 1     -1029.167          26.000  
C 8  36488469.758 1 190005029.261 1     -1468.786          29.000  
C10  35920766.571 1 187048842.901 1      -597.156          31.000  
C11  23069290.463 1 120127853.797 1      -724.561          21.000  
C12  23473147.778 1 122230851.041 1     -1974.180          21.000  
C13  36543492.467 1 190291455.664 1     -1104.191          26.000  
C21  23894245.858 1 124423609.05011      -354.949          21.000  
C24  24496432.673 1 127559322.221 1     -3922.188          32.000  
C34  23031590.662 1 119931527.190 1     -1265.904          26.000  
E 1  25232623.418 1  99018222.872 1       517.854          33.000  
E27  26220101.102 1 102893304.320 1     -2847.492          25.000  
G 2  24251738.471 1 127443756.933 1       843.160          26.000                                                                  
G 3  22221954.961 1 116777157.075 1     -2757.708          30.000    22221960.057 1  87203735.846 1     -2061.624          31.000  
G 6  21634220.841 1 113688543.838 1        58.236          22.000    21634225.937 1  84897351.337 1        42.964          33.000  
G14  20180771.243 1 106050663.350 1     -1496.099          39.000                                                                  
G17  21735479.341 1 114220731.534 1      -355.256          28.000                                                                  
G19  22056378.087 1 115907020.582 1       419.699          34.000                                                                  
G28  20533864.401 1 107906186.789 1        85.429          35.000                                                                  
J 1  37415324.910 1 196618913.802 1     -1006.741          20.000                                                                  
J 2  35953025.738 1 188934441.988 1      -822.697          36.000    35953031.434 1 141087417.380 1      -613.196          31.000  
J 3  39703955.823 1 208645706.204 1      -676.249          25.000                                                                  
R14  20541864.363 1 109499695.584 1     -4240.289          37.000  
R15  20080382.141 1 107303473.047 1      -453.250          27.000  
R17  21007222.902 1 112413892.911 1     -1723.716          25.000  
> 2021  5 21  6 29 11.9987909  0 27                     
C 7  35717055.797 1 185988102.037 1     -1029.400          28.000  
C 8  36488511.429 1 190005249.672 1     -1468.733          26.000  
C10  35920639.759 1 187048191.573 1      -598.149          30.000  
C11  23069191.531 1 120127327.122 1      -721.014          23.000  
C12  23473284.483 1 122231575.763 1     -1973.179          21.000  
C13  36543463.387 1 190291310.394 1     -1104.191          25.000  
C21  23894077.075 1 124422714.437 1      -354.413          20.000  
C23  25481294.067 1 132687788.22411       637.532          26.000  
C24  24496948.915 1 127561997.934 1     -3925.966          31.000  
C25  23238448.657 1 121008676.77511     -1830.762          18.000  
C34  23031596.058 1 119931543.756 1     -1265.148          25.000  
E 1  25232250.177 1  99016763.348 1       519.229          30.000  
E27  26220587.365 1 102895211.843 1     -2849.965          25.000  
G 2  24251340.047 1 127441654.629 1       840.372          28.000                                                                  
G 3  22222238.564 1 116778653.721 1     -2756.666          28.000    22222244.260 1  87204852.530 1     -2055.915          31.000  
G 6  21633972.013 1 113687225.310 1        56.824          22.000    21633974.111 1  84896367.412 1        42.202          32.000  
G14  20180815.312 1 106050899.882 1     -1496.735          40.000                                                                  
G17  21735306.361 1 114219824.836 1      -351.942          25.000                                                                  
G19  22056060.007 1 115905342.152 1       417.847          35.000                                                                  
G28  20533606.880 1 107904840.761 1        85.228          35.000                                                                  
G30  23634937.673 1 124202475.33011     -3714.832          35.000                                                                  
J 1  37415277.243 1 196618661.697 1     -1009.991          22.000                                                                  
J 2  35952942.995 1                      -827.454          36.000    35952948.392 1 141087091.320 1      -613.578          30.000  
J 3  39703842.502 1 208645120.977 1      -674.505          31.000                                                                  
R14  20542420.778 1 109502662.104 1     -4243.533          40.000  
R15  20080227.448 1 107302646.714 1      -453.297          31.000  
R17  21007303.846 1 112414325.935 1     -1722.311          23.000  
> 2021  5 21  6 29 12.9987904  0 27                     
C 7  35717102.864 1 185988351.497 1     -1030.380          29.000  
C 8  36488643.338 1 190005937.346 1     -1468.398          28.000  
C10  35920602.584 1 187048008.228 1      -598.869          29.000  
C11  23069178.940 1 120127266.649 1      -719.184          29.000  
C12  23473512.925 1 122232767.237 1     -1970.866          27.000  
C13  36543526.643 1 190291634.439 1     -1105.217          25.000  
C21  23893996.131 1 124422288.548 1      -355.328          23.000  
C23  25481022.755 1 132686369.521 1       638.068          24.000  
C24  24497550.299 1 127565143.394 1     -3926.346          30.000  
C25  23238651.916 1 121009729.065 1     -1835.140          19.000  
C34  23031688.094 1 119932026.218 1     -1262.008          23.000  
E 1  25231967.772 1  99015655.460 1       520.050          26.000  
E27  26221164.466 1 102897473.983 1     -2849.958          29.000  
G 2  24251034.558 1 127440026.912 1       838.371          27.000                                                                  
G 3  22222610.607 1 116780621.540 1     -2754.690          30.000    22222617.502 1  87206320.576 1     -2056.028          27.000  
G 6  21633813.123 1 113686381.511 1        55.444          30.000    21633812.523 1  84895736.875 1        43.989          28.000  
G14  20180950.519 1 106051609.633 1     -1497.001          40.000                                                                  
G17  21735222.718 1 114219388.142 1      -350.207          31.000                                                                  
G19  22055825.869 1 115904136.187 1       418.553          36.000                                                                  
G28  20533441.994 1 107903967.485 1        86.695          34.000                                                                  
G30  23635493.189 1 124205398.823 1     -3711.243          31.000                                                                  
J 1  37415318.014 1 196618883.361 1     -1010.257          25.000                                                                  
J 2  35952948.092 1 188934024.45511      -821.607          27.000    35952956.786 1 141087118.553 1      -617.723          33.000  
J 3  39703818.219 1 208645006.252 1      -671.887          36.000                                                                  
R14  20543068.630 1 109506115.225 1     -4245.879          40.000  
R15  20080159.995 1 107302286.506 1      -454.339          33.000  
R17  21007474.428 1 112415238.405 1     -1720.348          28.000  
> 2021  5 21  6 29 13.9987899  0 26                     
C 7  35717150.531 1 185988602.281 1     -1032.303          26.000  
C 8  36488774.647 1 190006625.321 1     -1468.559          30.000  
C10  35920570.506 1 187047825.017 1      -598.727          29.000  
C11  23069166.948 1 120127203.457 1      -717.122          23.000  
C12  23473741.967 1 122233956.541 1     -1968.708          28.000  
C13  36543589.899 1 190291959.033 1     -1105.502          25.000  
C21  23893918.185 1 124421863.757 1      -356.126          23.000  
C24  24498149.284 1 127568289.675 1     -3925.847          26.000  
C25  23238854.576 1 121010784.039 1     -1836.841          20.000  
C34  23031781.030 1 119932506.696 1     -1259.766          27.000  
E 1  25231685.667 1  99014548.222 1       517.529          27.000  
E27  26221741.266 1 102899736.592 1     -2851.543          28.000  
G 2  24250726.371 1 127438401.790 1       836.069          29.000                                                                  
G 3  22222982.349 1 116782588.013 1     -2753.953          27.000    22222991.343 1  87207788.266 1     -2056.742          26.000  
G 6  21633652.134 1 113685541.233 1        51.263          22.000    21633653.333 1  84895106.053 1        41.789          24.000  
G14  20181086.924 1 106052319.817 1     -1498.262          40.000                                                                  
G17  21735137.278 1 114218949.847 1      -349.128          32.000                                                                  
G19  22055598.627 1 115902930.567 1       418.060          33.000                                                                  
G28  20533275.010 1 107903094.799 1        83.893          35.000                                                                  
G30  23636048.704 1 124208322.683 1     -3712.235          32.000                                                                  
J 1  37415362.983 1 196619104.749 1     -1008.610          21.000                                                                  
J 2  35952953.788 1 188934059.633 1      -823.799          26.000    35952963.381 1 141087146.049 1      -615.787          29.000  
J 3  39703794.835 1 208644889.615 1      -670.382          31.000                                                                  
R14  20543717.081 1 109509571.403 1     -4245.100          37.000  
R15  20080096.738 1 107301948.721 1      -455.991          28.000  
R17  21007645.310 1 112416153.060 1     -1719.840          35.000  
> 2021  5 21  6 29 14.9987891  0 23                     
C 7  35717109.460 1 185988386.851 1     -1033.713          22.000  
C 8  36488815.419 1 190006844.625 1     -1468.654          28.000  
C10  35920449.091 1 187047173.474 1      -597.009          28.000  
C11  23069063.520 1 120126671.820 1      -716.906          27.000  
C12  23473879.571 1 122234676.421 1     -1969.223          28.000  
C13  36543564.717 1 190291815.662 1     -1107.597          22.000  
C21  23893747.303 1 124420971.353 1      -355.769          24.000  
C24  24498659.831 1 127570966.315 1     -3926.065          18.000  
C25  23238968.797 1 121011372.216 1     -1837.113          29.000  
C34  23031780.730 1 119932517.282 1     -1259.464          27.000  
E 1  25231313.625 1  99013089.539 1       517.849          29.000  
E27  26222227.530 1 102901646.094 1     -2850.395          25.000  
G 3  22223265.054 1 116784081.683 1     -2754.259          31.000    22223274.647 1  87208903.826 1     -2058.437          25.000  
G 6  21633400.309 1 113684228.666 1        53.059          25.000    21633403.007 1  84894123.965 1        39.611          28.000  
G14  20181131.294 1 106052558.181 1     -1498.874          41.000                                                                  
G17  21734962.798 1 114218038.305 1      -348.421          31.000                                                                  
G19  22055282.945 1 115901253.009 1       417.567          27.000                                                                  
G28  20533018.987 1 107901749.934 1        84.429          36.000                                                                  
J 2  35952869.546 1 188933624.073 1      -825.192          27.000    35952880.339 1 141086820.840 1      -618.320          31.000  
J 3  39703681.513 1 208644299.500 1      -669.780          28.000                                                                  
R14  20544271.397 1 109512527.081 1     -4245.181          34.000  
R15  20079938.448 1 107301102.583 1      -456.937          24.000  
R17  21007726.254 1 112416585.812 1     -1720.286          31.000  
> 2021  5 21  6 29 15.9987886  0 22                     
C 7  35717158.925 1 185988639.382 1     -1032.005          25.000  
C 8  36488947.327 1 190007532.955 1     -1469.136          29.000  
C10  35920411.616 1 187046990.495 1      -597.187          28.000  
C11  23069051.528 1 120126607.868 1      -716.247          29.000  
C12  23474108.313 1 122235865.100 1     -1968.729          28.000  
C25  23239172.056 1 121012429.141 1     -1837.697          32.000  
C34  23031872.466 1 119932995.799 1     -1259.003          26.000  
E 1  25231031.221 1  99011983.637 1       517.819          29.000  
E27  26222802.532 1 102903910.256 1     -2851.870          22.000  
G 2  24250018.262 1 127434684.96011       833.513          30.000                                                                  
G 3  22223637.096 1 116786048.414 1     -2754.983          30.000    22223650.587 1  87210372.893 1     -2056.579          21.000  
G 6  21633240.819 1 113683386.685 1        53.948          20.000    21633242.318 1  84893496.325 1        39.608          27.000  
G14  20181264.701 1 106053269.744 1     -1500.561          40.000                                                                  
G17  21734883.054 1                      -347.082          33.000                                                                  
G19  22055051.805 1 115900047.474 1       417.075          22.000                                                                  
G28  20532852.002 1 107900877.743 1        85.224          37.000                                                                  
G30  23637079.990 1 124213699.54111     -3713.262          33.000                                                                  
J 2  35952874.343 1 188933662.249 1      -826.162          26.000    35952887.534 1 141086849.098 1      -616.012          28.000  
J 3  39703658.429 1 208644182.631 1      -672.097          25.000                                                                  
R14  20544915.951 1 109515962.617 1     -4245.851          37.000  
R15  20079866.797 1 107300719.440 1      -458.373          22.000  
R17  21007899.834 1 112417514.695 1     -1719.982          30.000  
> 2021  5 21  6 29 16.9987878  0 21                     
C 7  35717115.455 1 185988423.301 1     -1033.017          23.000  
C 8  36488989.598 1 190007752.313 1     -1467.297          29.000  
C10  35920285.404 1 187046339.073 1      -597.437          31.000  
C11  23068948.699 1 120126074.713 1      -714.823          28.000  
C12  23474246.817 1 122236583.763 1     -1965.694          28.000  
C13  36543600.692 1 190292001.79311     -1107.975          20.000  
C24  24499777.457 1 127576792.15911     -3929.360          24.000  
C25  23239285.378 1 121013017.571 1     -1835.740          35.000  
C34  23031874.865 1 119933005.384 1     -1258.291          28.000  
E 1  25230658.878 1  99010522.392 1       520.650          30.000  
G 2  24249620.137 1 127432590.620 1       833.867          31.000                                                                  
G 3  22223920.400 1 116787543.083 1     -2755.361          25.000    22223934.191 1  87211486.386 1     -2056.079          17.000  
G 6  21632984.796 1 113682072.441 1        54.115          24.000    21632991.691 1  84892514.044 1        42.775          29.000  
G14  20181311.769 1 106053509.829 1     -1500.959          40.000                                                                  
G17  21734711.872 1 114216665.94711      -344.829          35.000                                                                  
G19  22054731.327 1 115898371.832 1       417.214          17.000                                                                  
G28  20532598.078 1 107899532.570 1        84.947          37.000                                                                  
J 2  35952792.200 1 188933228.526 1      -827.115          28.000    35952805.391 1 141086526.376 1      -621.865          30.000  
J 3  39703546.307 1 208643594.822 1      -672.001          24.000                                                                  
R14  20545469.368 1 109518912.504 1     -4249.142          34.000  
R17  21007978.379 1 112417935.068 1     -1715.907          29.000  
> 2021  5 21  6 29 17.9987871  0 22                     
C 7  35717104.363 1 185988364.345 1     -1033.992          24.000  
C 8  36489060.649 1 190008126.691 1     -1467.079          30.000  
C10  35920188.271 1 187045842.880 1      -595.876          30.000  
C11  23068874.351 1 120125695.671 1      -712.692          28.000  
C12  23474414.401 1 122237456.086 1     -1964.155          26.000  
C13  36543603.390 1 190292016.119 1     -1104.446          20.000  
C21  23893368.065 1 124418915.37411      -356.759          19.000  
C25  23239428.379 1 121013762.242 1     -1838.332          34.000  
C34  23031906.343 1 119933169.942 1     -1256.979          26.000  
E 1  25230316.216 1  99009178.063 1       522.084          30.000  
G 2  24249251.992 1 127430653.546 1       834.234          31.000                                                                  
G 3  22224233.383 1 116789195.543 1     -2756.078          21.000    22224248.973 1  87212720.916 1     -2059.366          16.000  
G 6                                                                  21632770.744 1  84891647.723 1        43.786          29.000  
G14  20181388.216 1 106053908.661 1     -1502.744          39.000                                                                  
G17  21734569.471 1 114215906.505 1      -342.397          35.000                                                                  
G28  20532370.236 1 107898344.439 1        86.344          37.000                                                                  
G30  23638043.223 1 124218754.64711     -3717.598          27.000                                                                  
J 2                                                                  35952752.927 1 141086322.380 1      -619.932          27.000  
J 3  39703462.665 1 208643162.158 1      -668.589          26.000                                                                  
R14  20546058.160 1 109522051.160 1     -4252.029          33.000  
R15  20079563.408 1 107299097.87311      -456.392          18.000  
R17  21008086.904 1 112418515.998 1     -1711.815          29.000  
> 2021  5 21  6 29 18.9987866  0 23                     
C 7  35717151.131 1 185988617.929 1     -1035.340          23.000  
C 8  36489191.958 1 190008813.207 1     -1466.771          31.000  
C10  35920151.696 1 187045656.956 1      -593.626          31.000  
C11  23068862.359 1 120125626.679 1      -709.036          23.000  
C12  23474643.143 1 122238638.813 1     -1961.673          27.000  
C13  36543665.147 1 190292340.717 1     -1104.830          21.000  
C24  24500927.161 1 127582780.70911     -3934.450          25.000  
C25  23239634.036 1                     -1838.488          36.000  
C34  23031995.082 1 119933643.949 1     -1252.168          25.000  
E 1  25230032.912 1  99008067.323 1       523.887          30.000  
G 2  24248939.309 1 127429031.001 1       832.909          31.000                                                                  
G 3  22224607.824 1 116791162.917 1     -2754.043          21.000    22224623.713 1  87214192.124 1     -2058.347          18.000  
G 6  21632603.160 1 113680071.17211        56.251          35.000    21632610.655 1  84891017.249 1        41.593          30.000  
G14  20181523.422 1 106054623.634 1     -1503.586          40.000                                                                  
G17  21734484.330 1 114215459.816 1      -339.088          34.000                                                                  
G19  22054200.695 1 115895635.85611       426.282          19.000                                                                  
G28  20532205.950 1 107897471.025 1        85.568          37.000                                                                  
G30  23638598.439 1 124221683.916 1     -3718.181          23.000                                                                  
J 2  35952746.631 1 188932998.12511      -833.477          26.000    35952761.021 1 141086354.742 1      -620.915          27.000  
J 3  39703438.382 1 208643042.790 1      -667.388          27.000    39703452.772 1 155804875.77811      -499.488          28.000  
R14  20546709.909 1 109525525.728 1     -4255.424          32.000  
R15  20079503.749 1 107298779.083 1      -455.719          20.000  
R17  21008255.088 1 112419416.067 1     -1710.224          28.000  
> 2021  5 21  6 29 19.9987860  0 21                     
C 7  35717170.917 1 185988715.825 1     -1033.865          23.000  
C 8  36489292.389 1 190009341.632 1     -1464.535          30.000  
C10  35920084.543 1 187045314.391 1      -594.501          30.000  
C13  36543697.225 1 190292509.200 1     -1105.383          24.000  
C24  24501503.662 1 127585781.635 1     -3939.918          26.000  
C25  23239806.717 1 121015774.13711     -1837.670          36.000  
C34  23032052.942 1 119933957.560 1     -1249.451          25.000  
E 1  25229719.329 1  99006836.319 1       525.877          30.000  
G 2  24248599.944 1 127427251.231 1       836.360          28.000                                                                  
G 3  22224952.885 1 116792971.737 1     -2754.812          22.000    22224968.175 1  87215543.786 1     -2057.146          18.000  
G 6  21632411.293 1 113679070.046 1        54.930          36.000    21632419.987 1  84890269.476 1        42.430          30.000  
G14  20181629.549 1 106055181.979 1     -1504.486          40.000                                                                  
G17  21734362.014 1 114214853.937 1      -337.928          32.000                                                                  
G19  22053938.376 1 115894262.187 1       429.869          20.000                                                                  
G28  20532008.986 1 107896439.885 1        86.281          37.000                                                                  
G30  23639124.275 1 124224457.297 1     -3719.519          28.000                                                                  
J 2  35952725.646 1 188932888.069 1      -837.099          27.000    35952740.336 1 141086271.388 1      -623.645          26.000  
J 3  39703387.117 1 208642764.407 1      -666.925          27.000    39703400.008 1 155804667.637 1      -497.346          28.000  
R14  20547328.680 1 109528823.605 1     -4258.089          32.000  
R15  20079413.511 1 107298297.452 1      -455.342          25.000  
R17  21008392.992 1 112420153.642 1     -1707.059          26.000  
> 2021  5 21  6 29 20.9987853  0 23                     
C 7  35717159.225 1 185988656.984 1     -1034.857          23.000  
C 8  36489362.540 1 190009712.856 1     -1463.118          30.000  
C10  35919989.209 1 187044815.025 1      -592.423          30.000  
C11  23068744.540 1 120125012.99911      -704.241          23.000  
C12  23475004.692 1 122240531.12911     -1960.827          22.000  
C13  36543696.925 1 190292522.521 1     -1105.389          23.000  
C21  23893023.004 1 124417182.18911      -364.135          24.000  
C24  24502048.385 1 127588629.389 1     -3941.614          26.000  
C25  23239950.017 1 121016519.423 1     -1838.679          36.000  
C34  23032086.219 1 119934113.083 1     -1247.810          24.000  
E 1  25229374.867 1  99005485.723 1       527.779          30.000  
G 3  22225268.267 1 116794622.639 1     -2753.598          26.000    22225282.657 1  87216777.091 1     -2057.148          18.000  
G 6  21632189.447 1                        57.439          35.000    21632199.640 1  84889403.306 1        42.657          30.000  
G14  20181705.996 1 106055583.779 1     -1505.688          39.000                                                                  
G17  21734216.615 1 114214088.935 1      -337.299          32.000                                                                  
G19  22053644.879 1 115892728.140 1       433.746          21.000                                                                  
G28  20531783.542 1 107895251.018 1        87.231          36.000                                                                  
G30  23639624.329 1 124227074.034 1     -3720.078          26.000                                                                  
J 2  35952675.281 1 188932623.040 1      -838.980          26.000    35952689.971 1 141086073.124 1      -627.831          25.000  
J 3  39703304.374 1 208642328.294 1      -667.061          26.000    39703316.966 1 155804342.153 1      -498.548          29.000  
R14  20547917.773 1 109531964.052 1     -4260.059          31.000  
R15  20079289.397 1 107297634.358 1      -454.707          23.000  
R17  21008500.318 1 112420727.889 1     -1704.373          26.000  
> 2021  5 21  6 29 21.9987845  0 19                     
C 8  36489403.911 1 190009926.546 1     -1462.361          29.000  
C10  35919863.596 1 187044158.895 1      -592.894          30.000  
C11  23068638.714 1 120124466.994 1      -703.426          22.000  
C12  23475142.897 1 122241242.786 1     -1960.783          27.000  
C24  24502566.726 1 127591323.333 1     -3944.395          26.000  
C25  23240063.039 1 121017108.686 1     -1838.273          35.000  
C34  23032083.520 1 119934110.544 1     -1245.036          25.000  
E 1  25229000.426 1  99004016.290 1       528.848          30.000  
G 3  22225554.569 1 116796116.718 1     -2755.294          25.000    22225566.261 1  87217892.897 1     -2057.035          18.000  
G 6  21631943.917 1 113676604.90811        56.354          35.000    21631948.714 1  84888419.872 1        41.708          31.000  
G14  20181756.661 1 106055829.155 1     -1506.778          40.000                                                                  
G17  21734041.836 1 114213164.724 1      -334.079          32.000                                                                  
G19  22053323.202 1 115891030.562 1       439.853          21.000                                                                  
G28  20531529.018 1 107893904.518 1        86.583          37.000                                                                  
J 2  35952595.836 1 188932202.853 1      -840.683          25.000    35952609.326 1 141085758.676 1      -627.042          25.000  
J 3  39703192.552 1 208641734.869 1      -666.245          27.000    39703203.944 1 155803898.918 1      -498.393          29.000  
R14  20548479.584 1 109534958.788 1     -4262.037          31.000  
R15  20079137.402 1 107296822.375 1      -455.010          21.000  
R17  21008579.763 1 112421153.089 1     -1701.071          28.000  
> 2021  5 21  6 29 22.9987837  0 18                     
C 7  35717081.879 1 185988232.69711     -1038.185          22.000  
C 8  36489446.782 1 190010139.748 1     -1462.223          29.000  
C10  35919737.383 1 187043502.440 1      -592.076          30.000  
C11  23068530.788 1 120123920.009 1      -701.075          23.000  
C12  23475281.701 1 122241954.096 1     -1961.295          25.000  
C25  23240176.660 1 121017697.881 1     -1836.399          35.000  
C34  23032084.420 1 119934107.100 1     -1245.625          25.000  
E 1  25228626.885 1  99002546.794 1       528.031          32.000  
G 2  24247430.753 1 127421117.23211       838.034          17.000                                                                  
G 3  22225839.671 1 116797611.884 1     -2755.949          29.000    22225850.164 1  87219009.142 1     -2057.733          24.000  
G 6  21631690.292 1 113675287.407 1        57.752          34.000    21631698.986 1  84887436.698 1        41.619          32.000  
G14  20181802.529 1 106056075.360 1     -1507.881          40.000                                                                  
G17  21733867.657 1 114212239.159 1      -333.872          33.000                                                                  
G28  20531271.497 1 107892557.900 1        86.433          37.000                                                                  
J 2  35952516.091 1 188931783.725 1      -840.918          25.000    35952529.582 1 141085445.025 1      -629.540          26.000  
J 3  39703080.729 1 208641140.792 1      -666.874          25.000    39703090.922 1 155803455.104 1      -497.227          29.000  
R14  20549041.095 1 109537952.282 1     -4263.505          30.000  
R17  21008658.908 1 112421577.131 1     -1699.821          28.000  
> 2021  5 21  6 29 23.9987832  0 21                     
C 7  35717130.745 1 185988489.587 1     -1037.917          21.000  
C 8  36489578.091 1 190010821.311 1     -1462.308          29.000  
C10  35919702.008 1 187043313.580 1      -591.350          29.000  
C11  23068515.499 1 120123838.343 1      -698.596          25.000  
C13  36543703.221 1 190292559.65311     -1104.700          22.000  
C24  24503697.843 1 127597187.58011     -3948.145          25.000  
C25  23240378.121 1 121018755.518 1     -1838.444          33.000  
C34  23032172.559 1 119934572.020 1     -1244.689          26.000  
E 1  25228342.082 1  99001430.240 1       529.638          32.000  
G 2  24247119.269 1 127419489.588 1       841.958          17.000                                                                  
G 3  22226213.812 1 116799579.891 1     -2755.960          22.000    22226224.305 1  87220478.883 1     -2057.997          23.000  
G 6  21631528.704 1 113674442.271 1        56.808          33.000    21631538.298 1  84886806.678 1        42.692          32.000  
G14  20181938.635 1 106056795.020 1     -1507.631          40.000                                                                  
G17  21733784.014 1 114211785.113 1      -335.186          34.000                                                                  
G19  22052772.783 1 115888104.48511       436.648          21.000                                                                  
G28  20531105.711 1 107891683.930 1        85.067          36.000                                                                  
G30  23641121.792 1 124234936.12711     -3726.730          23.000                                                                  
J 2  35952531.380 1 188931838.821 1      -843.508          25.000    35952540.374 1 141085487.162 1      -630.265          24.000  
J 3  39703057.046 1 208641019.641 1      -666.299          27.000    39703067.538 1 155803364.496 1      -498.282          28.000  
R14  20549691.944 1 109541421.470 1     -4264.492          31.000  
R17  21008827.991 1 112422482.273 1     -1698.727          28.000  
> 2021  5 21  6 29 24.9987827  0 20                     
C 7  35717180.510 1 185988745.849 1     -1036.480          23.000  
C 8  36489708.500 1 190011503.747 1     -1464.142          30.000  
C10  35919665.733 1 187043124.678 1      -591.466          29.000  
C11  23068499.910 1 120123756.780 1      -699.280          27.000  
C13  36543767.976 1 190292883.964 1     -1105.700          21.000  
C24  24504307.021 1 127600354.087 1     -3946.285          25.000  
C25  23240581.380 1 121019813.730 1     -1839.152          34.000  
C34  23032260.398 1 119935036.323 1     -1245.419          27.000  
E 1  25228057.879 1  99000313.485 1       527.234          31.000  
G 3  22226591.851 1 116801548.185 1     -2756.946          30.000    22226599.046 1  87221948.749 1     -2058.610          23.000  
G 6  21631366.517 1 113673597.742 1        56.751          34.000    21631377.009 1  84886175.491 1        42.494          32.000  
G14  20182075.040 1 106057515.258 1     -1507.614          40.000                                                                  
G17  21733696.175 1 114211331.248 1      -332.638          35.000                                                                  
G19  22052541.643 1 115886879.610 1       435.317          20.000                                                                  
G28  20530936.029 1 107890810.536 1        86.779          36.000                                                                  
G30  23641677.008 1 124237868.006 1     -3717.075          20.000    23641696.494 1  92775130.25211     -2783.869          28.000  
J 2  35952544.571 1 188931895.058 1      -844.650          25.000    35952551.467 1 141085529.252 1      -630.498          23.000  
J 3  39703036.060 1 208640899.428 1      -667.914          23.000    39703044.154 1 155803275.078 1      -498.523          28.000  
R14  20550340.695 1 109544879.627 1     -4263.835          31.000  
R17  21008996.175 1 112423381.965 1     -1699.909          28.000  
> 2021  5 21  6 29 25.9987820  0 19                     
C 8  36489778.652 1 190011875.588 1     -1464.942          30.000  
C10  35919570.099 1 187042623.523 1      -591.740          30.000  
C11  23068427.360 1 120123363.756 1      -700.815          26.000  
C13  36543769.175 1 190292898.188 1     -1108.577          22.000  
C24  24504855.641 1 127603206.893 1     -3945.110          26.000  
C25  23240723.482 1 121020560.573 1     -1839.568          35.000  
C34  23032291.576 1 119935188.215 1     -1245.514          27.000  
E 1  25227713.417 1  98998962.698 1       526.894          31.000  
G 2  24246443.836 1 127415907.62611       842.568          15.000                                                                  
G 3  22226909.631 1 116803202.944 1     -2758.872          27.000    22226914.128 1  87223184.052 1     -2059.266          26.000  
G 6  21631146.769 1 113672438.894 1        57.498          34.000    21631156.062 1  84885310.046 1        41.487          32.000  
G14  20182152.686 1 106057921.033 1     -1509.077          40.000                                                                  
G17  21733550.476 1 114210562.822 1      -336.119          35.000                                                                  
G28  20530712.983 1 107889622.910 1        84.906          36.000                                                                  
G30                                                                  23642196.248 1  92777091.690 1     -2785.925          27.000  
J 2  35952495.405 1 188931635.613 1      -841.834          27.000    35952502.301 1 141085335.641 1      -628.590          23.000  
J 3                                                                  39702960.512 1 155802950.222 1      -497.703          27.000  
R14  20550934.284 1 109548044.051 1     -4264.283          29.000  
R15  20078721.890 1 107294601.78311      -457.633          17.000  
> 2021  5 21  6 29 26.9987814  0 21                     
C 7  35717191.903 1 185988792.25611     -1037.410          20.000  
C 8  36489880.581 1 190012403.193 1     -1463.780          29.000  
C10  35919504.744 1 187042279.518 1      -593.796          28.000  
C11  23068382.691 1 120123128.233 1      -701.565          26.000  
C13  36543802.752 1 190293070.225 1     -1109.664          22.000  
C24  24505436.639 1 127606213.921 1     -3942.981          27.000  
C25  23240899.160 1 121021463.956 1     -1840.488          33.000  
E 1  25227399.535 1  98997730.584 1       525.615          31.000  
G 2  24246111.067 1 127414122.204 1       837.175          14.000                                                                  
G 3                                                                  22227259.488 1  87224536.847 1     -2058.701          20.000  
G 6  21630959.099 1 113671438.121 1        54.964          34.000    21630965.694 1  84884562.372 1        41.647          34.000  
G14  20182259.712 1 106058484.808 1     -1509.039          39.000                                                                  
G17  21733431.458 1 114209954.099 1      -341.629          33.000                                                                  
G19  22051989.425 1 115883965.56911       430.503          23.000                                                                  
G28  20530518.118 1 107888593.478 1        84.136          36.000                                                                  
G30                                                                  23642725.981 1  92779171.768 1     -2784.957          25.000  
J 2  35952474.120 1 188931530.798 1      -838.795          27.000    35952481.615 1 141085257.295 1      -625.545          21.000  
J 3  39702901.153 1 208640184.93911      -666.091          21.000    39702907.149 1 155802741.223 1      -496.566          27.000  
R14  20551557.553 1 109551365.688 1     -4264.545          27.000  
R15  20078627.156 1 107294095.199 1      -457.364          17.000  
R17  21009244.403 1 112424710.27811     -1706.183          23.000  
> 2021  5 21  6 29 27.9987807  0 17                     
C 8  36489951.632 1 190012774.683 1     -1464.066          29.000  
C10  35919408.811 1 187041780.669 1      -594.059          28.000  
C11  23068309.841 1 120122737.194 1      -702.149          25.000  
C21  23892121.229 1 124412577.88511      -367.154          24.000  
C24  24505986.159 1 127609062.950 1     -3942.067          26.000  
C25  23241042.461 1 121022211.591 1     -1837.078          33.000  
E 1  25227055.673 1  98996381.748 1       524.258          31.000  
G 3  22227570.373 1 116806672.65511     -2759.636          16.000                                                                  
G 6  21630741.150 1                        52.228          31.000    21630745.646 1  84883697.245 1        39.837          34.000  
G14  20182337.359 1 106058891.601 1     -1509.785          39.000                                                                  
G17  21733282.462 1 114209188.260 1      -336.485          25.000                                                                  
G28  20530290.276 1 107887407.258 1        82.940          36.000                                                                  
G30                                                                  23643224.536 1  92781131.877 1     -2783.317          27.000  
J 2  35952424.654 1 188931265.638 1      -835.646          28.000    35952431.250 1 141085060.184 1      -626.135          25.000  
J 3  39702817.811 1 208639748.122 1      -666.514          20.000    39702824.407 1 155802415.112 1      -498.808          27.000  
R14  20552147.844 1 109554512.692 1     -4264.452          29.000  
R15  20078500.643 1 107293419.021 1      -457.188          19.000  
> 2021  5 21  6 29 28.9987799  0 17                     
C 8  36489993.303 1 190012989.606 1     -1464.591          29.000  
C10  35919281.999 1 187041126.297 1      -594.130          27.000  
C11  23068205.214 1 120122191.514 1      -704.758          27.000  
C21  23891952.146 1 124411695.841 1      -367.356          23.000  
C24  24506505.699 1 127611755.302 1     -3941.380          26.000  
C25  23241154.883 1 121022802.275 1     -1841.305          31.000  
E 1  25226682.131 1  98994916.331 1       524.747          30.000  
G 2  24245349.894 1 127410094.61511       827.988          17.000                                                                  
G 6  21630496.819 1 113668966.28411        45.478          30.000    21630494.720 1                        43.213          32.000  
G14  20182385.925 1 106059141.370 1     -1509.798          39.000                                                                  
G17  21733105.284 1 114208264.549 1      -337.380          24.000                                                                  
G28  20530035.152 1 107886064.211 1        82.286          36.000                                                                  
G30  23643682.319 1 124248342.92311     -3721.960          24.000    23643693.711 1  92782973.179 1     -2781.687          27.000  
J 2                                                                  35952351.205 1 141084745.276 1      -626.441          26.000  
J 3  39702705.989 1 208639153.655 1      -665.219          20.000    39702712.284 1 155801972.865 1      -499.182          27.000  
R14  20552709.655 1 109557507.390 1     -4263.621          31.000  
R15  20078354.045 1 107292635.916 1      -457.649          20.000  
> 2021  5 21  6 29 29.9987794  0 16                     
C 7  35717194.900 1 185988790.08911     -1039.997          22.000  
C 8  36490125.212 1 190013673.022 1     -1464.372          29.000  
C10  35919244.524 1 187040938.945 1      -593.734          28.000  
C21  23891871.801 1 124411283.686 1      -369.385          18.000  
C25  23241361.440 1 121023858.976 1     -1835.311          31.000  
E 1  25226398.228 1  98993804.215 1       523.237          28.000  
G 2  24245045.304 1 127408481.518 1       820.147          17.000                                                                  
G 6                                                                  21630332.832 1  84882075.52611        43.767          26.000  
G14  20182523.230 1 106059864.108 1     -1511.065          39.000                                                                  
G17  21733019.843 1 114207815.956 1      -339.813          24.000                                                                  
G28  20529869.667 1 107885194.558 1        82.046          34.000                                                                  
G30  23644242.332 1 124251276.805 1     -3720.198          31.000    23644251.625 1  92785162.759 1     -2776.116          23.000  
J 2                                                                  35952360.799 1 141084783.722 1      -626.490          30.000  
J 3  39702684.703 1 208639031.983 1      -667.960          24.000    39702689.800 1 155801884.841 1      -500.991          29.000  
R14  20553357.207 1 109560958.948 1     -4261.500          35.000  
R15  20078287.191 1 107292278.810 1      -458.141          24.000  
> 2021  5 21  6 29 30.9987789  0 21                     
C 7  35717244.666 1 185989049.276 1     -1039.738          25.000  
C 8  36490258.020 1 190014356.823 1     -1464.823          29.000  
C10  35919208.549 1 187040752.085 1      -595.269          26.000  
C11  23068180.031 1 120122047.08011      -711.571          18.000  
C21  23891793.555 1 124410875.415 1      -375.724          24.000  
C24  24507724.056 1 127618066.08411     -3931.101          24.000  
C25  23241566.798 1 121024914.890 1     -1835.691          28.000  
C34  23032558.691 1 119936595.94811     -1256.476          14.000  
E 1  25226114.924 1  98992692.103 1       523.982          26.000  
G 2  24244741.914 1 127406873.863 1       819.696          17.000                                                                  
G 3  22228609.154 1 116812118.24411     -2757.300          13.000                                                                  
G 6  21630180.538 1 113667291.42111        56.858          30.000    21630171.244 1  84881443.091 1        45.090          26.000  
G14  20182659.635 1 106060586.835 1     -1509.057          39.000                                                                  
G17  21732938.300 1 114207369.275 1      -342.792          18.000                                                                  
G28  20529701.783 1 107884325.929 1        82.279          31.000                                                                  
G30  23644800.245 1 124254206.462 1     -3715.004          31.000                                                                  
J 2  35952370.692 1 188930920.67711      -828.094          27.000    35952371.291 1 141084821.393 1      -625.074          32.000  
J 3  39702664.018 1 208638914.106 1      -671.832          28.000    39702669.114 1 155801799.368 1      -504.637          30.000  
R14  20554004.459 1 109564409.545 1     -4258.115          36.000  
R15  20078222.736 1 107291934.475 1      -458.897          31.000  
R17  21009847.885 1 112427939.26111     -1724.687          17.000  
> 2021  5 21  6 29 31.9987781  0 15                     
C 7  35717205.393 1 185988839.805 1     -1039.209          31.000  
C 8  36490299.391 1 190014572.780 1     -1464.854          28.000  
C10  35919082.337 1 187040098.325 1      -595.274          26.000  
C11  23068074.205 1 120121508.932 1      -711.945          20.000  
C21  23891627.470 1 124410003.978 1      -379.125          23.000  
C24  24508237.900 1 127620746.427 1     -3927.733          31.000  
C25  23241678.920 1 121025501.518 1     -1834.541          22.000  
E 1  25225741.982 1  98991227.371 1       523.188          27.000  
G 3  22228898.754 1 116813614.025 1     -2758.009          10.000                                                                  
G 6  21629932.909 1 113665970.688 1        62.633          24.000    21629919.418 1  84880456.671 1        46.678          30.000  
G14  20182705.804 1 106060836.630 1     -1510.733          39.000                                                                  
G28  20529450.857 1 107882985.935 1        78.344          32.000                                                                  
J 2  35952288.549 1 188930489.209 1      -829.050          27.000    35952289.748 1 141084502.973 1      -619.929          33.000  
J 3  39702552.495 1 208638328.123 1      -676.608          26.000    39702556.692 1 155801361.932 1      -505.136          21.000  
R14  20554563.572 1 109567389.412 1     -4252.270          40.000  
> 2021  5 21  6 29 32.9987773  0 19                     
C 7  35717164.322 1 185988629.266 1     -1037.847          30.000  
C 8  36490340.163 1 190014789.528 1     -1466.038          24.000  
C10  35918957.023 1 187039445.099 1      -596.139          30.000  
C11  23067971.676 1 120120972.763 1      -714.269          24.000  
C21  23891461.985 1 124409134.076 1      -379.500          25.000  
C24  24508747.847 1 127623421.749 1     -3919.975          33.000  
C25  23241790.143 1 121026085.804 1     -1832.251          21.000  
C34  23032564.088 1 119936617.74111     -1263.705          12.000  
E 1  25225369.340 1  98989764.446 1       520.564          28.000  
G 2  24243955.559 1 127402716.61411       812.213          15.000                                                                  
G 6  21629677.186 1 113664645.821 1        65.384          29.000    21629667.893 1  84879468.397 1        47.156          32.000  
G14  20182753.471 1 106061086.201 1     -1509.244          39.000                                                                  
G28  20529197.232 1 107881647.597 1        77.479          36.000                                                                  
G30  23645731.401 1 124259102.76311     -3704.178          30.000                                                                  
J 2  35952207.305 1 188930057.550 1      -827.850          34.000    35952206.106 1 141084180.952 1      -618.564          30.000  
J 3  39702440.972 1 208637745.645 1      -677.830          21.000                                                                  
R14  20555114.290 1 109570325.151 1     -4246.959          39.000  
R15  20077922.943 1 107290332.51211      -460.962          29.000  
R17  21010025.662 1 112428890.33411     -1719.852          16.000  
> 2021  5 21  6 29 33.9987766  0 19                     
C 7  35717152.330 1 185988573.992 1     -1037.754          31.000  
C 8  36490412.413 1 190015163.739 1     -1468.005          29.000  
C10  35918861.390 1 187038949.178 1      -597.998          31.000  
C11  23067899.426 1 120120595.655 1      -718.822          20.000  
C13  36543841.425 1 190293288.94511     -1096.428          27.000  
C21  23891324.980 1 124408420.392 1      -379.551          25.000  
C24  24509284.775 1                     -3916.448          34.000  
C25  23241930.147 1 121026825.860 1     -1832.814          24.000  
E 1  25225027.277 1  98988422.557 1       516.545          32.000  
G 2  24243593.410 1 127400801.252 1       813.006          10.000                                                                  
G 6  21629450.843 1 113663477.418 1        65.113          28.000    21629446.646 1  84878597.632 1        47.700          30.000  
G14  20182831.716 1 106061493.309 1     -1509.690          39.000                                                                  
G28  20528975.686 1 107880468.750 1        76.467          36.000                                                                  
G30  23646223.960 1 124261701.151 1     -3698.562          31.000                                                                  
J 2  35952154.242 1 188929781.616 1      -824.873          40.000    35952152.443 1 141083974.719 1      -616.340          32.000  
J 3  39702364.825 1 208637320.313 1      -678.431          21.000                                                                  
R14  20555700.085 1 109573447.597 1     -4244.036          36.000  
R15  20077802.726 1 107289689.531 1      -464.812          26.000  
R17  21010142.281 1 112429514.643 1     -1712.979          13.000  
> 2021  5 21  6 29 34.9987763  0 14                     
C 7  35717259.955 1 185989141.256 1     -1034.527          31.000  
C 8  36490605.479 1 190016164.352 1     -1469.684          32.000  
C10  35918891.369 1 187039079.390 1      -599.116          32.000  
C11  23067946.493 1 120120847.126 1      -721.593          23.000  
C13  36543962.841 1 190293916.993 1     -1096.763          32.000  
C24  24509945.218 1 127629722.18711     -3912.508          36.000  
C25  23242191.266 1 121028189.199 1     -1830.732          23.000  
E 1  25224805.730 1  98987553.814 1       514.558          33.000  
G 6  21629345.915 1 113662940.386 1        63.301          31.000    21629345.316 1  84878198.362 1        44.798          29.000  
G14  20183029.280 1 106062530.246 1     -1509.001          38.000                                                                  
G28  20528868.060 1 107879921.613 1        73.810          37.000                                                                  
J 2  35952215.699 1                      -820.603          40.000    35952219.296 1 141084237.124 1      -613.802          30.000  
J 3  39702405.597 1 208637526.568 1      -680.029          21.000                                                                  
R15  20077801.827 1 107289684.757 1      -467.311          27.000  
> 2021  5 21  6 29 35.9987756  0 18                     
C 7  35717248.563 1 185989082.402 1     -1033.023          31.000  
C 8  36490677.430 1 190016541.685 1     -1470.633          31.000  
C10  35918798.433 1                      -601.218          33.000  
C11  23067874.843 1 120120477.733 1      -725.416          26.000  
C13  36543962.841 1 190293921.653 1     -1097.766          28.000  
C21  23891169.088 1 124407615.66211      -375.525          19.000  
C24  24510485.444 1 127632538.780 1     -3910.644          31.000  
C25  23242330.669 1 121028927.093 1     -1831.503          27.000  
C34  23032782.936 1 119937757.36311     -1264.946          11.000  
E 1  25224465.166 1  98986217.773 1       512.171          32.000  
G 6  21629118.673 1 113661775.058 1        60.998          33.000    21629124.369 1  84877330.464 1        44.113          30.000  
G14  20183109.924 1 106062936.914 1     -1509.279          38.000                                                                  
G28  20528645.914 1 107878745.859 1        72.970          37.000                                                                  
G30  23647328.095 1 124267505.64111     -3685.202          26.000                                                                  
J 2  35952159.638 1                      -818.585          41.000    35952165.034 1 141084025.194 1      -609.373          33.000  
J 3  39702326.451 1 208637105.269 1      -681.842          29.000                                                                  
R14  20556987.394 1 109580310.29311     -4240.642          26.000  
R15  20077684.009 1 107289055.465 1      -468.873          34.000  
> 2021  5 21  6 29 36.9987748  0 18                     
C 7  35717207.192 1 185988866.628 1     -1033.511          29.000  
C 8  36490720.300 1 190016761.455 1     -1468.629          31.000  
C10  35918675.818 1 187037960.89511      -601.481          32.000  
C11  23067772.613 1 120119956.218 1      -728.998          26.000  
C13  36543933.761 1 190293770.519 1     -1098.482          24.000  
C21  23891001.204 1 124406742.355 1      -376.001          25.000  
C24  24510996.890 1 127635201.633 1     -3913.205          23.000  
C25  23242441.293 1 121029510.600 1     -1832.876          25.000  
C34  23032790.431 1 119937772.268 1     -1263.739          14.000  
E 1  25224094.922 1  98984764.845 1       511.295          31.000  
G 6  21628867.147 1 113660454.964 1        57.996          36.000    21628873.442 1  84876345.135 1        43.847          32.000  
G14  20183157.591 1 106063186.304 1     -1510.046          37.000                                                                  
G17  21732114.770 1 114203000.21511      -357.808          18.000                                                                  
G28  20528392.590 1 107877413.149 1        73.504          36.000                                                                  
G30  23647786.478 1 124269929.773 1     -3684.303          25.000                                                                  
J 2  35952074.197 1 188929440.58111      -816.406          39.000    35952080.493 1 141083692.729 1      -608.796          32.000  
J 3  39702216.128 1 208636527.947 1      -683.225          24.000                                                                  
R15  20077534.112 1 107288254.336 1      -470.028          30.000  
> 2021  5 21  6 29 37.9987743  0 17                     
C 7  35717255.459 1 185989120.229 1     -1034.606          30.000  
C 8  36490851.309 1 190017450.735 1     -1470.177          30.000  
C10  35918639.543 1 187037781.542 1      -600.938          29.000  
C11  23067760.921 1 120119904.709 1      -729.421          26.000  
C13  36543995.818 1 190294087.642 1     -1097.517          26.000  
C21  23890926.256 1 124406336.832 1      -373.640          22.000  
C25  23242643.353 1 121030563.080 1     -1832.935          28.000  
E 1  25223815.216 1  98983665.465 1       511.313          31.000  
G 6  21628705.559 1                        58.479          36.000    21628712.154 1  84875713.671 1        43.163          33.000  
G14  20183293.697 1 106063908.745 1     -1510.400          37.000                                                                  
G17  21732035.625 1 114202572.448 1      -361.693          29.000                                                                  
G19  22048966.918 1                       411.996          35.000                                                                  
G28  20528225.605 1 107876553.567 1        70.309          36.000                                                                  
G30  23648337.197 1 124272826.258 1     -3684.312          31.000                                                                  
J 2  35952081.092 1 188929469.706 1      -818.282          39.000    35952086.488 1 141083713.736 1      -610.272          32.000  
R14  20558196.157 1 109586753.14011     -4238.689          25.000  
R15  20077473.854 1 107287932.235 1      -471.550          29.000  
> 2021  5 21  6 29 38.9987735  0 20                     
C 7  35717213.188 1 185988906.321 1     -1034.825          31.000  
C 8  36490893.580 1 190017672.027 1     -1469.724          32.000  
C10  35918514.230 1 187037133.885 1      -600.316          31.000  
C11  23067661.091 1 120119384.093 1      -727.918          28.000  
C13  36543969.736 1 190293936.694 1     -1099.119          27.000  
C21  23890758.672 1 124405461.724 1      -374.469          26.000  
C24  24512107.021 1 127640996.95011     -3909.932          19.000  
C25  23242753.976 1 121031147.589 1     -1833.355          30.000  
C34  23032894.759 1 119938277.19411     -1270.626          27.000  
E 1  25223444.972 1  98982212.676 1       510.064          29.000  
G 6  21628457.031 1 113658295.14611        57.974          36.000    21628461.228 1  84874728.974 1        43.234          33.000  
G14  20183341.963 1 106064159.069 1     -1510.990          37.000                                                                  
G17  21731865.642 1 114201673.720 1      -361.689          30.000                                                                  
G19  22048646.739 1 115866431.23711       411.646          36.000                                                                  
G28  20527972.580 1 107875221.803 1        70.524          36.000                                                                  
G30  23648799.777 1 124275250.531 1     -3685.609          31.000                                                                  
J 2  35951996.551 1 188929026.278 1      -819.091          38.000    35952002.846 1                      -609.462          33.000  
R14  20558749.274 1 109589702.052 1     -4238.270          27.000  
R15  20077320.960 1 107287114.978 1      -472.891          30.000  
R17  21010749.061 1 112432761.96111     -1735.699          30.000  
> 2021  5 21  6 29 39.9987727  0 20                     
C 7  35717171.217 1 185988692.168 1     -1034.241          30.000  
C 8  36490934.951 1 190017892.923 1     -1470.373          31.000  
C10  35918392.214 1 187036486.148 1      -601.963          30.000  
C11  23067560.360 1 120118862.754 1      -726.171          27.000  
C13  36543940.057 1 190293786.838 1     -1099.387          28.000  
C21  23890589.589 1 124404587.105 1      -374.600          26.000  
C23  25472382.137 1 132641318.30211       628.708          24.000  
C24  24512616.968 1 127643658.324 1     -3910.561          20.000  
C25  23242865.799 1 121031732.338 1     -1834.468          30.000  
E 1  25223074.729 1  98980761.585 1       510.273          29.000  
G 6  21628205.505 1 113656977.628 1        57.272          36.000    21628210.601 1                        41.985          33.000  
G14  20183386.632 1 106064409.710 1     -1511.677          37.000                                                                  
G19  22048332.557 1 115864759.371 1       411.747          36.000                                                                  
G28  20527719.256 1 107873890.221 1        70.378          36.000                                                                  
G30  23649262.656 1 124277676.602 1     -3688.053          31.000                                                                  
J 2  35951913.808 1 188928582.803 1      -817.625          38.000    35951918.605 1 141083050.07811      -609.257          32.000  
J 3  39701977.493 1 208635271.68211      -682.826          21.000                                                                  
R14  20559304.490 1 109592661.319 1     -4239.342          26.000  
R15  20077170.764 1 107286312.971 1      -474.039          29.000  
R17  21010823.709 1 112433161.454 1     -1732.326          30.000  
> 2021  5 21  6 29 40.9987722  0 19                     
C 7  35717219.483 1 185988944.522 1     -1032.441          30.000  
C 8  36491070.458 1 190018583.762 1     -1471.405          30.000  
C10  35918360.137 1 187036306.701 1      -599.060          31.000  
C11  23067548.369 1 120118807.232 1      -723.648          25.000  
C13  36544001.514 1 190294105.852 1     -1100.392          27.000  
C21  23890512.243 1 124404180.785 1      -373.538          27.000  
C23  25472112.623 1 132639909.014 1       627.671          25.000  
C25  23243069.058 1 121032787.600 1     -1837.826          31.000  
E 1  25222795.022 1  98979664.301 1       509.018          29.000  
G 6  21628042.718 1 113656133.766 1        56.145          35.000    21628049.913 1  84873113.08911        42.305          34.000  
G14  20183523.038 1 106065133.486 1     -1512.573          37.000                                                                  
G19  22048104.715 1 115863560.098 1       409.226          35.000                                                                  
G28  20527560.366 1 107873031.742 1        70.617          36.000                                                                  
G30  23649815.174 1 124280577.582 1     -3688.736          32.000                                                                  
J 2  35951920.104 1 188928612.106 1      -815.777          38.000    35951924.001 1 141083071.915 1      -611.300          32.000  
J 3  39701957.107 1 208635165.652 1      -679.746          24.000                                                                  
R14  20559950.243 1 109596104.088 1     -4240.207          25.000  
R15  20077112.304 1 107286000.815 1      -475.265          30.000  
R17  21010992.792 1 112434066.102 1     -1731.470          29.000  
> 2021  5 21  6 29 41.9987717  0 19                     
C 7  35717267.750 1 185989196.106 1     -1032.851          30.000  
C 8  36491201.467 1 190019273.736 1     -1470.350          31.000  
C10  35918321.463 1 187036127.382 1      -602.302          29.000  
C11  23067535.777 1 120118751.035 1      -724.918          25.000  
C13  36544062.372 1 190294425.501 1     -1099.797          29.000  
C21  23890432.798 1 124403772.735 1      -371.717          27.000  
C23  25471840.412 1 132638501.284 1       626.946          27.000  
C25  23243272.617 1 121033846.064 1     -1840.543          26.000  
E 1  25222515.316 1  98978567.509 1       508.053          29.000  
G 6  21627879.331 1 113655291.170 1        54.645          33.000    21627889.823 1  84872483.978 1        41.458          34.000  
G14  20183661.242 1 106065857.780 1     -1511.113          36.000                                                                  
G19  22047875.373 1 115862360.890 1       413.561          35.000                                                                  
G28  20527397.578 1 107872173.602 1        70.601          36.000                                                                  
G30  23650367.092 1 124283479.003 1     -3689.843          30.000                                                                  
J 2  35951924.001 1 188928641.518 1      -818.466          37.000    35951929.397 1 141083093.874 1      -610.619          32.000  
J 3  39701936.421 1 208635056.480 1      -677.458          22.000                                                                  
R14  20560596.295 1 109599547.905 1     -4241.358          25.000  
R15  20077054.145 1 107285690.069 1      -477.189          31.000  
R17  21011160.676 1 112434964.925 1     -1731.121          30.000  
> 2021  5 21  6 29 42.9987709  0 18                     
C 7  35717226.678 1 185988979.780 1     -1032.532          30.000  
C 8  36491243.138 1 190019495.159 1     -1469.769          32.000  
C10  35918199.148 1 187035479.589 1      -601.360          29.000  
C11  23067434.148 1 120118226.234 1      -723.952          26.000  
C13  36544033.892 1 190294276.967 1     -1101.588          29.000  
C21  23890265.513 1 124402894.963 1      -371.600          28.000  
C23  25471480.961 1 132636626.148 1       624.472          28.000  
E 1  25222146.571 1  98977117.900 1       508.303          30.000  
G 6  21627632.602 1 113653976.906 1        55.346          31.000    21627639.497 1  84871502.419 1        40.674          34.000  
G14  20183711.307 1 106066109.809 1     -1511.100          37.000                                                                  
G19  22047554.296 1 115860689.149 1       412.377          34.000                                                                  
G28  20527142.455 1 107870843.194 1        70.234          36.000                                                                  
G30  23650827.573 1 124285909.254 1     -3690.878          25.000                                                                  
J 2  35951839.759 1 188928196.452 1      -815.733          35.000    35951845.156 1 141082762.741 1      -606.625          32.000  
J 3  39701824.299 1 208634472.674 1      -676.036          24.000                                                                  
R14  20561152.410 1 109602512.066 1     -4243.321          24.000  
R15  20076905.448 1 107284895.192 1      -478.474          31.000  
R17  21011243.119 1 112435405.350 1     -1731.173          29.000  
> 2021  5 21  6 29 43.9987702  0 20                     
C 7  35717214.387 1 185988919.329 1     -1032.309          30.000  
C 8  36491322.283 1                     -1468.184          32.000  
C10  35918100.516 1 187034988.111 1      -602.294          30.000  
C11  23067362.797 1 120117857.501 1      -724.133          26.000  
C13  36544035.091 1 190294285.646 1     -1101.674          29.000  
C21  23890126.709 1 124402173.937 1      -372.604          30.000  
C23  25471152.088 1 132634909.526 1       623.129          30.000  
C25  23243529.240 1 121035190.20811     -1848.604          19.000  
E 1  25221807.506 1  98975785.782 1       508.788          30.000  
G 6  21627409.556 1 113652819.593 1        54.271          34.000    21627419.149 1  84870638.284 1        41.185          35.000  
G14  20183788.354 1 106066519.898 1     -1512.713          37.000                                                                  
G19  22047265.296 1 115859175.090 1       413.490          32.000                                                                  
G28  20526918.210 1 107869670.855 1        69.519          35.000                                                                  
G30  23651320.432 1 124288496.846 1     -3689.565          24.000                                                                  
J 1  37415264.951 1 196618543.85011     -1005.930          33.000                                                                  
J 2  35951788.195 1 188927910.894 1      -819.171          35.000    35951788.495 1 141082549.299 1      -608.473          30.000  
J 3  39701743.355 1 208634044.997 1      -675.549          25.000                                                                  
R14  20561738.205 1 109605634.895 1     -4244.098          24.000  
R15  20076785.231 1 107284252.606 1      -479.133          31.000  
R17  21011355.841 1 112436009.329 1     -1731.614          29.000  
> 2021  5 21  6 29 44.9987694  0 18                     
C 7  35717172.116 1 185988703.410 1     -1033.374          30.000  
C 8  36491360.956 1                     -1470.472          32.000  
C10  35917982.098 1 187034340.265 1      -601.973          30.000  
C11  23067263.266 1 120117333.146 1      -724.767          27.000  
C13  36544006.311 1 190294137.678 1     -1100.979          29.000  
C21  23889956.727 1 124401298.465 1      -374.153          30.000  
C23  25470793.836 1 132633037.531 1       623.191          29.000  
E 1  25221437.862 1  98974335.530 1       510.069          31.000  
G 6  21627159.829 1 113651503.779 1        59.136          31.000    21627168.823 1  84869655.705 1        43.865          33.000  
G14  20183835.421 1 106066772.894 1     -1513.075          38.000                                                                  
G28  20526663.686 1 107868341.147 1        70.172          34.000                                                                  
G30  23651782.412 1 124290925.438 1     -3687.799          27.000                                                                  
J 1  37415215.186 1 196618289.742 1     -1003.267          31.000                                                                  
J 2  35951706.951 1                      -817.919          34.000    35951703.653 1 141082217.884 1      -607.691          31.000  
J 3  39701634.530 1 208633460.068 1      -676.057          23.000                                                                  
R14  20562292.821 1 109608590.576 1     -4243.501          25.000  
R15  20076632.337 1 107283435.233 1      -479.015          28.000  
R17  21011437.984 1 112436448.533 1     -1729.905          29.000  
> 2021  5 21  6 29 45.9987692  0 19                     
C 7  35717310.920 1 185989424.665 1     -1033.643          31.000  
C 8  36491585.501 1 190021270.01111     -1469.670          30.000  
C10  35918038.160 1 187034628.690 1      -598.174          29.000  
C11  23067342.711 1 120117745.805 1      -724.396          26.000  
C13  36544158.006 1 190294925.723 1     -1100.033          28.000  
C21  23889968.119 1 124401359.945 1      -372.703          27.000  
C23  25470613.961 1 132632101.594 1       625.209          23.000  
C25  23243946.251 1 121037337.78311     -1857.616          12.000  
E 1  25221247.793 1  98973590.893 1       509.837          31.000  
G 6  21627087.879 1 113651131.464 1        58.387          27.000    21627098.072 1  84869378.908 1        40.828          27.000  
G14  20184064.763 1 106067971.837 1     -1515.275          36.000                                                                  
G19  22046811.710 1 115856774.65911       415.088          33.000                                                                  
G28  20526592.036 1 107867956.721 1        68.909          35.000                                                                  
G30  23652425.167 1 124294297.344 1     -3686.449          29.000                                                                  
J 1  37415345.595 1 196618978.815 1     -1006.635          30.000                                                                  
J 2  35951797.788 1 188927996.56511      -815.502          35.000    35951800.187 1 141082592.886 1      -612.025          32.000  
R14  20563029.111 1 109612515.458 1     -4243.097          23.000  
R15  20076667.412 1 107283623.397 1      -478.058          29.000  
R17  21011700.303 1 112437852.384 1     -1727.803          30.000  
> 2021  5 21  6 29 46.9987684  0 19                     
C 7  35717268.649 1 185989209.379 1     -1033.804          32.000  
C 8  36491627.472 1 190021489.688 1     -1467.197          31.000  
C10  35917910.748 1 187033979.597 1      -597.521          30.000  
C11  23067241.081 1 120117220.206 1      -722.225          29.000  
C13  36544132.523 1 190294774.758 1     -1097.919          24.000  
C21  23889799.936 1 124400485.580 1      -378.615          23.000  
C23  25470255.709 1 132630225.758 1       628.316          26.000  
C24  24516595.214 1 127664301.65411     -3909.277          18.000  
C25  23244063.769 1 121037951.177 1     -1863.588          12.000  
E 1  25220877.550 1  98972138.642 1       512.241          31.000  
G 6  21626836.952 1 113649812.878 1        59.162          24.000    21626846.246 1  84868395.928 1        43.555          21.000  
G14  20184113.029 1 106068226.340 1     -1514.428          36.000                                                                  
G17  21730914.401 1 114196725.27211      -339.282          33.000                                                                  
G19  22046494.829 1 115855098.295 1       418.140          35.000                                                                  
G28  20526336.613 1 107866626.612 1        70.469          35.000                                                                  
J 1  37415295.530 1 196618727.402 1     -1011.174          36.000                                                                  
J 2  35951711.148 1 188927555.220 1      -820.831          37.000    35951716.844 1 141082263.402 1      -611.258          32.000  
J 3  39701593.459 1 208633239.02411      -678.600          23.000                                                                  
R15  20076516.617 1 107282816.917 1      -476.311          29.000  
> 2021  5 21  6 29 47.9987676  0 18                     
C 7  35717227.878 1 185988995.104 1     -1035.276          31.000  
C 8  36491668.244 1 190021708.114 1     -1467.090          32.000  
C10  35917787.233 1 187033329.320 1      -598.159          32.000  
C11  23067141.850 1 120116690.928 1      -716.218          27.000  
C13  36544101.045 1 190294623.665 1     -1099.099          11.000  
C21  23889634.450 1 124399617.316 1      -383.158          25.000  
C23  25469895.658 1 132628346.176 1       632.397          24.000  
C24  24517104.562 1 127666963.169 1     -3911.409          24.000  
E 1  25220506.707 1  98970683.652 1       515.074          32.000  
G 6                                                                  21626594.120 1  84867408.643 1        46.473          13.000  
G14  20184163.394 1 106068482.076 1     -1516.319          36.000                                                                  
G17  21730737.823 1 114195803.051 1      -336.841          33.000                                                                  
G19  22046174.651 1 115853418.336 1       419.852          35.000                                                                  
G28  20526084.487 1 107865295.800 1        68.937          36.000                                                                  
J 1  37415248.163 1 196618481.000 1     -1016.302          36.000                                                                  
J 2  35951628.106 1 188927116.797 1      -824.263          40.000    35951633.802 1 141081936.023 1      -615.301          33.000  
J 3  39701481.636 1 208632657.720 1      -680.958          27.000                                                                  
R15  20076369.119 1 107282029.431 1      -474.190          33.000  
> 2021  5 21  6 29 48.9987671  0 19                     
C 7  35717276.744 1 185989250.814 1     -1037.859          31.000  
C 8  36491796.555 1 190022393.232 1     -1466.046          31.000  
C10  35917750.059 1 187033145.836 1      -597.668          31.000  
C11  23067129.858 1 120116623.887 1      -710.244          25.000  
C21  23889559.802 1 124399220.700 1      -384.471          20.000  
C23  25469621.648 1 132626931.328 1       636.300          25.000  
C24  24517705.945 1 127670096.063 1     -3916.779          30.000  
E 1  25220225.201 1  98969578.565 1       516.898          34.000  
G 6                                                                  21626432.532 1  84866772.228 1        49.899          13.000  
G14  20184301.899 1 106069211.321 1     -1517.900          38.000                                                                  
G17  21730644.288 1 114195353.925 1      -345.806          32.000                                                                  
G19  22045941.113 1 115852206.425 1       425.004          35.000                                                                  
G28  20525921.400 1 107864436.461 1        72.777          37.000                                                                  
G30  23653901.645 1 124302078.29411     -3703.946          14.000                                                                  
J 1  37415292.232 1 196618711.145 1     -1018.639          33.000                                                                  
J 2  35951636.800 1 188927154.359 1      -827.272          39.000    35951641.896 1 141081964.075 1      -619.914          31.000  
J 3  39701460.351 1 208632549.876 1      -677.530          26.000                                                                  
R14  20564806.281 1 109621989.27911     -4246.852          26.000  
R15  20076310.959 1 107281718.227 1      -471.919          30.000  
> 2021  5 21  6 29 49.9987663  0 21                     
C 7  35717235.972 1 185989040.203 1     -1038.596          30.000  
C 8  36491840.924 1 190022608.941 1     -1464.756          31.000  
C10  35917623.547 1 187032492.604 1      -594.558          32.000  
C11  23067025.231 1 120116083.003 1      -707.073          23.000  
C13  36544137.020 1 190294792.60111     -1097.278          12.000  
C21  23889394.916 1 124398357.175 1      -386.705          24.000  
C23  25469258.299 1 132625043.722 1       640.468          27.000  
C24  24518218.291 1 127672765.492 1     -3921.101          34.000  
E 1  25219853.459 1  98968118.748 1       519.851          34.000  
G 6  21626178.009 1 113646315.73611        68.050          16.000    21626179.208 1  84865780.985 1        49.734          14.000  
G14  20184350.465 1 106069469.355 1     -1520.068          39.000                                                                  
G17  21730458.117 1 114194443.101 1      -345.034          32.000                                                                  
G19  22045625.131 1 115850518.771 1       428.245          31.000                                                                  
G28  20525666.277 1 107863103.551 1        71.997          36.000                                                                  
G30  23654370.220 1 124304521.848 1     -3704.703          14.000                                                                  
J 1  37415246.664 1 196618470.506 1     -1020.576          25.000                                                                  
J 2  35951555.256 1 188926723.382 1      -831.764          40.000    35951560.053 1 141081642.363 1      -621.186          31.000  
J 3  39701348.528 1 208631966.587 1      -677.018          23.000                                                                  
R14  20565360.897 1 109624945.602 1     -4252.370          25.000  
R15  20076159.864 1 107280910.494 1      -470.347          24.000  
R17  21012117.913 1 112440087.28611     -1709.091          31.000  
> 2021  5 21  6 29 50.9987658  0 21                     
C 7  35717286.937 1 185989298.499 1     -1039.753          28.000  
C 8  36491972.533 1 190023291.052 1     -1463.249          27.000  
C10  35917585.773 1 187032306.658 1      -594.862          31.000  
C11  23067009.342 1 120116008.455 1      -703.822          23.000  
C21  23889320.867 1 124397964.546 1      -387.032          24.000  
C23  25468984.589 1 132623620.393 1       645.557          23.000  
C24  24518822.972 1 127675908.992 1     -3928.279          26.000  
C25  23244716.717 1 121041357.20611     -1865.643          13.000  
E 1  25219571.054 1  98967008.977 1       522.107          33.000  
G 6                                                                  21626016.720 1  84865142.855 1        49.261          15.000  
G14  20184491.367 1 106070201.546 1     -1520.379          39.000                                                                  
G17  21730370.278 1 114194001.036 1      -344.607          31.000                                                                  
G19  22045392.792 1 115849301.455 1       432.131          32.000                                                                  
G28  20525501.391 1 107862242.605 1        72.820          37.000                                                                  
G30  23654928.734 1 124307437.209 1     -3701.161          14.000                                                                  
J 1  37415292.832 1 196618701.856 1     -1018.536          23.000                                                                  
J 2  35951562.451 1 188926769.730 1      -837.264          35.000    35951568.147 1 141081675.292 1      -621.743          27.000  
J 3  39701325.744 1 208631855.061 1      -675.068          27.000                                                                  
R14  20566009.348 1 109628401.756 1     -4258.470          28.000  
R15  20076100.505 1 107280593.813 1      -470.107          24.000  
R17  21012291.793 1 112441017.237 1     -1710.580          23.000  
> 2021  5 21  6 29 51.9987651  0 21                     
C 7  35717276.444 1 185989246.049 1     -1040.985          30.000  
C 8  36492043.284 1 190023661.208 1     -1462.722          26.000  
C10  35917487.441 1 187031807.229 1      -591.995          31.000  
C11  23066932.895 1 120115617.519 1      -700.606          24.000  
C13  36544192.782 1 190295104.73611     -1087.027          11.000  
C21  23889185.061 1 124397260.135 1      -388.920          24.000  
C23  25468649.421 1 132621880.483 1       649.012          29.000  
C25  23244863.616 1 121042130.268 1     -1866.246          13.000  
E 1  25219228.092 1  98965663.463 1       522.711          28.000  
G 6                                                                  21625795.473 1  84864271.954 1        45.718          26.000  
G14  20184568.114 1 106070619.405 1     -1521.027          40.000                                                                  
G17  21730228.476 1 114193241.992 1      -343.255          26.000                                                                  
G19  22045095.998 1                       441.542          33.000                                                                  
G28  20525281.044 1 107861065.781 1        73.241          35.000                                                                  
G30  23655425.490 1 124310037.616 1     -3704.453          14.000                                                                  
J 1  37415277.542 1 196618617.072 1     -1018.109          20.000                                                                  
J 2  35951509.688 1 188926502.910 1      -835.666          32.000    35951516.883 1 141081474.858 1      -624.275          29.000  
J 3  39701242.102 1 208631425.492 1      -672.180          35.000                                                                  
R14  20566595.742 1 109631527.969 1     -4275.643          14.000  
R15  20075974.892 1 107279922.475 1      -470.329          30.000  
R17  21012402.117 1 112441607.615 1     -1705.706          25.000  
> 2021  5 21  6 29 52.9987645  0 18                     
C 7  35717298.029 1 185989350.244 1     -1041.125          30.000  
C 8  36492142.815 1 190024187.062 1     -1462.567          29.000  
C10  35917423.285 1 187031463.617 1      -593.514          28.000  
C11  23066887.026 1 120115380.738 1      -699.764          25.000  
C21  23889081.633 1 124396712.013 1      -387.399          25.000  
C23  25468344.232 1 132620294.704 1       649.925          27.000  
C25  23245038.395 1 121043061.344 1     -1867.931          14.000  
E 1  25218914.509 1  98964434.074 1       524.096          27.000  
G 6  21625590.115 1 113643289.42011        59.702          18.000    21625604.506 1  84863521.275 1        43.945          26.000  
G14  20184677.838 1 106071195.437 1     -1521.116          41.000                                                                  
G17  21730113.655 1 114192638.369 1      -340.197          32.000                                                                  
G19  22044833.080 1                       438.320          37.000                                                                  
G28  20525082.581 1 107860046.258 1        76.111          33.000                                                                  
G30  23655955.823 1 124312798.599 1     -3708.163          14.000                                                                  
J 1  37415292.232 1 196618694.204 1     -1024.480          23.000                                                                  
J 2  35951486.904 1 188926394.776 1      -837.680          32.000    35951496.797 1 141081393.653 1      -625.889          33.000  
J 3  39701187.840 1 208631150.154 1      -668.553          34.000                                                                  
R15  20075881.956 1 107279425.758 1      -470.666          30.000  
> 2021  5 21  6 29 53.9987638  0 18                     
C 7  35717287.536 1 185989298.428 1     -1040.742          31.000  
C 8  36492213.266 1 190024556.326 1     -1462.072          30.000  
C10  35917327.352 1 187030962.454 1      -590.798          25.000  
C11  23066812.078 1 120114987.263 1      -698.921          29.000  
C13  36544220.662 1 190295255.34711     -1094.240          16.000  
C21  23888948.525 1 124396005.924 1      -386.407          24.000  
C23  25468010.263 1 132618552.177 1       648.795          26.000  
E 1  25218570.047 1  98963086.182 1       524.316          28.000  
G 6                                                                  21625383.858 1  84862654.395 1        42.897          29.000  
G14  20184756.084 1 106071614.208 1     -1521.900          40.000                                                                  
G17  21729968.856 1 114191875.164 1      -339.957          30.000                                                                  
G19  22044539.583 1 115844838.45611       436.067          39.000                                                                  
G28  20524858.336 1 107858869.686 1        72.098          33.000                                                                  
G30  23656459.774 1 124315404.713 1     -3709.675          14.000                                                                  
J 2  35951435.339 1 188926128.124 1      -834.801          23.000    35951445.832 1 141081196.443 1      -624.381          21.000  
J 3  39701104.497 1 208630716.429 1      -669.652          35.000                                                                  
R15  20075760.540 1 107278776.838 1      -472.262          30.000  
R17  21012650.045 1 112442934.68511     -1705.195          23.000  
> 2021  5 21  6 29 54.9987630  0 18                     
C 7  35717247.364 1 185989090.012 1     -1040.188          32.000  
C 8  36492253.738 1 190024769.943 1     -1463.203          31.000  
C10  35917199.041 1 187030304.801 1      -592.346          27.000  
C11  23066708.050 1 120114437.809 1      -699.734          29.000  
C13  36544190.383 1 190295102.530 1     -1098.159          19.000  
C21  23888784.539 1 124395143.686 1      -386.353          26.000  
C23  25467647.814 1 132616655.020 1       646.990          26.000  
E 1  25218197.105 1  98961622.087 1       522.731          27.000  
G 6  21625120.041 1 113640814.66711        53.379          19.000    21625133.532 1  84861671.032 1        41.517          31.000  
G14  20184808.248 1 106071875.808 1     -1522.191          39.000                                                                  
G17  21729794.376 1 114190954.003 1      -339.527          29.000                                                                  
G19  22044217.606 1 115843142.285 1       434.510          39.000                                                                  
G28  20524608.309 1 107857536.428 1        71.071          32.000                                                                  
G30  23656934.645 1 124317854.677 1     -3711.130          14.000                                                                  
J 1  37415235.571 1 196618382.46011     -1026.188          25.000                                                                  
J 3  39700991.476 1                      -670.194          37.000                                                                  
R15  20075608.545 1 107277964.726 1      -474.428          28.000  
R17  21012746.578 1 112443450.515 1     -1705.135          20.000  
> 2021  5 21  6 29 55.9987625  0 18                     
C 7  35717296.830 1 185989349.127 1     -1039.307          31.000  
C 8  36492384.148 1 190025452.649 1     -1464.766          30.000  
C10  35917163.365 1 187030116.990 1      -593.689          25.000  
C11  23066693.660 1 120114358.999 1      -704.559          29.000  
C13  36544251.841 1 190295421.136 1     -1101.350          25.000  
C21  23888711.689 1 124394748.530 1      -383.715          29.000  
C23  25467375.903 1 132615229.234 1       643.248          26.000  
E 1  25217915.301 1  98960512.874 1       519.276          28.000  
G 6                                                                  21624973.143 1  84861041.742 1        40.331          31.000  
G14  20184947.951 1 106072610.022 1     -1521.860          40.000                                                                  
G17  21729708.336 1 114190505.769 1      -340.283          30.000                                                                  
G19  22043986.166 1                       430.889          39.000                                                                  
G28  20524443.723 1 107856677.040 1        69.881          32.000                                                                  
G30  23657497.955 1 124320776.023 1     -3708.420          15.000                                                                  
J 1  37415281.140 1 196618619.804 1     -1022.617          26.000                                                                  
J 3  39700972.589 1 208629998.41811      -670.274          36.000                                                                  
R15  20075547.388 1 107277638.035 1      -476.443          30.000  
R17  21012923.756 1 112444398.953 1     -1709.147          16.000  
> 2021  5 21  6 29 56.9987620  0 17                     
C 7  35717339.700 1 185989607.696 1     -1039.598          30.000  
C 8  36492515.757 1 190026136.860 1     -1465.975          29.000  
C10  35917126.491 1 187029930.416 1      -594.952          25.000  
C11  23066681.669 1 120114284.811 1      -708.846          27.000  
C13  36544313.598 1 190295742.605 1     -1103.121          25.000  
C21  23888637.041 1 124394350.260 1      -379.902          28.000  
C23  25467102.192 1 132613809.603 1       635.312          27.000  
E 1  25217633.795 1  98959406.993 1       516.147          28.000  
G 6  21624802.261 1 113639141.09411        45.526          24.000    21624813.353 1  84860413.927 1        38.835          31.000  
G14  20185086.156 1 106073344.008 1     -1522.123          40.000                                                                  
G17  21729623.195 1 114190058.931 1      -343.442          28.000                                                                  
G19  22043756.525 1 115840705.66211       426.177          39.000                                                                  
G28  20524281.536 1 107855819.454 1        69.048          32.000                                                                  
G30  23658058.267 1 124323695.082 1     -3707.683          15.000                                                                  
J 3  39700949.804 1 208629878.832 1      -668.405          34.000                                                                  
R15  20075485.930 1 107277309.509 1      -481.220          32.000  
R17  21013088.941 1 112445283.187 1     -1712.508          21.000  
> 2021  5 21  6 29 57.9987612  0 17                     
C 7  35717300.427 1 185989396.656 1     -1037.442          29.000  
C 8  36492558.028 1 190026354.694 1     -1469.242          24.000  
C10  35917002.676 1 187029277.010 1      -596.169          26.000  
C11  23066578.840 1 120113747.138 1      -713.907          25.000  
C13  36544284.818 1 190295597.819 1     -1104.968          26.000  
C21  23888468.557 1 124393479.964 1      -376.034          24.000  
C23  25466740.343 1 132611927.830 1       631.188          24.000  
E 1  25217263.552 1  98957951.647 1       511.998          28.000  
G 6  21624555.532 1 113637835.978 1        43.567          30.000    21624564.525 1  84859434.936 1        36.161          33.000  
G14  20185137.420 1 106073605.275 1     -1521.581          40.000                                                                  
G17  21729447.217 1 114189143.164 1      -346.718          30.000                                                                  
G19  22043432.449 1 115839021.602 1       423.244          38.000                                                                  
G28  20524027.312 1 107854491.161 1        67.356          34.000                                                                  
G30  23658527.442 1 124326138.722 1     -3703.061          15.000                                                                  
J 1  37415280.240 1 196618608.46911     -1012.952          24.000                                                                  
J 3  39700835.583 1 208629286.072 1      -668.703          34.000                                                                  
R15  20075337.533 1 107276516.564 1      -487.738          32.000  
> 2021  5 21  6 29 58.9987604  0 16                     
C 7  35717259.656 1 185989183.151 1     -1034.335          27.000  
C 8  36492598.500 1 190026576.513 1     -1471.690          21.000  
C10  35916878.562 1 187028625.410 1      -598.329          28.000  
C11  23066476.910 1 120113213.757 1      -716.465          24.000  
C13  36544259.336 1 190295455.205 1     -1107.541          26.000  
C21  23888298.275 1 124392605.932 1      -373.368          24.000  
C23  25466381.491 1 132610051.992 1       622.002          25.000  
E 1  25216893.008 1  98956499.483 1       509.837          30.000  
G 6  21624307.304 1 113636532.924 1        41.843          31.000    21624316.897 1  84858459.110 1        33.387          34.000  
G14  20185187.485 1 106073866.548 1     -1521.821          40.000                                                                  
G17  21729272.438 1 114188231.278 1      -350.081          26.000                                                                  
G19  22043114.669 1 115837341.196 1       417.671          36.000                                                                  
G28  20523774.287 1 107853164.249 1        65.231          34.000                                                                  
J 1  37415232.873 1 196618357.554 1     -1006.422          18.000                                                                  
J 3  39700723.461 1 208628692.375 1      -666.723          35.000                                                                  
R15  20075187.937 1 107275717.299 1      -491.752          33.000  
> 2021  5 21  6 29 59.9987599  0 15                     
C 7  35717309.421 1 185989435.703 1     -1033.057          27.000  
C10  35916845.285 1 187028444.317 1      -600.095          29.000  
C11  23066466.717 1 120113149.764 1      -716.754          21.000  
C13  36544321.693 1 190295783.548 1     -1109.863          24.000  
C21  23888220.329 1 124392198.507 1      -372.966          23.000  
C23  25466114.076 1 132608650.225 1       618.809          22.000  
E 1  25216613.901 1  98955402.915 1       507.390          31.000  
G 6                                                                  21624159.506 1  84857837.826 1        33.708          34.000  
G14  20185324.191 1 106074600.767 1     -1521.772          39.000                                                                  
G19  22042886.227 1 115836134.775 1       419.326          28.000                                                                  
G28  20523611.200 1 107852310.734 1        65.318          35.000                                                                  
G30  23659561.127 1 124331832.29611     -3699.386          15.000                                                                  
J 1  37415272.446 1 196618573.691 1     -1002.428          21.000                                                                  
J 3  39700700.377 1 208628571.157 1      -664.926          34.000                                                                  
R15  20075130.976 1 107275413.111 1      -493.808          32.000  
> 2021  5 21  6 30  0.9987592  0 18                     
C 7  35717300.427 1 185989376.162 1     -1033.249          27.000  
C 8  36492804.157 1 190027647.68411     -1471.243          28.000  
C10  35916750.851 1 187027952.009 1      -600.477          32.000  
C11  23066395.966 1 120112775.358 1      -719.492          23.000  
C13  36544323.791 1 190295799.938 1     -1109.047          24.000  
C21  23888083.324 1 124391478.485 1      -372.917          23.000  
C23  25465785.504 1 132606939.354 1       616.788          20.000  
E 1  25216275.736 1  98954073.548 1       505.620          30.000  
G 3                                                                  22238610.530 1  87269084.23511     -2080.607          32.000  
G 6  21623934.662 1 113634561.15711        38.976          27.000    21623941.257 1  84856980.593 1        32.608          32.000  
G14  20185403.336 1 106075020.049 1     -1521.078          39.000                                                                  
G17  21729048.193 1 114187041.29211      -351.402          24.000                                                                  
G19  22042598.127 1 115834612.993 1       418.529          31.000                                                                  
G28  20523387.255 1 107851143.054 1        63.902          34.000                                                                  
J 1  37415252.360 1 196618473.240 1      -999.329          23.000                                                                  
J 3  39700615.236 1 208628136.401 1      -665.817          31.000                                                                  
R15  20075012.558 1 107274779.876 1      -494.269          27.000  
R17  21013533.833 1 112447663.44711     -1725.783          21.000  
> 2021  5 21  6 30  1.9987587  0 18                     
C 7  35717349.294 1 185989628.191 1     -1032.619          29.000  
C 8  36492936.366 1 190028337.703 1     -1470.481          32.000  
C10  35916717.874 1 187027772.276 1      -600.520          32.000  
C11  23066381.277 1 120112715.020 1      -720.687          21.000  
C13  36544386.148 1 190296126.706 1     -1106.336          30.000  
C21  23888006.577 1 124391070.805 1      -372.340          24.000  
E 1  25215997.228 1  98952980.598 1       503.833          34.000  
G 3                                                                  22238991.267 1  87270578.505 1     -2083.062          27.000  
G 6  21623777.570 1 113633733.455 1        40.028          30.000    21623781.767 1  84856357.069 1        32.102          28.000  
G14  20185546.937 1 106075754.154 1     -1521.851          37.000                                                                  
G17  21728965.450 1 114186606.089 1      -354.037          31.000                                                                  
G19  22042370.285 1 115833408.605 1       414.856          31.000                                                                  
G28  20523229.264 1 107850291.781 1        62.280          33.000                                                                  
G30  23660626.289 1 124337335.61411     -3694.529          17.000                                                                  
J 1  37415293.731 1 196618684.962 1      -998.829          26.000                                                                  
J 3  39700592.452 1 208628015.130 1      -666.023          24.000                                                                  
R15  20074952.600 1 107274460.032 1      -496.148          28.000  
R17  21013704.715 1 112448578.140 1     -1726.274          32.000  
> 2021  5 21  6 30  2.9987581  0 19                     
C 7  35717367.881 1 185989723.626 1     -1031.572          31.000  
C 8  36493039.494 1 190028871.732 1     -1471.994          32.000  
C10  35916652.519 1 187027436.524 1      -601.110          32.000  
C11  23066341.404 1 120112501.868 1      -724.701          28.000  
C13  36544418.825 1 190296294.588 1     -1103.935          29.000  
C21  23887897.153 1 124390505.064 1      -370.291          23.000  
C23  25465219.196 1 132603993.34911       613.070          15.000  
E 1  25215689.042 1  98951772.130 1       501.894          32.000  
G 3  22239336.927 1 116868504.33211     -2785.363          25.000    22239343.223 1  87271956.640 1     -2083.607          21.000  
G 6  21623589.001 1 113632747.536 1        40.633          32.000    21623594.097 1  84855620.247 1        29.718          31.000  
G14  20185656.061 1 106076330.746 1     -1522.111          36.000                                                                  
G17  21728852.428 1 114186016.055 1      -355.782          32.000                                                                  
G19  22042111.564 1 115832049.697 1       411.613          32.000                                                                  
G28  20523034.999 1 107849283.965 1        60.567          34.000                                                                  
G30  23661153.025 1 124340090.200 1     -3704.715          17.000                                                                  
J 1  37415302.125 1 196618738.170 1      -997.408          35.000                                                                  
J 3  39700540.288 1 208627735.937 1      -665.211          26.000                                                                  
R15  20074867.159 1 107274003.072 1      -498.202          33.000  
R17  21013845.617 1 112449332.586 1     -1728.116          31.000  
> 2021  5 21  6 30  3.9987574  0 18                     
C 7  35717355.889 1 185989662.123 1     -1030.989          29.000  
C 8  36493113.843 1 190029251.519 1     -1474.024          30.000  
C10  35916557.185 1 187026945.703 1      -603.581          29.000  
C13  36544421.823 1 190296306.356 1     -1105.956          29.000  
C21  23887756.250 1 124389781.636 1      -368.346          29.000  
C25  23246767.598 1 121052018.45811     -1852.918          27.000  
C34  23034131.403 1 119944605.51211     -1266.775          27.000  
E 1  25215350.276 1  98950447.705 1       501.830          30.000  
G 3                                                                  22239663.102 1  87273214.345 1     -2079.359          23.000  
G 6  21623369.853 1 113631604.157 1        40.036          31.000    21623377.647 1  84854768.030 1        27.711          35.000  
G14  20185735.506 1 106076750.274 1     -1523.320          36.000                                                                  
G17  21728713.325 1 114185269.837 1      -356.731          29.000                                                                  
G19  22041825.262 1 115830535.243 1       412.665          32.000                                                                  
G28  20522820.347 1 107848119.279 1        61.286          29.000                                                                  
G30  23661649.781 1 124342687.689 1     -3697.076          16.000                                                                  
J 3  39700455.746 1 208627298.058 1      -665.290          24.000                                                                  
R15  20074751.439 1 107273384.305 1      -500.661          32.000  
R17  21013956.541 1 112449925.736 1     -1728.821          30.000  
> 2021  5 21  6 30  4.9987566  0 17                     
C 7  35717314.218 1 185989444.024 1     -1030.310          24.000  
C 8  36493156.414 1 190029476.755 1     -1473.890          26.000  
C13  36544393.643 1 190296164.196 1     -1107.501          28.000  
C21  23887585.968 1 124388900.612 1      -367.729          36.000  
C23  25464536.268 1 132600432.09011       608.530          14.000  
C25  23246884.517 1 121052624.701 1     -1857.118          27.000  
C34  23034135.900 1 119944623.960 1     -1267.312          24.000  
E 1  25214982.731 1  98949004.105 1       503.107          30.000  
G 3  22239943.108 1 116871707.35611     -2779.439          22.000    22239951.202 1  87274350.880 1     -2076.506          29.000  
G 6  21623121.924 1 113630306.434 1        36.119          28.000                                                                  
G14  20185781.974 1 106077013.141 1     -1524.360          35.000                                                                  
G19  22041506.283 1 115828861.889 1       413.451          31.000                                                                  
G28  20522566.423 1 107846797.447 1        61.909          25.000                                                                  
G30  23662117.157 1 124345125.438 1     -3698.906          16.000                                                                  
J 3  39700343.024 1 208626702.017 1      -663.654          26.000                                                                  
R15  20074601.842 1 107272585.584 1      -502.310          28.000  
R17  21014040.183 1 112450373.142 1     -1723.959          28.000  
> 2021  5 21  6 30  5.9987558  0 12                     
C 7  35717271.348 1 185989224.888 1     -1029.781          25.000  
C 8  36493199.883 1 190029701.026 1     -1472.144          22.000  
C13  36544367.561 1 190296023.255 1     -1108.772          34.000  
C21  23887415.986 1 124388020.085 1      -369.388          35.000  
C23  25464180.415 1 132598573.674 1       609.540          13.000  
E 1  25214614.885 1  98947559.716 1       503.727          28.000  
G 3  22240212.321 1 116873226.246 1     -2783.080          15.000    22240239.902 1  87275485.194 1     -2075.093          29.000  
G 6  21622872.197 1 113629009.399 1        37.055          27.000                                                                  
G14  20185833.838 1 106077276.872 1     -1524.895          34.000                                                                  
G19  22041184.905 1 115827187.672 1       414.282          24.000                                                                  
G28  20522313.398 1 107845475.073 1        62.060          26.000                                                                  
R17  21014122.626 1 112450814.077 1     -1722.966          21.000  
> 2021  5 21  6 30  6.9987553  0 16                     
C 7  35717319.914 1 185989474.037 1     -1030.212          24.000  
C 8  36493332.691 1 190030390.650 1     -1470.284          22.000  
C13  36544433.815 1 190296351.647 1     -1108.672          34.000  
C21  23887336.241 1 124387610.000 1      -371.300          34.000  
C23  25463913.000 1 132597179.826 1       613.701          13.000  
C34  23034234.831 1 119945122.05411     -1262.037          22.000  
E 1  25214336.078 1  98946467.414 1       504.334          28.000  
G 3  22240584.064 1 116875220.501 1     -2782.216          15.000                                                                  
G 6  21622711.508 1 113628184.477 1        37.052          28.000                                                                  
G14  20185977.139 1 106078013.898 1     -1524.919          34.000                                                                  
G17  21728284.622 1 114183017.90611      -350.412          17.000                                                                  
G19  22040956.463 1 115825985.447 1       414.535          22.000                                                                  
G28  20522150.911 1 107844625.238 1        61.897          27.000                                                                  
G30  23663140.349 1 124350476.17211     -3701.281          16.000                                                                  
R15  20074410.575 1 107271563.40111      -503.415          23.000  
R17  21014293.507 1 112451728.931 1     -1721.265          21.000  
> 2021  5 21  6 30  7.9987548  0 14                     
C 7  35717370.279 1 185989724.490 1     -1030.725          23.000  
C 8  36493464.001 1 190031079.650 1     -1470.304          23.000  
C13  36544503.367 1                     -1107.846          33.000  
C21  23887257.995 1                      -371.194          34.000  
C23  25463646.484 1 132595785.089 1       612.184          12.000  
E 1  25214058.171 1  98945375.576 1       503.210          29.000  
G 6  21622556.216 1 113627359.776 1        36.741          27.000                                                                  
G14  20186120.440 1 106078751.691 1     -1524.265          34.000                                                                  
G17  21728203.378 1 114182578.874 1      -346.316          14.000                                                                  
G19  22040731.919 1 115824782.916 1       414.883          20.000                                                                  
G28  20521988.723 1 107843775.958 1        61.218          27.000                                                                  
G30  23663696.464 1 124353389.517 1     -3700.796          16.000                                                                  
J 3  39700178.438 1 208625852.58711      -660.007          26.000                                                                  
R15  20074353.314 1 107271257.073 1      -504.130          21.000  
> 2021  5 21  6 30  8.9987540  0 14                     
C 7  35717328.908 1 185989507.157 1     -1032.190          25.000  
C 8  36493505.072 1 190031300.755 1     -1469.932          23.000  
C13  36544477.884 1                     -1108.047          34.000  
C21  23887091.311 1 124386342.85711      -372.146          35.000  
C23  25463291.830 1 132593924.752 1       608.435          10.000  
C34  23034333.163 1 119945613.66011     -1259.801          21.000  
E 1  25213690.026 1  98943931.662 1       501.847          28.000  
G 2  24231196.991 1 127335798.72911       817.664          20.000                                                                  
G 6  21622309.487 1 113626062.869 1        36.168          28.000                                                                  
G14  20186163.910 1 106079017.613 1     -1525.953          33.000                                                                  
G19  22040411.740 1 115823107.525 1       415.118          23.000                                                                  
G28  20521737.497 1 107842454.683 1        60.591          26.000                                                                  
J 3  39700062.718 1 208625252.713 1      -660.576          27.000                                                                  
R15  20074203.118 1 107270454.902 1      -504.993          23.000  
> 2021  5 21  6 30  9.9987535  0 15                     
C 7  35717377.474 1 185989758.718 1     -1032.307          23.000  
C 8  36493637.580 1 190031991.793 1     -1472.792          22.000  
C13  36544540.841 1 190297008.99111     -1110.213          34.000  
C21  23887009.168 1 124385934.345 1      -373.802          34.000  
C23  25463026.514 1 132592535.959 1       610.974          11.000  
C25  23247765.607 1 121057109.90811     -1869.920          19.000  
C34  23034425.199 1 119946093.762 1     -1260.883          21.000  
E 1  25213412.718 1  98942842.195 1       500.916          30.000  
G 2  24230891.203 1 127334190.515 1       822.200          21.000                                                                  
G 6  21622153.894 1 113625239.193 1        35.520          29.000                                                                  
G14  20186309.609 1 106079756.938 1     -1528.535          33.000                                                                  
G19  22040182.399 1 115821904.987 1       414.394          22.000                                                                  
G28  20521573.810 1 107841606.971 1        59.337          27.000                                                                  
J 3  39700037.836 1 208625126.012 1      -661.615          28.000                                                                  
R15  20074153.653 1 107270189.762 1      -505.153          22.000  
> 2021  5 21  6 30 10.9987528  0 14                     
C 7  35717365.183 1 185989698.041 1     -1031.991          24.000  
C 8  36493711.329 1 190032372.753 1     -1475.119          23.000  
C13  36544542.340 1 190297026.356 1     -1108.957          33.000  
C21  23886873.961 1 124385214.230 1      -372.794          35.000  
C25  23247915.503 1 121057884.598 1     -1865.699          20.000  
C34  23034456.378 1 119946262.269 1     -1261.020          19.000  
E 1  25213075.151 1  98941518.139 1       500.750          30.000  
G14  20186387.555 1 106080182.007 1     -1528.245          33.000                                                                  
G17  21727792.962 1 114180469.15311      -349.651          16.000                                                                  
G19  22039893.699 1 115820387.734 1       414.328          25.000                                                                  
G28  20521351.964 1 107840445.001 1        58.707          26.000                                                                  
G30  23665217.311 1 124361346.09411     -3704.328          15.000                                                                  
J 3  39699953.594 1 208624685.278 1      -661.380          27.000                                                                  
R15  20074047.826 1 107269625.073 1      -506.175          21.000  
> 2021  5 21  6 30 11.9987520  0 13                     
C 7  35717323.811 1 185989481.960 1     -1033.752          24.000  
C 8  36493755.998 1 190032598.017 1     -1475.064          23.000  
C13  36544515.958 1 190296888.073 1     -1111.629          33.000  
C21  23886705.178 1 124384338.835 1      -374.158          34.000  
C25  23248038.418 1 121058501.898 1     -1866.871          20.000  
E 1  25212708.205 1  98940076.318 1       500.714          30.000  
G 6  21621695.811 1 113622806.82811        33.525          33.000                                                                  
G14  20186439.119 1 106080450.508 1     -1529.194          33.000                                                                  
G19  22039575.319 1 115818713.218 1       413.830          23.000                                                                  
G28  20521103.436 1 107839126.192 1        57.829          26.000                                                                  
J 3  39699839.373 1 208624086.225 1      -661.159          27.000                                                                  
R15  20073904.825 1 107268860.409 1      -507.235          20.000  
R17  21014898.788 1 112454967.86211     -1725.971          18.000  
> 2021  5 21  6 30 12.9987515  0 16                     
C 7  35717374.776 1 185989735.983 1     -1035.070          23.000  
C 8  36493890.305 1 190033292.252 1     -1475.272          21.000  
C13  36544576.516 1 190297218.591 1     -1109.979          33.000  
C21  23886628.431 1 124383932.641 1      -375.190          34.000  
C25  23248247.973 1 121059587.296 1     -1867.181          20.000  
E 1  25212430.597 1  98938987.519 1       500.720          30.000  
G 2  24229825.141 1 127328572.30311       821.639          21.000                                                                  
G 3                                                                  22242658.028 1  87284969.86311     -2079.953          28.000  
G 6  21621542.917 1 113621986.053 1        32.100          32.000    21621548.014 1  84847597.63111        23.295          36.000  
G14  20186578.223 1 106081192.558 1     -1530.978          33.000                                                                  
G19  22039348.077 1 115817512.009 1       412.981          25.000                                                                  
G28  20520944.546 1 107838281.083 1        56.762          25.000                                                                  
J 1                                                                  37415233.773 1 146825412.86311      -748.676          31.000  
J 3  39699812.991 1 208623960.093 1      -661.886          27.000    39699826.782 1 155790655.39211      -496.016          28.000  
R15  20073852.961 1 107268583.873 1      -507.109          18.000  
R17  21015075.666 1 112455914.804 1     -1726.564          18.000  
> 2021  5 21  6 30 13.9987510  0 16                     
C 7  35717426.340 1 185989990.943 1     -1035.873          25.000  
C 8  36494022.214 1 190033987.897 1     -1476.997          21.000  
C13  36544642.171 1 190297549.733 1     -1111.463          33.000  
C21  23886548.686 1 124383527.277 1      -376.733          35.000  
C23  25461812.354 1 132586184.56711       608.263          14.000  
C25  23248455.729 1 121060672.460 1     -1865.518          20.000  
E 1  25212152.690 1  98937899.293 1       499.698          29.000  
G 3                                                                  22243038.165 1  87286462.141 1     -2081.452          28.000  
G 6  21621388.824 1                        32.793          33.000    21621391.522 1  84846985.242 1        23.702          35.000  
G14  20186723.622 1 106081935.706 1     -1532.150          34.000                                                                  
G19  22039122.933 1 115816311.550 1       412.439          24.000                                                                  
G28  20520784.756 1 107837436.916 1        55.991          25.000                                                                  
J 1                                                                  37415273.945 1 146825572.590 1      -747.048          31.000  
J 3                                                                  39699803.098 1 155790563.727 1      -496.947          28.000  
R15  20073809.491 1 107268351.127 1      -511.320          18.000  
R17  21015242.950 1 112456809.508 1     -1728.576          18.000  
> 2021  5 21  6 30 14.9987502  0 14                     
C 7  35717387.067 1 185989778.922 1     -1037.637          26.000  
C 8  36494063.286 1 190034215.331 1     -1476.807          24.000  
C13  36544616.988 1 190297413.256 1     -1114.283          34.000  
C21  23886383.801 1 124382654.668 1      -376.577          34.000  
C23  25461460.698 1 132584328.662 1       605.229          14.000  
C25  23248577.145 1 121061289.206 1     -1866.016          20.000  
E 1  25211785.444 1  98936458.548 1       498.050          30.000  
G 3                                                                  22243328.964 1  87287602.199 1     -2081.589          28.000  
G 6  21621142.095 1 113619873.32111        31.322          32.000    21621145.692 1  84846020.669 1        22.745          36.000  
G14  20186772.788 1 106082207.405 1     -1533.187          33.000                                                                  
G19  22038805.153 1 115814639.077 1       411.851          25.000                                                                  
G28  20520534.430 1 107836121.022 1        55.006          25.000                                                                  
J 1                                                                  37415224.479 1 146825379.789 1      -748.497          32.000  
J 3  39699679.884 1 208623236.79411      -663.319          27.000    39699689.777 1 155790119.059 1      -496.267          28.000  
> 2021  5 21  6 30 15.9987494  0 17                     
C 7  35717346.595 1 185989568.085 1     -1037.862          28.000  
C 8  36494107.055 1 190034442.903 1     -1476.386          25.000  
C10  35915548.683 1 187021692.08211      -604.950          21.000  
C11  23065549.652 1 120108300.46011      -725.106          22.000  
C13  36544589.707 1 190297277.567 1     -1113.256          35.000  
C21  23886213.818 1 124381783.193 1      -377.855          36.000  
C25  23248693.764 1 121061906.259 1     -1866.067          20.000  
E 1  25211418.798 1  98935018.822 1       498.996          30.000  
G 3                                                                  22243620.362 1  87288743.050 1     -2083.055          29.000  
G 6  21620894.166 1 113618582.589 1        30.515          32.000    21620899.563 1  84845056.904 1        22.152          36.000  
G14  20186825.551 1 106082480.449 1     -1534.367          33.000                                                                  
G17  21727143.911 1 114176873.29511      -352.566          26.000                                                                  
G19  22038487.972 1 115812966.926 1       411.392          27.000                                                                  
G28  20520282.604 1 107834806.314 1        53.695          25.000                                                                  
J 1                                                                  37415175.313 1 146825187.590 1      -749.310          32.000  
J 3  39699567.162 1 208622640.298 1      -664.298          27.000    39699576.155 1 155789673.870 1      -496.015          28.000  
R17  21015397.943 1 112457638.65211     -1728.782          19.000  
> 2021  5 21  6 30 16.9987487  0 17                     
C 7  35717334.304 1 185989512.866 1     -1037.732          27.000  
C 8  36494180.205 1 190034825.947 1     -1475.165          26.000  
C10  35915454.548 1 187021204.177 1      -604.567          25.000  
C11  23065481.300 1 120107932.441 1      -724.475          21.000  
C13  36544593.305 1 190297298.614 1     -1113.667          36.000  
C21  23886076.214 1 124381068.819 1      -379.468          36.000  
C25  23248842.161 1 121062680.562 1     -1867.421          25.000  
E 1  25211081.831 1  98933696.635 1       498.836          31.000  
G 3  22244116.219 1 116893619.40711     -2790.446          27.000    22243942.039 1  87290003.659 1     -2084.600          29.000  
G 6  21620675.618 1 113617450.428 1        29.866          32.000    21620684.612 1  84844211.470 1        20.699          38.000  
G14  20186907.994 1 106082912.112 1     -1535.728          32.000                                                                  
G17  21727003.309 1 114176123.756 1      -354.837          26.000                                                                  
G19  22038199.872 1 115811452.932 1       410.426          27.000                                                                  
G28  20520062.556 1 107833650.158 1        53.018          24.000                                                                  
J 1                                                                  37415156.726 1 146825113.441 1      -750.057          33.000  
J 3  39699485.318 1 208622202.214 1      -665.095          27.000    39699492.813 1 155789346.326 1      -495.871          29.000  
R17  21015513.663 1 112458258.232 1     -1728.343          20.000  
> 2021  5 21  6 30 17.9987484  0 15                     
C 7  35717442.229 1 185990082.563 1     -1038.197          27.000  
C 8  36494375.070 1 190035833.890 1     -1476.403          26.000  
C10  35915482.429 1 187021340.501 1      -605.085          25.000  
C13  36544718.318 1 190297944.946 1     -1114.003          35.000  
C21  23886059.725 1 124380980.018 1      -379.456          36.000  
C25  23249114.373 1 121064080.278 1     -1869.515          24.000  
E 1  25210865.081 1  98932846.301 1       496.735          31.000  
G 3  22244551.817 1 116895937.790 1     -2792.114          26.000    22244383.634 1  87291735.046 1     -2084.288          30.000  
G 6  21620581.483 1 113616949.497 1        27.062          32.000    21620589.577 1  84843837.394 1        21.068          38.000  
G14  20187110.654 1 106083975.311 1     -1536.927          33.000                                                                  
G17  21726982.323 1 114176007.305 1      -356.814          25.000                                                                  
G19  22038031.988 1 115810569.999 1       409.890          26.000                                                                  
G28  20519963.325 1 107833125.195 1        51.398          24.000                                                                  
J 1                                                                  37415257.756 1 146825510.464 1      -751.272          33.000  
J 3  39699523.991 1 208622396.099 1      -667.384          25.000    39699529.388 1 155789489.879 1      -498.174          29.000  
> 2021  5 21  6 30 18.9987476  0 18                     
C 7  35717400.858 1 185989872.381 1     -1038.973          28.000  
C 8  36494419.139 1 190036062.293 1     -1477.748          26.000  
C10  35915359.814 1 187020697.551 1      -606.435          24.000  
C11  23065427.037 1 120107666.23211      -724.438          20.000  
C13  36544693.135 1 190297811.620 1     -1117.091          36.000  
C21  23885893.340 1 124380111.863 1      -381.950          37.000  
C25  23249234.890 1 121064702.152 1     -1871.631          23.000  
E 1  25210499.634 1  98931409.042 1       493.377          31.000  
G 3                                                                  22244675.332 1  87292878.870 1     -2086.418          30.000  
G 6  21620337.752 1 113615661.957 1        27.003          33.000    21620344.347 1  84842875.928 1        19.972          38.000  
G14  20187161.319 1 106084252.079 1     -1538.301          33.000                                                                  
G17  21726811.142 1 114175104.856 1      -358.632          24.000                                                                  
G19  22037714.208 1 115808900.157 1       408.982          27.000                                                                  
G28  20519709.701 1 107831813.971 1        49.994          22.000                                                                  
J 1                                                                  37415210.089 1 146825319.756 1      -751.407          33.000  
J 3                                                                  39699416.666 1 155789047.262 1      -498.479          29.000  
R15  20073259.971 1 107265414.33811      -515.713          17.000  
R17  21015837.139 1 112459988.91311     -1728.675          24.000  
> 2021  5 21  6 30 19.9987469  0 16                     
C 7  35717388.866 1 185989818.885 1     -1039.510          28.000  
C 8  36494492.589 1 190036446.965 1     -1477.686          25.000  
C10  35915267.478 1 187020211.049 1      -605.446          25.000  
C11  23065358.984 1 120107297.310 1      -723.430          20.000  
C13  36544697.332 1 190297835.079 1     -1116.491          36.000  
C21  23885757.234 1 124379400.903 1      -382.898          37.000  
C25  23249384.486 1 121065480.064 1     -1869.928          22.000  
E 1  25210162.668 1  98930089.011 1       496.549          31.000  
G 3                                                                  22244997.908 1  87294142.782 1     -2087.247          31.000  
G 6  21620117.404 1 113614533.059 1        26.487          32.000    21620129.696 1  84842032.891 1        18.900          38.000  
G14  20187246.160 1 106084687.649 1     -1538.861          33.000                                                                  
G19  22037424.309 1 115807388.285 1       408.284          28.000                                                                  
G28  20519489.653 1 107830661.649 1        48.732          23.000                                                                  
J 1                                                                  37415190.902 1 146825247.250 1      -750.746          33.000  
J 3  39699331.824 1 208621366.39511      -666.438          25.000    39699333.623 1 155788721.287 1      -498.102          29.000  
R15  20073148.748 1 107264820.203 1      -527.004          14.000  
> 2021  5 21  6 30 20.9987464  0 19                     
C 7  35717438.032 1 185990078.138 1     -1040.447          29.000  
C 8  36494627.495 1 190037143.895 1     -1478.032          26.000  
C10  35915233.601 1 187020036.935 1      -607.421          25.000  
C11  23065349.990 1 120107240.385 1      -723.619          20.000  
C13  36544761.488 1 190298171.668 1     -1118.148          36.000  
C21  23885682.286 1 124379003.372 1      -384.093          37.000  
C25  23249593.741 1 121066569.780 1     -1870.518          19.000  
E 1  25209887.458 1                       493.831          31.000  
E21  23623644.791 1  92704255.22211     -1420.366          27.000  
G 3  22245537.235 1 116901166.35211     -2794.635          26.000    22245379.544 1  87295641.982 1     -2087.397          30.000  
G 6  21619969.307 1 113613720.304 1        23.175          33.000    21619975.003 1  84841425.990 1        17.914          38.000  
G14  20187385.564 1 106085439.716 1     -1539.835          33.000                                                                  
G19  22037197.366 1 115806192.502 1       407.532          28.000                                                                  
G28  20519328.664 1 107829825.665 1        47.390          24.000                                                                  
J 1                                                                  37415232.274 1 146825410.668 1      -752.594          34.000  
J 3  39699308.740 1 208621246.263 1      -668.416          26.000    39699310.239 1 155788631.119 1      -498.304          29.000  
R 2  21802123.504 1 116340307.60211      1342.530          29.000  
R14  20584190.561 1 109725318.00811     -4279.000          27.000  
R17  21016122.841 1 112461518.34011     -1731.652          23.000  
> 2021  5 21  6 30 21.9987456  0 18                     
C 7  35717398.460 1 185989869.415 1     -1039.882          28.000  
C 8  36494672.764 1 190037374.015 1     -1479.861          26.000  
C10  35915110.686 1 187019396.012 1      -608.503          25.000  
C11  23065249.860 1 120106715.083 1      -725.328          20.000  
C13  36544735.406 1 190298040.804 1     -1117.959          36.000  
C21  23885514.402 1 124378138.771 1      -385.080          37.000  
E 1  25209520.812 1  98927577.85611       494.478          32.000  
E21  23623766.807 1  92704734.935 1     -1421.046          27.000  
G 3  22245827.134 1 116902702.446 1     -2798.069          26.000    22245671.842 1  87296789.294 1     -2088.897          30.000  
G 6  21619724.076 1 113612436.158 1        23.185          33.000    21619730.672 1  84840467.061 1        17.710          38.000  
G14  20187439.526 1 106085720.528 1     -1540.932          34.000                                                                  
G19  22036880.785 1 115804525.313 1       406.497          27.000                                                                  
G28  20519082.535 1 107828518.380 1        46.115          23.000                                                                  
J 1                                                                  37415184.307 1 146825221.798 1      -751.461          33.000  
J 3  39699196.018 1 208620654.711 1      -669.179          25.000    39699197.817 1 155788189.486 1      -500.497          29.000  
R 2  21801637.540 1 116337685.356 1      1342.641          30.000  
R14  20584754.171 1 109728322.815 1     -4279.632          27.000  
R17  21016205.883 1 112461962.042 1     -1731.408          25.000  
> 2021  5 21  6 30 22.9987451  0 16                     
C 7  35717449.424 1 185990130.073 1     -1042.200          26.000  
C 8  36494807.371 1 190038073.932 1     -1481.522          23.000  
C13  36544801.360 1 190298379.175 1     -1120.948          35.000  
C21  23885438.555 1 124377743.684 1      -385.839          35.000  
E 1  25209245.902 1  98926496.556 1       494.760          30.000  
E21  23623980.559 1  92705568.484 1     -1421.998          26.000  
G 3  22246207.271 1 116904713.257 1     -2798.797          27.000    22246054.077 1  87298289.793 1     -2089.508          30.000  
G 6  21619575.379 1 113611625.765 1        21.494          33.000    21619576.579 1  84839861.908 1        17.799          36.000  
G14  20187583.727 1 106086475.319 1     -1544.855          33.000                                                                  
G17  21726300.595 1 114172591.38211      -355.624          20.000                                                                  
G19  22036653.842 1 115803331.521 1       405.959          26.000                                                                  
J 1                                                                  37415226.278 1 146825386.386 1      -751.791          31.000  
J 3  39699173.534 1 208620536.402 1      -669.346          27.000    39699175.633 1 155788101.960 1      -501.771          29.000  
R14  20585406.819 1 109731801.440 1     -4280.446          26.000  
R15  20072880.434 1 107263386.08711      -527.148          16.000  
R17  21016380.962 1 112462898.993 1     -1731.436          22.000  
> 2021  5 21  6 30 23.9987443  0 18                     
C 7  35717410.151 1 185989923.046 1     -1041.463          26.000  
C 8  36494855.637 1 190038306.833 1     -1482.687          23.000  
C10  35914954.494 1 187018585.43811      -611.158          22.000  
C13  36544775.578 1 190298250.139 1     -1119.840          34.000  
C21  23885274.868 1 124376881.565 1      -387.230          34.000  
E 1  25208880.755 1  98925063.230 1       491.793          29.000  
E21  23624103.473 1  92706050.532 1     -1423.479          26.000  
G 3                                                                  22246346.974 1  87299438.880 1     -2091.061          29.000  
G 6  21619331.348 1 113610343.971 1        20.661          34.000    21619332.548 1  84838904.719 1        16.178          36.000  
G14  20187636.790 1 106086758.906 1     -1544.651          33.000                                                                  
G17  21726123.418 1 114171687.189 1      -356.410          23.000                                                                  
G19  22036337.261 1 115801665.527 1       405.767          26.000                                                                  
G28  20518678.714 1 107826380.37611        43.785          22.000                                                                  
J 1                                                                  37415178.311 1 146825198.725 1      -753.065          31.000  
J 3  39699060.812 1 208619946.054 1      -670.849          27.000    39699063.510 1 155787662.141 1      -501.763          28.000  
R 2  21800748.056 1 116332921.92711      1340.357          28.000  
R14  20585973.127 1 109734820.671 1     -4282.074          27.000  
R17  21016474.497 1 112463399.379 1     -1731.501          21.000  
> 2021  5 21  6 30 24.9987438  0 19                     
C 7  35717458.418 1 185990184.715 1     -1043.542          26.000  
C 8  36494990.544 1 190039009.471 1     -1483.713          23.000  
C10  35914922.117 1 187018415.648 1      -609.859          21.000  
C11  23065132.941 1 120106088.74211      -731.728          18.000  
C13  36544840.034 1 190298590.297 1     -1120.042          34.000  
C21  23885198.721 1 124376488.929 1      -390.272          35.000  
E 1  25208606.445 1  98923983.606 1       491.514          31.000  
E21  23624316.926 1  92706886.856 1     -1425.031          27.000  
G 3                                                                  22246729.809 1  87300940.319 1     -2092.123          29.000  
G 6  21619179.054 1 113609535.932 1        19.803          34.000    21619179.054 1  84838301.343 1        13.380          36.000  
G14  20187782.189 1 106087516.512 1     -1548.244          33.000                                                                  
G19  22036111.817 1 115800472.081 1       405.340          26.000                                                                  
G28  20518520.724 1 107825549.669 1        42.653          20.000                                                                  
J 1                                                                  37415220.882 1 146825364.609 1      -752.871          32.000  
J 3  39699038.028 1 208619829.450 1      -670.840          27.000    39699041.026 1 155787575.937 1      -502.448          29.000  
R 2  21800350.232 1 116330782.571 1      1337.971          28.000  
R14  20586628.773 1 109738315.298 1     -4283.064          27.000  
R15  20072672.678 1 107262276.43411      -528.852          18.000  
R17  21016646.578 1 112464320.766 1     -1734.383          23.000  
> 2021  5 21  6 30 25.9987430  0 17                     
C 7  35717417.646 1 185989979.742 1     -1044.478          26.000  
C 8  36495036.712 1 190039245.462 1     -1485.495          22.000  
C13  36544819.348 1 190298462.853 1     -1121.818          34.000  
C21  23885031.737 1 124375629.061 1      -389.670          34.000  
E 1  25208240.998 1  98922551.826 1       489.118          30.000  
E21  23624439.541 1  92707370.216 1     -1425.589          27.000  
G 3                                                                  22247023.606 1  87302091.685 1     -2092.568          30.000  
G 6  21618934.423 1 113608256.289 1        19.459          34.000    21618935.023 1  84837345.720 1        13.874          37.000  
G14  20187837.951 1 106087802.703 1     -1547.308          33.000                                                                  
G19  22035796.136 1 115798807.146 1       402.875          25.000                                                                  
G28  20518275.194 1 107824247.301 1        41.748          19.000                                                                  
J 1                                                                  37415172.915 1 146825178.012 1      -755.132          33.000  
J 3  39698923.807 1 208619240.320 1      -671.764          28.000    39698928.604 1 155787136.570 1      -501.658          29.000  
R 2  21799861.270 1 116328164.948 1      1337.375          28.000  
R14  20587190.884 1 109741311.688 1     -4284.226          29.000  
R15  20072528.777 1 107261507.751 1      -531.924          17.000  
R17  21016733.218 1 112464784.153 1     -1733.768          21.000  
> 2021  5 21  6 30 26.9987423  0 14                     
C 7  35717408.952 1 185989932.472 1     -1046.477          26.000  
C 8  36495111.960 1 190039638.327 1     -1486.927          24.000  
C10  35914708.665 1 187017297.99811      -615.260          21.000  
C13  36544823.245 1 190298492.332 1     -1122.382          34.000  
C21  23884895.031 1 124374926.439 1      -390.153          35.000  
C25  23250485.024 1 121071426.31011     -1877.463          21.000  
E 1  25207905.830 1  98921238.391 1       488.889          31.000  
E21  23624592.135 1  92707972.069 1     -1424.914          27.000  
G 3                                                                  22247347.382 1  87303361.283 1     -2094.201          31.000  
G 6  21618722.170 1 113607135.148 1        18.073          34.000    21618721.870 1  84836508.550 1        13.603          36.000  
G19  22035510.134 1 115797301.107 1       403.394          25.000                                                                  
J 1                                                                  37415156.426 1 146825109.607 1      -755.925          33.000  
J 3  39698839.865 1 208618809.388 1      -671.797          27.000    39698846.460 1 155786814.075 1      -500.112          29.000  
R14  20587780.276 1 109744453.957 1     -4285.265          28.000  
> 2021  5 21  6 30 27.9987415  0 17                     
C 7  35717369.979 1 185989730.001 1     -1046.433          25.000  
C 8  36495158.428 1 190039878.192 1     -1489.773          23.000  
C10  35914586.649 1 187016664.101 1      -615.640          22.000  
C13  36544797.763 1 190298366.526 1     -1124.207          33.000  
C21  23884730.445 1 124374068.819 1      -391.563          35.000  
C25  23250602.843 1 121072054.682 1     -1878.718          21.000  
E 1  25207541.882 1  98919808.122 1       488.137          32.000  
E21  23624715.350 1  92708456.742 1     -1427.135          28.000  
G 3  22247789.276 1 116913053.16411     -2805.717          29.000    22247641.179 1  87304514.932 1     -2095.519          31.000  
G 6  21618481.137 1 113605857.660 1        16.698          34.000    21618478.739 1  84835554.509 1        11.987          37.000  
G14  20187974.656 1 106088536.43311     -1549.893          32.000                                                                  
G19  22035194.153 1 115795637.131 1       403.120          24.000                                                                  
G28  20517813.513 1 107821803.03011        38.723          19.000                                                                  
J 1                                                                  37415109.059 1 146824924.114 1      -755.787          34.000  
J 3  39698727.143 1 208618221.305 1      -672.454          25.000    39698734.038 1 155786373.380 1      -500.749          29.000  
R14  20588343.287 1 109747455.139 1     -4284.800          27.000  
R15  20072265.859 1 107260102.14811      -523.338          14.000  
> 2021  5 21  6 30 28.9987412  0 17                     
C 7  35717480.303 1 185990308.898 1     -1047.610          24.000  
C 8  36495354.192 1 190040899.683 1     -1491.277          22.000  
C11  23064916.491 1 120104954.11211      -732.983          16.000  
C12  23487693.708 1 122306584.36211     -1976.615          22.000  
C13  36544924.875 1 190299021.871 1     -1123.794          32.000  
C21  23884713.657 1 124373992.762 1      -393.575          34.000  
C25  23250873.255 1 121073466.622 1     -1880.118          22.000  
E 1  25207327.530 1  98918966.697 1       486.597          32.000  
E21  23624988.761 1  92709531.192 1     -1426.920          27.000  
G 3                                                                  22248084.871 1  87306257.098 1     -2095.238          30.000  
G 6  21618392.398 1 113605368.716 1        14.854          34.000    21618386.103 1  84835189.421 1        11.290          36.000  
G14  20188176.416 1 106089614.018 1     -1549.559          32.000                                                                  
G19  22035026.569 1 115794761.654 1       402.671          27.000                                                                  
G28  20517716.081 1 107821291.891 1        37.908          21.000                                                                  
J 1                                                                  37415211.888 1 146825327.289 1      -755.383          33.000  
J 3  39698766.416 1 208618421.799 1      -672.927          26.000    39698771.812 1 155786521.980 1      -501.604          30.000  
R14  20589061.289 1 109751281.937 1     -4288.804          26.000  
> 2021  5 21  6 30 29.9987405  0 17                     
C 7  35717471.909 1 185990263.399 1     -1047.957          24.000  
C 8  36495431.239 1 190041297.652 1     -1490.415          22.000  
C12  23487871.485 1 122307467.669 1     -1976.660          24.000  
C13  36544931.171 1 190299053.466 1     -1125.375          33.000  
C21  23884581.748 1 124373293.271 1      -392.315          35.000  
C25  23251022.852 1 121074253.618 1     -1879.765          22.000  
E 1  25206992.662 1  98917655.357 1       487.842          31.000  
E21  23625142.554 1  92710135.752 1     -1429.332          27.000  
G 3                                                                  22248408.947 1  87307528.611 1     -2094.788          30.000  
G 6  21618177.747 1 113604250.582 1        14.336          34.000    21618172.950 1  84834354.423 1        11.285          36.000  
G14  20188261.857 1 106090062.649 1     -1553.334          32.000                                                                  
G19  22034741.166 1 115793256.480 1       402.212          28.000                                                                  
G28  20517496.333 1 107820151.933 1        36.338          22.000                                                                  
J 1                                                                  37415194.200 1 146825260.284 1      -759.530          32.000  
J 3  39698684.872 1 208617992.523 1      -674.272          27.000    39698690.269 1 155786199.836 1      -501.567          28.000  
R 2  21798097.591 1 116318822.13911      1333.577          26.000  
R14  20589654.579 1 109754444.951 1     -4289.078          28.000  
> 2021  5 21  6 30 30.9987397  0 17                     
C 7  35717432.636 1 185990061.985 1     -1047.800          25.000  
C10  35914405.275 1 187015699.49711      -614.175          21.000  
C13  36544907.187 1 190298929.446 1     -1126.856          32.000  
C21  23884416.862 1 124372438.425 1      -394.777          36.000  
C25  23251144.568 1 121074886.427 1     -1883.170          22.000  
E 1  25206629.314 1  98916226.955 1       487.287          30.000  
E21  23625266.968 1  92710623.499 1     -1430.546          26.000  
G 3                                                                  22248703.043 1  87308683.653 1     -2098.359          29.000  
G 6                                                                  21617930.718 1  84833402.346 1        11.025          35.000  
G14  20188319.717 1 106090354.652 1     -1552.634          32.000                                                                  
G19  22034424.885 1 115791593.662 1       402.293          27.000                                                                  
G22  24785171.783 1 130246956.02511     -4093.748          25.000                                                                  
G28  20517251.103 1 107818855.254 1        36.459          22.000                                                                  
J 1                                                                  37415147.432 1 146825075.993 1      -756.341          32.000  
J 3  39698574.849 1 208617406.651 1      -674.736          25.000    39698578.146 1 155785760.290 1      -501.233          28.000  
R14  20590218.189 1 109757449.277 1     -4290.399          29.000  
R15  20072019.130 1 107258784.26811      -525.472          13.000  
> 2021  5 21  6 30 31.9987389  0 19                     
C 7  35717393.063 1 185989859.788 1     -1047.902          25.000  
C 8  36495520.277 1 190041777.00211     -1486.976          23.000  
C12  23488167.080 1 122308925.79011     -1979.079          23.000  
C13  36544880.506 1 190298805.950 1     -1125.854          32.000  
C21  23884254.375 1 124371584.513 1      -395.835          36.000  
C25  23251265.084 1 121075521.053 1     -1884.522          24.000  
E 1  25206265.366 1  98914799.084 1       486.600          31.000  
E21  23625391.082 1  92711112.409 1     -1429.694          26.000  
G 3                                                                  22248998.039 1  87309840.749 1     -2097.926          30.000  
G 6  21617684.588 1 113601701.43011        13.097          32.000    21617688.486 1  84832450.876 1         9.649          36.000  
G14  20188379.676 1 106090647.695 1     -1553.647          32.000                                                                  
G17  21725060.953 1 114166077.28411      -365.373          25.000                                                                  
G19  22034109.503 1 115789931.726 1       400.856          27.000                                                                  
G28  20517004.373 1 107817558.267 1        36.386          21.000                                                                  
J 1                                                                  37415100.065 1 146824891.990 1      -758.040          32.000  
J 3  39698462.726 1 208616820.188 1      -672.961          25.000    39698466.623 1 155785321.289 1      -502.702          28.000  
R 2  21797113.972 1 116313596.87611      1331.642          27.000  
R14  20590784.796 1 109760468.820 1     -4291.515          29.000  
R15  20071876.129 1 107258020.078 1      -526.707          11.000  
> 2021  5 21  6 30 32.9987384  0 19                     
C 7  35717446.726 1 185990127.382 1     -1049.026          25.000  
C 8  36495655.184 1 190042484.129 1     -1487.564          22.000  
C10  35914245.785 1 187014899.39411      -618.452          22.000  
C12  23488405.415 1 122310123.982 1     -1978.073          23.000  
C13  36544945.561 1 190299151.240 1     -1125.644          32.000  
C21  23884181.225 1 124371199.730 1      -395.467          36.000  
C25  23251476.138 1 121076625.310 1     -1884.922          24.000  
E 1  25205991.955 1  98913724.702 1       484.613          31.000  
E21  23625605.733 1  92711954.851 1     -1430.578          26.000  
G 3                                                                  22249382.973 1  87311350.136 1     -2097.898          29.000  
G 6  21617536.191 1 113600900.643 1        10.977          30.000    21617535.592 1  84831852.903 1         9.009          36.000  
G14  20188525.075 1 106091414.306 1     -1554.924          32.000                                                                  
G17  21724977.311 1 114165655.470 1      -366.111          23.000                                                                  
G19  22033882.261 1 115788743.396 1       400.031          28.000                                                                  
G28  20516843.984 1 107816734.409 1        35.776          21.000                                                                  
J 1                                                                  37415143.535 1 146825061.282 1      -758.402          33.000  
J 3  39698439.942 1 208616705.037 1      -672.395          26.000    39698445.038 1 155785235.629 1      -502.540          29.000  
R14  20591439.543 1 109763959.862 1     -4292.350          29.000  
R15  20071824.565 1 107257744.736 1      -527.800          10.000  
> 2021  5 21  6 30 33.9987379  0 17                     
C 7  35717499.190 1 185990396.212 1     -1050.535          25.000  
C 8  36495791.589 1 190043191.408 1     -1488.530          22.000  
C10  35914212.508 1 187014738.383 1      -620.305          21.000  
C12  23488632.658 1 122311322.537 1     -1979.735          24.000  
C13  36545016.312 1 190299497.152 1     -1124.855          32.000  
C21  23884106.277 1 124370815.875 1      -397.112          36.000  
C25  23251687.791 1 121077730.046 1     -1886.506          23.000  
E 1  25205718.244 1  98912650.907 1       486.455          31.000  
E21  23625820.385 1  92712797.212 1     -1431.564          25.000  
G 3                                                                  22249767.606 1  87312859.501 1     -2099.175          30.000  
G 6  21617378.800 1 113600100.733 1        12.399          31.000    21617382.997 1  84831255.570 1         9.529          36.000  
G14  20188672.573 1 106092182.029 1     -1557.121          32.000                                                                  
G19  22033656.517 1 115787555.915 1       399.244          27.000                                                                  
G28  20516687.493 1 107815911.133 1        34.492          21.000                                                                  
J 1                                                                  37415187.005 1 146825230.966 1      -758.379          32.000  
J 3  39698418.956 1 208616590.498 1      -674.424          26.000    39698423.154 1 155785149.405 1      -501.622          29.000  
R14  20592097.288 1 109767465.613 1     -4293.079          29.000  
> 2021  5 21  6 30 34.9987372  0 17                     
C 7  35717491.995 1 185990354.680 1     -1051.531          25.000  
C 8  36495865.938 1 190043586.967 1     -1489.217          21.000  
C10  35914124.669 1 187014266.323 1      -620.965          21.000  
C12  23488799.043 1 122312209.276 1     -1978.685          24.000  
C13  36545021.108 1 190299531.339 1     -1128.726          31.000  
C21  23883972.870 1 124370120.587 1      -398.065          36.000  
C25  23251841.885 1 121078523.944 1     -1886.048          23.000  
E 1  25205384.276 1  98911342.383 1       482.980          31.000  
E21  23625975.078 1  92713406.006 1     -1433.824          26.000  
G 3                                                                  22250093.181 1  87314135.656 1     -2100.467          30.000  
G 6  21617163.549 1 113598986.385 1        11.062          32.000    21617171.344 1  84830423.463 1         8.630          36.000  
G14  20188753.817 1 106092635.620 1     -1556.614          33.000                                                                  
G19  22033371.115 1 115786053.906 1       398.913          28.000                                                                  
G28  20516473.141 1 107814774.164 1        33.443          21.000                                                                  
J 1                                                                  37415170.516 1 146825165.656 1      -757.554          32.000  
J 3  39698336.214 1 208616162.256 1      -674.473          27.000    39698341.610 1 155784828.113 1      -502.887          28.000  
R14  20592692.076 1 109770636.451 1     -4293.627          29.000  
> 2021  5 21  6 30 35.9987364  0 13                     
C 7  35717456.320 1 185990158.114 1     -1054.096          23.000  
C13  36544993.527 1 190299409.620 1     -1127.742          30.000  
C21  23883815.479 1 124369269.790 1      -398.764          34.000  
C25  23251965.399 1 121079159.859 1     -1884.014          22.000  
E 1  25205021.227 1  98909916.567 1       483.756          31.000  
E21  23626099.492 1  92713897.512 1     -1432.472          26.000  
G 3  22250538.972 1 116927491.86011     -2813.373          26.000    22250388.477 1  87315294.022 1     -2099.637          30.000  
G 6  21616913.522 1 113597715.064 1        10.782          30.000    21616929.711 1  84829474.083 1         7.309          35.000  
G14  20188813.475 1 106092932.428 1     -1558.716          32.000                                                                  
G17  21724586.981 1 114163603.73411      -364.696          17.000                                                                  
G28  20516229.410 1 107813481.171 1        31.660          21.000                                                                  
J 1                                                                  37415124.348 1 146824982.772 1      -758.873          32.000  
J 3  39698225.890 1 208615576.295 1      -675.010          27.000    39698230.687 1 155784390.203 1      -504.308          28.000  
> 2021  5 21  6 30 36.9987359  0 15                     
C 7  35717509.083 1 185990431.128 1     -1053.927          24.000  
C 8  36496045.214 1 190044532.91211     -1486.633          21.000  
C13  36545059.182 1 190299756.622 1     -1128.670          30.000  
C21  23883741.730 1 124368887.987 1      -398.817          35.000  
E 1  25204747.516 1  98908844.076 1       483.400          30.000  
E21  23626313.843 1  92714741.929 1     -1432.496          28.000  
G 3  22250915.212 1 116929517.729 1     -2813.918          27.000    22250773.710 1  87316805.861 1     -2100.486          29.000  
G 6  21616765.724 1 113596916.997 1         7.346          30.000    21616778.016 1  84828878.129 1         8.085          35.000  
G14  20188959.174 1 106093702.661 1     -1558.530          32.000                                                                  
G17  21724500.341 1 114163183.082 1      -368.498          16.000                                                                  
G19  22032833.287 1 115783208.28611       398.590          26.000                                                                  
G28  20516072.319 1 107812661.891 1        31.147          21.000                                                                  
J 1                                                                  37415167.519 1 146825153.043 1      -757.063          32.000  
J 3  39698205.504 1 208615463.221 1      -674.630          27.000    39698209.701 1 155784307.000 1      -505.029          27.000  
R14  20593909.533 1 109777125.66811     -4294.782          27.000  
> 2021  5 21  6 30 37.9987351  0 18                     
C 7  35717471.909 1 185990236.075 1     -1053.398          25.000  
C10  35913851.558 1 187012842.55011      -616.384          20.000  
C12  23489302.994 1 122314864.44011     -1978.396          24.000  
C13  36545037.297 1 190299635.586 1     -1129.558          30.000  
C21  23883578.343 1 124368038.529 1      -400.172          35.000  
C25  23252299.368 1 121080899.16211     -1886.696          23.000  
E 1  25204385.067 1  98907419.076 1       482.741          30.000  
E21  23626438.557 1  92715232.104 1     -1430.979          26.000  
G 3  22251202.413 1 116931071.545 1     -2814.614          28.000    22251069.305 1  87317964.984 1     -2101.271          30.000  
G 6  21616529.488 1 113595646.827 1        10.179          32.000    21616536.083 1  84827929.662 1         7.229          36.000  
G14  20189016.435 1 106094001.126 1     -1558.845          32.000                                                                  
G17  21724322.864 1 114162290.964 1      -367.931          16.000                                                                  
G19  22032514.907 1 115781549.067 1       398.839          28.000                                                                  
G28  20515826.189 1 107811370.585 1        30.560          25.000                                                                  
J 1                                                                  37415120.151 1 146824970.592 1      -758.333          33.000  
J 3  39698093.682 1 208614877.055 1      -674.433          25.000    39698097.879 1 155783870.654 1      -505.668          29.000  
R 2  21794474.000 1 116299540.47711      1327.625          30.000  
R14  20594476.141 1 109780146.240 1     -4295.506          29.000  
> 2021  5 21  6 30 38.9987346  0 16                     
C 7  35717520.775 1 185990508.086 1     -1051.766          25.000  
C12  23489532.335 1 122316061.685 1     -1979.114          24.000  
C13  36545103.251 1 190299983.118 1     -1126.936          30.000  
C21  23883502.795 1 124367658.012 1      -400.017          36.000  
E 1  25204111.956 1  98906347.422 1       482.612          29.000  
E21  23626653.508 1  92716074.611 1     -1432.049          26.000  
G 3  22251566.961 1 116932773.537 1     -2815.003          28.000    22251455.738 1  87319479.386 1     -2103.630          30.000  
G 6  21616380.191 1 113594849.958 1         8.363          35.000    21616384.688 1  84827334.560 1         6.448          35.000  
G14  20189160.935 1 106094772.955 1     -1560.468          34.000                                                                  
G17  21724242.820 1 114161869.949 1      -365.582          15.000                                                                  
G19  22032286.465 1 115780362.481 1       398.737          29.000                                                                  
G28  20515670.297 1 107810552.468 1        30.190          27.000                                                                  
J 1                                                                  37415163.621 1 146825141.311 1      -757.134          32.000  
J 3  39698072.396 1 208614764.353 1      -675.786          27.000    39698076.294 1 155783787.486 1      -504.674          29.000  
R 2  21794074.376 1 116297413.133 1      1326.970          30.000  
R14  20595132.986 1 109783647.142 1     -4296.517          28.000  
> 2021  5 21  6 30 39.9987338  0 16                     
C 7  35717481.802 1 185990309.762 1     -1050.092          24.000  
C 8  36496266.760 1 190045709.02611     -1484.386          19.000  
C13  36545084.964 1 190299862.603 1     -1127.391          30.000  
C21  23883339.108 1 124366809.827 1      -402.230          36.000  
C25  23252640.832 1 121082647.38811     -1890.937          24.000  
E 1  25203748.308 1  98904923.180 1       481.381          29.000  
E21  23626778.821 1  92716565.218 1     -1432.062          26.000  
G 3  22251842.470 1 116934328.338 1     -2815.500          28.000    22251751.633 1  87320642.175 1     -2102.576          29.000  
G 6  21616143.955 1 113593580.902 1         7.841          36.000    21616143.056 1  84826386.905 1         5.770          35.000  
G14  20189218.495 1 106095072.938 1     -1561.549          34.000                                                                  
G19  22031970.484 1 115778703.471 1       398.553          28.000                                                                  
G28  20515426.866 1 107809262.243 1        29.570          25.000                                                                  
J 1                                                                  37415117.753 1 146824959.116 1      -759.447          32.000  
J 3  39697961.173 1 208614178.547 1      -674.225          26.000    39697963.871 1 155783350.732 1      -503.793          28.000  
R 2  21793585.415 1 116294806.686 1      1326.412          29.000  
R14  20595696.596 1 109786651.697 1     -4297.386          29.000  
> 2021  5 21  6 30 40.9987333  0 17                     
C 7  35717533.666 1 185990579.832 1     -1051.372          23.000  
C12  23489897.183 1 122317989.24211     -1977.363          25.000  
C13  36545149.719 1 190300210.760 1     -1127.791          29.000  
C21  23883269.257 1 124366430.450 1      -399.468          34.000  
C25  23252854.584 1 121083758.048 1     -1891.880          25.000  
E 1  25203474.897 1  98903852.194 1       481.907          28.000  
E21  23626994.072 1  92717410.204 1     -1433.334          25.000  
G 1  24323076.185 1 127818628.02911     -4189.650          22.000                                                                  
G 3                                                                  22252137.466 1  87322155.786 1     -2102.102          28.000  
G 6  21615993.159 1 113592785.006 1         8.395          35.000    21615991.361 1  84825792.551 1         4.892          35.000  
G14  20189365.393 1 106095846.251 1     -1561.294          32.000                                                                  
G22  24791041.719 1 130277852.76311     -4100.416          25.000                                                                  
G28  20515271.873 1 107808445.055 1        29.113          26.000                                                                  
J 1                                                                  37415161.223 1 146825129.975 1      -760.098          32.000  
J 3  39697939.289 1 208614064.489 1      -672.668          27.000    39697942.286 1 155783266.529 1      -504.524          28.000  
R 2  21793186.691 1 116292680.585 1      1326.082          30.000  
R14  20596355.540 1 109790164.388 1     -4297.957          29.000  
> 2021  5 21  6 30 41.9987325  0 18                     
C 7  35717494.093 1 185990383.084 1     -1051.779          24.000  
C 8  36496444.537 1 190046647.64611     -1483.595          19.000  
C13  36545125.136 1 190300090.661 1     -1128.777          29.000  
C21  23883104.371 1 124365583.320 1      -401.861          34.000  
C25  23252979.897 1 121084401.274 1     -1891.925          25.000  
E 1  25203113.048 1  98902428.841 1       482.113          29.000  
E21  23627119.685 1  92717902.359 1     -1433.873          26.000  
G 1  24323641.294 1 127821557.574 1     -4190.295          19.000                                                                  
G 3                                                                  22252433.361 1  87323317.377 1     -2103.418          29.000  
G 6  21615755.124 1 113591516.804 1         7.099          35.000    21615748.229 1  84824845.624 1         6.128          35.000  
G14  20189428.350 1 106096147.554 1     -1560.565          32.000                                                                  
G19  22031422.763 1 115775858.73411       398.236          26.000                                                                  
G22  24791584.343 1 130280693.008 1     -4100.551          24.000                                                                  
G28  20515026.343 1 107807156.102 1        28.246          27.000                                                                  
J 1                                                                  37415115.055 1 146824947.902 1      -758.714          33.000  
J 3  39697826.866 1 208613476.596 1      -672.973          26.000    39697830.464 1 155782829.049 1      -502.920          27.000  
R 2  21792699.228 1 116290074.875 1      1325.680          31.000  
R14  20596920.049 1 109793174.118 1     -4298.327          28.000  
> 2021  5 21  6 30 42.9987318  0 17                     
C 7  35717485.100 1 185990343.197 1     -1053.755          24.000  
C 8  36496520.984 1 190047040.826 1     -1486.748          20.000  
C12  23490200.872 1 122319606.23011     -1980.054          22.000  
C13  36545133.531 1 190300125.748 1     -1127.948          31.000  
C21  23882971.263 1 124364892.805 1      -404.363          34.000  
C25  23253135.189 1 121085199.794 1     -1890.393          29.000  
E 1  25202780.578 1  98901124.957 1       482.343          31.000  
E21  23627275.278 1  92718512.732 1     -1433.467          27.000  
G 3                                                                  22252758.936 1  87324598.120 1     -2105.805          31.000  
G 6  21615536.276 1                        12.735          31.000    21615537.775 1  84824016.325 1         5.685          34.000  
G14  20189515.589 1 106096606.416 1     -1560.256          34.000                                                                  
G17  21723698.397 1 114158915.58811      -364.109          25.000                                                                  
G19  22031135.862 1 115774358.679 1       395.374          28.000                                                                  
G28  20514810.792 1 107806025.517 1        26.753          24.000                                                                  
J 1  37415090.772 1 196617628.87111     -1013.257          38.000    37415097.667 1 146824881.799 1      -755.627          34.000  
J 3  39697743.524 1 208613047.310 1      -675.097          26.000    39697749.220 1 155782507.996 1      -502.802          30.000  
R14  20597513.338 1 109796336.208 1     -4297.080          25.000  
> 2021  5 21  6 30 43.9987313  0 18                     
C 7  35717539.662 1 185990616.102 1     -1052.741          25.000  
C12  23490427.815 1 122320805.968 1     -1980.021          23.000  
C13  36545197.386 1 190300472.296 1     -1126.426          28.000  
C21  23882898.713 1 124364518.016 1      -407.456          30.000  
C25  23253349.241 1 121086308.175 1     -1887.899          26.000  
E 1  25202508.966 1  98900058.598 1       474.852          28.000  
E21  23627489.629 1  92719355.749 1     -1430.466          25.000  
G 1  24324885.732 1 127828049.02411     -4193.102          19.000                                                                  
G 3                                                                  22253146.867 1  87326118.399 1     -2112.285          29.000  
G 6  21615382.182 1 113589604.83411        12.465          29.000    21615385.780 1  84823420.087 1         9.660          33.000  
G14  20189659.490 1 106097380.103 1     -1559.891          33.000                                                                  
G17  21723618.952 1 114158494.384 1      -370.613          23.000                                                                  
G19  22030911.917 1 115773177.746 1       390.797          29.000                                                                  
G22  24792785.612 1 130287012.01511     -4113.905          25.000                                                                  
G28  20514654.900 1 107805211.718 1        24.511          23.000                                                                  
J 1                                                                  37415140.537 1 146825051.229 1      -757.440          28.000  
J 3  39697722.539 1 208612936.546 1      -680.471          29.000    39697728.534 1 155782426.268 1      -509.340          28.000  
R14  20598167.186 1 109799821.561 1     -4288.873          27.000  
> 2021  5 21  6 30 44.9987305  0 16                     
C 7  35717503.987 1 185990418.801 1     -1051.105          25.000  
C12  23490566.319 1 122321535.554 1     -1976.858          23.000  
C13  36545171.304 1 190300348.659 1     -1124.887          27.000  
C21  23882739.523 1 124363679.118 1      -412.426          33.000  
C25  23253476.054 1 121086944.600 1     -1883.132          21.000  
E 1  25202150.414 1  98898639.458 1       479.306          29.000  
E21  23627614.343 1  92719844.778 1     -1430.024          26.000  
G 1  24325446.644 1 127830981.705 1     -4190.912          19.000                                                                  
G 3                                                                  22253446.060 1  87327291.967 1     -2116.817          30.000  
G 6  21615138.451 1 113588331.755 1        13.449          29.000    21615142.648 1  84822468.920 1        13.695          33.000  
G14  20189721.846 1 106097681.518 1     -1562.168          33.000                                                                  
G19  22030596.835 1 115771528.741 1       387.204          29.000                                                                  
G22  24793330.335 1 130289870.263 1     -4124.512          23.000                                                                  
G28  20514405.473 1 107803927.291 1        22.982          22.000                                                                  
J 3  39697614.313 1 208612358.813 1      -685.469          29.000    39697619.710 1 155781996.173 1      -513.912          28.000  
R14  20598729.896 1 109802821.392 1     -4281.912          26.000  
> 2021  5 21  6 30 45.9987300  0 16                     
C 7  35717554.951 1 185990690.089 1     -1052.529          24.000  
C13  36545236.359 1 190300690.728 1     -1121.688          29.000  
C21  23882666.674 1 124363314.518 1      -415.376          33.000  
C25  23253686.508 1 121088045.269 1     -1878.925          22.000  
E 1  25201879.402 1  98897572.475 1       477.997          29.000  
E21  23627829.594 1  92720685.942 1     -1430.145          26.000  
G 1  24326100.791 1 127834387.792 1     -4197.835          19.000                                                                  
G 3  22253841.486 1 116944725.64811     -2837.832          25.000    22253837.289 1  87328823.566 1     -2124.358          25.000  
G 6  21614985.557 1 113587529.681 1        15.662          28.000    21614990.054 1  84821868.021 1        14.912          34.000  
G14  20189865.747 1 106098455.823 1     -1563.240          32.000                                                                  
G17  21723374.621 1 114157191.52811      -378.421          22.000                                                                  
G22  24793968.893 1 130293211.649 1     -4134.227          26.000                                                                  
G28  20514251.379 1 107803117.288 1        22.016          22.000                                                                  
J 3  39697595.427 1 208612259.546 1      -691.597          26.000    39697602.022 1 155781924.452 1      -518.274          28.000  
R 2  21790977.820 1 116280773.68211      1322.734          23.000  
R14  20599385.242 1 109806314.479 1     -4275.699          22.000  
> 2021  5 21  6 30 46.9987292  0 16                     
C 7  35717515.678 1 185990493.996 1     -1052.791          25.000  
C12  23490936.563 1 122323452.88811     -1970.160          20.000  
C13  36545211.177 1 190300561.373 1     -1118.662          31.000  
C25  23253805.825 1 121088673.664 1     -1874.930          25.000  
E 1  25201517.253 1  98896153.999 1       477.849          29.000  
E21  23627953.708 1  92721174.055 1     -1428.193          23.000  
G 1  24326661.403 1 127837324.413 1     -4193.485          18.000                                                                  
G 3                                                                  22254140.079 1  87330009.028 1     -2128.999          28.000  
G 6  21614739.727 1 113586251.768 1        19.745          29.000    21614746.922 1  84820912.079 1        15.775          34.000  
G14  20189922.707 1 106098757.683 1     -1564.075          32.000                                                                  
G17  21723210.934 1 114156311.152 1      -382.625          23.000                                                                  
G22  24794519.911 1 130296089.819 1     -4142.552          29.000                                                                  
G28  20514008.547 1 107801835.294 1        21.412          23.000                                                                  
J 3  39697487.501 1 208611692.747 1      -695.188          25.000    39697494.396 1 155781502.383 1      -519.770          28.000  
R 2  21790499.351 1 116278170.183 1      1320.994          17.000  
R14  20599946.154 1 109809304.701 1     -4271.252          28.000  
> 2021  5 21  6 30 47.9987284  0 16                     
C 7  35717480.303 1 185990297.456 1     -1052.192          25.000  
C13  36545185.994 1 190300429.108 1     -1115.473          30.000  
C25  23253925.143 1 121089299.774 1     -1874.824          27.000  
E 1  25201155.103 1  98894735.715 1       476.102          30.000  
E21  23628076.323 1  92721660.344 1     -1425.277          25.000  
G 1  24327228.310 1 127840254.729 1     -4186.599          18.000                                                                  
G 3  22254441.671 1 116947900.43111     -2853.693          23.000    22254444.369 1  87331198.725 1     -2133.024          30.000  
G 6  21614498.094 1 113584972.378 1        18.298          29.000    21614503.491 1  84819954.291 1        17.867          35.000  
G14  20189980.268 1 106099060.153 1     -1562.772          31.000                                                                  
G17  21723044.549 1 114155434.387 1      -385.842          24.000                                                                  
G19  22029757.416 1 115767053.31711       387.539          35.000                                                                  
G22  24795068.831 1 130298975.886 1     -4148.991          25.000                                                                  
G28  20513765.416 1 107800554.278 1        20.199          23.000                                                                  
J 3  39697381.075 1 208611130.827 1      -700.812          24.000    39697386.771 1 155781081.506 1      -521.084          28.000  
R 2  21790038.870 1 116275570.487 1      1318.203          17.000  
R14  20600508.864 1 109812304.122 1     -4268.831          30.000  
> 2021  5 21  6 30 48.9987277  0 14                     
C 7  35717472.209 1 185990257.407 1     -1053.702          26.000  
C13  36545191.990 1 190300453.138 1     -1118.574          29.000  
E 1  25200823.533 1  98893435.735 1       476.610          33.000  
E21  23628229.217 1  92722262.330 1     -1425.522          26.000  
G 3  22254773.541 1 116949653.178 1     -2856.816          20.000    22254778.338 1  87332508.875 1     -2134.434          32.000  
G 6                                                                  21614289.139 1  84819112.736 1        19.524          36.000  
G14  20190063.310 1 106099521.166 1     -1563.690          30.000                                                                  
G17  21722907.544 1 114154719.560 1      -389.647          27.000                                                                  
G19  22029473.513 1 115765563.621 1       387.347          36.000                                                                  
G22  24795647.131 1 130302023.507 1     -4151.629          27.000                                                                  
G28  20513554.961 1 107799431.459 1        20.146          23.000                                                                  
J 3  39697306.726 1 208610729.320 1      -701.258          23.000    39697309.724 1 155780780.344 1      -522.440          27.000  
R 2  21789638.947 1 116273688.242 1      1319.199          19.000  
R14  20601104.552 1 109815479.290 1     -4269.576          22.000  
> 2021  5 21  6 30 49.9987274  0 13                     
C 7  35717585.230 1 185990843.173 1     -1054.078          27.000  
C13  36545317.603 1 190301102.787 1     -1117.041          28.000  
C25  23254359.542 1 121091500.83011     -1887.748          26.000  
E 1  25200611.280 1  98892605.009 1       478.850          32.000  
E21  23628503.827 1  92723335.534 1     -1426.573          23.000  
G 3  22255226.827 1 116952038.472 1     -2858.654          25.000    22255231.024 1  87334289.875 1     -2133.455          34.000  
G 6                                                                  21614195.004 1  84818740.634 1        20.153          37.000  
G14  20190272.565 1 106100613.341 1     -1566.495          32.000                                                                  
G17  21722891.055 1 114154636.138 1      -388.745          27.000                                                                  
G19  22029309.227 1 115764703.560 1       386.569          33.000                                                                  
G22  24796347.746 1 130305703.019 1     -4151.684          32.000                                                                  
G28  20513459.927 1 107798938.275 1        20.637          27.000                                                                  
J 3  39697348.697 1 208610957.018 1      -700.248          21.000    39697353.794 1 155780949.070 1      -521.476          27.000  
> 2021  5 21  6 30 50.9987267  0  9                     
C 7  35717577.735 1 185990805.773 1     -1056.603          29.000  
C13  36545321.500 1 190301125.759 1     -1115.826          26.000  
C25  23254515.734 1 121092296.736 1     -1890.437          27.000  
G 3  22255560.196 1 116953795.274 1     -2860.887          25.000    22255564.393 1                     -2131.921          33.000  
G 6                                                                  21613980.353 1  84817896.795 1        21.555          38.000  
G14  20190362.803 1 106101076.384 1     -1566.522          33.000                                                                  
G17  21722756.449 1 114153921.477 1      -387.659          29.000                                                                  
G28  20513245.875 1 107797814.407 1        21.223          30.000                                                                  
J 3  39697273.150 1 208610552.945 1      -697.187          24.000    39697276.747 1 155780647.143 1      -521.603          27.000  
> 2021  5 21  6 30 51.9987259  0 12                     
C 7  35717542.060 1 185990613.891 1     -1058.102          30.000  
C 8  36497346.613 1 190051254.77211     -1489.711          29.000  
C10  35912767.808 1 187007184.37311      -623.130          26.000  
C13  36545296.018 1 190300991.724 1     -1113.148          24.000  
C34  23036436.807 1 119956570.39011     -1302.719          24.000  
G 3  22255864.785 1 116955396.735 1     -2863.295          24.000    22255867.484 1  87336807.79311     -2135.721          28.000  
G 6                                                                  21613735.422 1  84816935.252 1        23.176          33.000  
G14  20190421.562 1 106101383.058 1     -1568.061          35.000                                                                  
G17  21722589.764 1 114153048.247 1      -385.512          30.000                                                                  
G28  20513001.245 1 107796532.704 1        21.480          32.000                                                                  
J 3  39697166.424 1 208609989.723 1      -697.069          25.000    39697169.721 1 155780227.293 1      -521.736          26.000  
R14  20603009.134 1 109825631.99111     -4290.592          18.000  
> 2021  5 21  6 30 52.9987251  0 12                     
C 7  35717505.186 1 185990423.263 1     -1059.115          28.000  
C 8  36497393.980 1 190051495.250 1     -1487.756          28.000  
C10  35912648.791 1 187006558.619 1      -622.903          28.000  
C13  36545268.737 1 190300855.671 1     -1111.624          18.000  
C34  23036448.199 1 119956622.862 1     -1299.159          27.000  
G 3  22256164.878 1 116956998.299 1     -2860.669          21.000    22256172.073 1  87338002.126 1     -2134.677          22.000  
G 6  21613533.362 1 113579756.26011        -8.020          23.000    21613489.892 1  84815973.381 1        20.503          27.000  
G14  20190480.321 1 106101690.718 1     -1568.534          35.000                                                                  
G19  22028407.151 1 115759909.17011       392.451          30.000                                                                  
G22  24798020.887 1 130314524.87411     -4142.581          23.000                                                                  
G28  20512756.614 1 107795250.580 1        22.051          34.000                                                                  
J 3  39697056.999 1 208609426.050 1      -696.526          23.000    39697061.196 1 155779808.314 1      -520.898          23.000  
> 2021  5 21  6 30 53.9987246  0 11                     
C 7  35717558.249 1 185990701.187 1     -1058.605          28.000  
C 8  36497530.086 1 190052202.326 1     -1487.510          27.000  
C10  35912618.212 1 187006401.382 1      -622.787          27.000  
C13  36545331.993 1 190301186.665 1     -1111.895          23.000  
G 3  22256558.805 1 116959071.210 1     -2862.554          24.000    22256567.799 1  87339550.340 1     -2135.707          21.000  
G 6                                                                  21613335.799 1  84815365.181 1        19.806          21.000  
G14  20190628.719 1 106102471.690 1     -1568.689          36.000                                                                  
G19  22028182.007 1 115758725.726 1       398.054          31.000                                                                  
G22  24798658.546 1 130317879.354 1     -4141.838          23.000                                                                  
G28  20512603.120 1 107794441.161 1        19.939          35.000                                                                  
J 3                                                                  39697044.408 1 155779741.682 1      -520.555          18.000  
> 2021  5 21  6 30 54.9987241  0 11                     
C 7  35717611.012 1 185990980.313 1     -1060.549          28.000  
C 8  36497667.391 1 190052909.329 1     -1487.753          28.000  
C10  35912588.832 1 187006242.249 1      -621.352          28.000  
C13  36545394.950 1 190301516.778 1     -1110.135          24.000  
C34  23036654.456 1 119957650.53411     -1291.877          28.000  
G 3  22256953.032 1 116961146.405 1     -2862.828          22.000    22256964.124 1  87341099.450 1     -2138.265          19.000  
G 6                                                                  21613180.806 1  84814757.373 1        17.991          16.000  
G14  20190780.114 1 106103253.679 1     -1569.170          36.000                                                                  
G22  24799296.504 1 130321234.484 1     -4144.693          21.000                                                                  
G28  20512446.329 1                        21.747          35.000                                                                  
J 3                                                                  39697024.922 1 155779674.651 1      -522.763          17.000  
> 2021  5 21  6 30 55.9987233  0  9                     
C 7  35717575.637 1 185990791.829 1     -1060.263          27.000  
C 8  36497713.858 1 190053148.149 1     -1488.825          27.000  
C10  35912469.515 1 187005615.356 1      -622.426          27.000  
C13  36545369.767 1 190301377.063 1     -1109.488          22.000  
G 3  22257256.422 1 116962748.938 1     -2863.131          26.000    22257269.313 1  87342295.806 1     -2137.137          20.000  
G 6  21613002.730 1 113576936.69811        -1.953          16.000    21612935.876 1  84813795.604 1        23.511          17.000  
G14  20190837.674 1 106103563.655 1     -1570.170          35.000                                                                  
G28  20512204.996 1 107792351.60511        21.519          35.000                                                                  
J 3  39696916.397 1 208608678.73211      -696.945          24.000                                                                  
> 2021  5 21  6 30 56.9987226  0 15                     
C 7  35717569.341 1 185990759.325 1     -1060.422          29.000  
C 8  36497789.106 1 190053544.899 1     -1490.440          26.000  
C10  35912378.378 1 187005144.937 1      -621.658          27.000  
C12  23492767.396 1 122333004.20511     -1948.240          20.000  
C13  36545370.067 1 190301393.764 1     -1109.300          23.000  
G 2  24214331.267 1 127247266.28411       834.972          30.000                                                                  
G 3  22257591.290 1 116964509.818 1     -2864.336          27.000    22257603.282 1  87343610.904 1     -2138.912          25.000  
G 6                                                                  21612719.126 1  84812948.847 1        22.416          19.000  
G14  20190924.614 1 106104032.633 1     -1573.598          36.000                                                                  
G19  22027384.559 1 115754686.65711       399.352          29.000                                                                  
G22  24800420.726 1 130327161.90911     -4145.638          19.000                                                                  
G28  20511990.644 1 107791228.378 1        20.695          35.000                                                                  
G30  23688422.746 1 124483501.60011     -3678.270          18.000                                                                  
J 3  39696837.251 1 208608273.907 1      -698.213          25.000                                                                  
R 2  21786360.417 1 116256192.73411      1342.290          18.000  
> 2021  5 21  6 30 57.9987220  0 13                     
C 7  35717593.624 1 185990883.239 1     -1060.560          29.000  
C 8  36497894.034 1 190054098.048 1     -1489.398          27.000  
C10  35912314.522 1 187004829.743 1      -620.431          26.000  
C13  36545403.044 1 190301566.733 1     -1110.136          24.000  
C34  23036786.065 1 119958589.51211     -1285.483          28.000  
G 2  24213992.202 1 127245488.080 1       831.393          27.000                                                                  
G 3  22257954.938 1 116966427.645 1     -2862.457          25.000    22257967.530 1  87345043.930 1     -2135.759          21.000  
G 6  21612596.211 1 113574876.47111        17.260          24.000    21612532.355 1  84812221.283 1        20.524          30.000  
G14  20191046.030 1 106104659.740 1     -1571.834          36.000                                                                  
G28  20511802.674 1 107790262.647 1        21.228          34.000                                                                  
G30  23688957.576 1 124486233.721 1     -3677.375          18.000                                                                  
J 3  39696791.083 1 208608024.683 1      -694.584          26.000                                                                  
R14  20606687.287 1 109845238.80411     -4280.487          14.000  
> 2021  5 21  6 30 58.9987213  0 11                     
C 7  35717587.329 1 185990851.076 1     -1060.768          30.000  
C 8  36497969.282 1 190054494.747 1     -1489.555          26.000  
C10  35912222.486 1 187004357.539 1      -620.249          25.000  
C13  36545405.742 1 190301584.628 1     -1112.446          24.000  
C34  23036825.038 1 119958781.464 1     -1283.962          25.000  
G 3  22258288.308 1 116968184.950 1     -2857.450          20.000    22258300.899 1  87346354.992 1     -2134.069          24.000  
G 6                                                                  21612317.104 1  84811378.026 1        18.403          34.000  
G14  20191134.768 1 106105129.963 1     -1572.964          36.000                                                                  
G22  24801613.300 1 130333402.16911     -4142.513          25.000                                                                  
G28  20511591.621 1 107789139.478 1        20.357          33.000                                                                  
J 3  39696713.437 1 208607615.178 1      -690.329          25.000                                                                  
> 2021  5 21  6 30 59.9987208  0 11                     
C 7  35717640.692 1 185991130.288 1     -1059.074          30.000  
C 8  36498104.488 1 190055203.062 1     -1489.463          24.000  
C10  35912191.907 1 187004195.645 1      -618.438          24.000  
C13  36545469.298 1 190301917.745 1     -1115.405          27.000  
C34  23036925.169 1 119959283.583 1     -1279.923          27.000  
G 3  22258679.237 1 116970252.099 1     -2847.392          19.000    22258695.426 1  87347899.736 1     -2131.462          21.000  
G 6                                                                  21612162.711 1  84810772.478 1        16.125          36.000  
G14  20191285.864 1 106105915.931 1     -1574.725          36.000                                                                  
G28  20511436.628 1 107788331.853 1        18.213          33.000                                                                  
J 3  39696697.848 1 208607515.902 1      -685.434          23.000                                                                  
R14  20607926.030 1 109851841.82111     -4280.863          17.000  
> 2021  5 21  6 31  0.9987200  0 12                     
C 7  35717604.417 1 185990939.427 1     -1058.088          32.000  
C 8  36498150.056 1 190055443.528 1     -1489.632          28.000  
C10  35912070.191 1 187003565.979 1      -619.622          26.000  
C13  36545444.415 1 190301786.668 1     -1118.877          26.000  
C34  23036928.766 1 119959314.092 1     -1278.256          24.000  
G 2  24212920.444 1 127239862.55611       817.298          23.000                                                                  
G 3                                                                  22258997.317 1  87349086.731 1     -2124.215          22.000  
G 6                                                                  21611921.678 1  84809818.977 1        10.298          32.000  
G14  20191345.223 1 106106229.709 1     -1573.822          38.000                                                                  
G17  21721494.622 1 114147131.05211      -371.493          29.000                                                                  
G28  20511197.094 1 107787051.928 1        18.416          34.000                                                                  
J 3  39696588.424 1 208606938.704 1      -681.908          25.000                                                                  
> 2021  5 21  6 31  1.9987195  0 11                     
C 7  35717656.881 1 185991217.089 1     -1058.092          31.000  
C 8  36498287.062 1 190056153.818 1     -1492.143          27.000  
C10  35912039.612 1 187003405.811 1      -620.919          27.000  
C13  36545511.269 1 190302126.956 1     -1123.026          25.000  
G 2  24212617.354 1 127238263.190 1       807.785          23.000                                                                  
G 3                                                                  22259388.246 1  87350619.428 1     -2118.566          16.000  
G 6                                                                  21611769.983 1                         7.222          32.000  
G14  20191496.318 1 106107016.729 1     -1577.094          37.000                                                                  
G17  21721411.879 1 114146713.518 1      -368.707          30.000                                                                  
J 2  35948910.787 1 188912800.91911      -842.739          35.000                                                                  
J 3  39696568.937 1 208606831.512 1      -679.806          25.000                                                                  
> 2021  5 21  6 31  2.9987187  0 15                     
C 7  35717620.906 1 185991026.736 1     -1058.251          27.000  
C 8  36498334.129 1 190056397.771 1     -1494.260          26.000  
C10  35911919.995 1 187002778.263 1      -621.267          27.000  
C13  36545488.185 1 190302003.465 1     -1126.183          25.000  
C34  23037024.999 1 119959842.46311     -1278.484          23.000  
G 2  24212225.525 1 127236201.819 1       795.055          22.000                                                                  
G 3                                                                  22259689.538 1  87351796.617 1     -2118.318          19.000  
G 6  21611516.059 1 113569283.11911         9.725          34.000    21611527.451 1  84808280.67611         4.302          31.000  
G14  20191552.979 1 106107331.675 1     -1576.259          35.000                                                                  
G17  21721237.700 1 114145820.480 1      -366.284          30.000                                                                  
G19  22025776.472 1 115746227.61611       384.152          20.000                                                                  
G22  24803975.065 1 130345810.01111     -4111.810          19.000                                                                  
G28  20510800.468 1 107784966.42311        19.093          35.000                                                                  
J 3  39696459.813 1 208606249.067 1      -675.911          27.000                                                                  
R14  20609704.399 1 109861321.30911     -4285.534          25.000  
> 2021  5 21  6 31  3.9987180  0 11                     
C 7  35717614.910 1 185990992.239 1     -1057.396          19.000  
C 8  36498409.977 1 190056798.563 1     -1493.536          27.000  
C10  35911830.057 1 187002307.216 1      -622.179          28.000  
C13  36545494.481 1 190302039.837 1     -1132.004          24.000  
C25  23256552.824 1 121103096.14011     -1898.676          24.000  
G 3  22260013.313 1 116977177.76811     -2821.750          26.000    22260019.609 1  87353091.220 1     -2117.018          21.000  
G 6                                                                  21611316.997 1  84807455.075 1        -0.139          29.000  
G14  20191642.017 1                     -1573.119          31.000                                                                  
G17  21721091.701 1 114145083.022 1      -364.313          29.000                                                                  
G28  20510585.817 1 107783845.652 1        17.939          35.000                                                                  
J 3  39696377.370 1 208605820.098 1      -672.837          26.000                                                                  
> 2021  5 21  6 31  4.9987172  0 12                     
C 7  35717577.735 1 185990799.209 1     -1052.765          17.000  
C 8  36498456.145 1 190057042.130 1     -1491.983          27.000  
C10  35911709.841 1 187001680.395 1      -621.759          25.000  
C13  36545473.195 1 190301924.067 1     -1135.278          22.000  
C34  23037057.677 1 119960055.62011     -1275.715          22.000  
G 3                                                                  22260318.802 1  87354266.384 1     -2115.693          24.000  
G 6                                                                  21611077.163 1  84806513.463 1         1.231          31.000  
G14  20191703.475 1 106108120.22811     -1577.964          26.000                                                                  
G17  21720918.421 1 114144187.492 1      -365.060          31.000                                                                  
G28  20510343.585 1 107782567.859 1        17.035          37.000                                                                  
J 3  39696263.449 1 208605231.434 1      -671.126          28.000                                                                  
R14  20610854.103 1 109867449.96711     -4287.224          22.000  
> 2021  5 21  6 31  5.9987169  0 13                     
C10  35911740.719 1 187001833.379 1      -622.228          26.000  
C13  36545599.708 1 190302591.462 1     -1136.685          19.000  
C25  23256955.745 1 121105183.56411     -1905.137          22.000  
C34  23037212.969 1 119960863.086 1     -1276.265          23.000  
G 2  24211241.007 1 127231001.26511       784.645          19.000                                                                  
G 3                                                                  22260767.891 1  87356028.386 1     -2114.486          23.000  
G 6  21610982.428 1                        -1.608          37.000    21610989.024 1  84806161.179 1        -1.264          31.000  
G14  20191920.524 1 106109225.015 1     -1576.782          23.000                                                                  
G17  21720895.337 1 114144079.711 1      -364.615          31.000                                                                  
G28  20510248.850 1 107782078.109 1        15.838          39.000                                                                  
J 3  39696301.522 1 208605430.027 1      -670.127          26.000                                                                  
R 2  21782222.381 1 116234112.26811      1305.982          18.000  
R14  20611567.908 1 109871254.638 1     -4287.973          16.000  
> 2021  5 21  6 31  6.9987162  0 14                     
C 8  36498729.555 1 190058466.92511     -1493.261          23.000  
C10  35911648.983 1 187001363.875 1      -623.639          19.000  
C13  36545608.102 1 190302633.995 1     -1133.584          23.000  
C25  23257114.934 1 121105996.571 1     -1906.033          23.000  
C34  23037245.946 1 119961046.660 1     -1275.675          22.000  
G 3                                                                  22261096.164 1  87357319.040 1     -2114.117          26.000  
G 6  21610773.173 1 113565377.02011        -0.447          36.000    21610777.670 1  84805338.655 1         0.695          30.000  
G14  20192009.563 1 106109699.140 1     -1577.003          24.000                                                                  
G17  21720752.336 1 114143342.064 1      -365.702          31.000                                                                  
G19  22024723.002 1 115740698.54611       401.691          26.000                                                                  
G28  20510038.396 1 107780958.614 1        16.460          37.000                                                                  
J 2  35948760.591 1 188911821.82711      -844.676          31.000                                                                  
J 3  39696218.780 1 208604997.547 1      -670.531          26.000                                                                  
R14  20612162.397 1 109874424.105 1     -4288.631          19.000  
> 2021  5 21  6 31  7.9987154  0 12                     
C 8  36498775.723 1 190058713.004 1     -1495.531          24.000  
C10  35911529.965 1 187000737.700 1      -622.763          23.000  
C13  36545585.618 1 190302517.737 1     -1132.109          23.000  
C25  23257241.747 1 121106652.106 1     -1905.048          23.000  
C34  23037249.844 1 119961074.009 1     -1275.780          27.000  
G 3  22261419.640 1 116984389.44011     -2831.113          29.000                                                                  
G 6  21610528.243 1                        -2.249          34.000                                                                  
G14  20192069.821 1 106110015.904 1     -1577.532          25.000                                                                  
G17  21720580.255 1 114142447.219 1      -365.087          31.000                                                                  
G19  22024404.322 1 115739037.083 1       400.131          21.000                                                                  
G22  24806924.124 1 130361127.22911     -4104.952          26.000                                                                  
J 3  39696106.357 1 208604408.116 1      -671.748          26.000                                                                  
> 2021  5 21  6 31  8.9987146  0 12                     
C 7  35717605.316 1 185990949.51911     -1050.997          17.000  
C 8  36498824.290 1 190058959.360 1     -1494.036          20.000  
C10  35911408.249 1 187000110.556 1      -621.800          25.000  
C34  23037252.842 1 119961100.924 1     -1275.573          23.000  
G 3  22261722.130 1 116985960.671 1     -2832.633          24.000                                                                  
G 6  21610289.608 1 113562858.87111        -4.133          33.000                                                                  
G14  20192131.578 1 106110332.986 1     -1577.576          28.000                                                                  
G17  21720410.573 1 114141551.974 1      -365.556          31.000                                                                  
G19  22024088.940 1 115737376.959 1       399.243          21.000                                                                  
G28  20509544.937 1 107778405.59811        15.834          31.000                                                                  
J 3  39695994.835 1 208603819.442 1      -671.516          26.000                                                                  
R14  20613280.323 1 109880383.21911     -4290.875          19.000  
> 2021  5 21  6 31  9.9987139  0 12                     
C 7  35717595.723 1 185990909.614 1     -1053.835          19.000  
C 8  36498901.037 1 190059359.953 1     -1492.898          19.000  
C10  35911316.513 1 186999639.091 1      -621.010          24.000  
C13  36545572.427 1 190302441.05711     -1133.245          18.000  
C34  23037285.819 1 119961283.207 1     -1275.018          24.000  
G 3  22262054.001 1 116987690.753 1     -2833.211          26.000                                                                  
G 6  21610083.051 1 113561759.097 1        -4.740          34.000                                                                  
G14  20192222.415 1 106110808.206 1     -1578.454          28.000                                                                  
G28  20509336.882 1 107777287.376 1        15.226          32.000                                                                  
J 2  35948561.529 1 188910732.13711      -843.794          31.000                                                                  
J 3  39695913.291 1 208603387.679 1      -670.669          31.000                                                                  
R14  20613874.212 1 109883548.474 1     -4295.294          19.000  
> 2021  5 21  6 31 10.9987136  0  8                     
C 8  36499098.300 1 190060385.124 1     -1493.219          20.000  
C10  35911345.893 1 186999791.348 1      -621.686          26.000  
C34  23037436.914 1 119962089.712 1     -1274.818          24.000  
G 3  22262506.088 1 116990051.520 1     -2833.376          27.000                                                                  
G 6  21609992.513 1 113561289.722 1        -4.608          35.000                                                                  
G14  20192433.469 1 106111914.571 1     -1579.395          27.000                                                                  
J 2  35948631.980 1 188911103.235 1      -844.157          32.000                                                                  
J 3  39695953.163 1 208603585.852 1      -670.683          31.000                                                                  
> 2021  5 21  6 31 11.9987128  0  9                     
C 7  35717670.971 1 185991300.94011     -1053.975          24.000  
C10  35911228.374 1 186999164.408 1      -622.847          26.000  
C34  23037442.011 1 119962116.155 1     -1275.374          25.000  
G 6  21609755.078 1 113560032.928 1        -3.285          34.000                                                                  
G14  20192493.128 1 106112233.900 1     -1579.995          27.000                                                                  
G17  21720093.392 1                      -365.556          34.000                                                                  
G19  22023326.568 1 115733344.48411       398.414          25.000                                                                  
G28  20508994.818 1 107775524.55911        13.721          32.000                                                                  
J 3  39695841.041 1 208602995.785 1      -670.009          31.000                                                                  
> 2021  5 21  6 31 12.9987121  0  9                     
C 7  35717662.877 1 185991263.148 1     -1055.259          24.000  
C10  35911139.336 1 186998694.524 1      -622.949          27.000  
C34  23037476.487 1 119962299.017 1     -1276.012          26.000  
G 6  21609545.823 1 113558933.458 1        -0.429          34.000    21609553.617 1  84800527.39411        -2.437          34.000  
G14  20192581.567 1 106112711.281 1     -1580.349          25.000                                                                  
G17  21719954.888 1 114139123.03711      -364.775          34.000                                                                  
G19  22023040.266 1 115731842.842 1       398.969          24.000                                                                  
G28  20508782.265 1 107774407.303 1        14.910          31.000                                                                  
J 3  39695757.699 1 208602562.635 1      -669.024          30.000                                                                  
> 2021  5 21  6 31 13.9987113  0 11                     
C 7  35717628.101 1 185991069.990 1     -1056.169          25.000  
C 8  36499273.379 1 190061278.18911     -1494.831          20.000  
C10  35911018.519 1 186998067.654 1      -621.527          26.000  
C13  36545660.865 1 190302908.67711     -1130.029          21.000  
C34  23037479.485 1 119962326.058 1     -1274.821          25.000  
G 6  21609308.987 1 113557675.676 1        -1.283          32.000    21609314.983 1  84799588.091 1        -3.129          34.000  
G14  20192641.525 1 106113031.398 1     -1580.727          28.000                                                                  
G19  22022720.388 1 115730183.684 1       398.917          21.000                                                                  
G28  20508546.629 1 107773132.850 1        14.588          35.000                                                                  
J 1  37414985.544 1 196617075.64811     -1018.149          35.000                                                                  
J 3  39695640.780 1 208601972.324 1      -671.455          28.000                                                                  
> 2021  5 21  6 31 14.9987108  0 15                     
C 7  35717682.063 1 185991346.166 1     -1056.690          25.000  
C 8  36499409.485 1 190061991.367 1     -1493.427          29.000  
C10  35910988.540 1 186997908.831 1      -622.950          28.000  
C13  36545728.619 1 190303259.445 1     -1132.834          21.000  
C21  23879392.341 1 124346262.28711      -416.211          25.000  
G 3  22263816.481 1 116996975.62111     -2832.488          25.000                                                                  
G 6  21609159.690 1 113556889.254 1        -2.647          29.000    21609165.386 1  84799000.622 1        -2.162          32.000  
G14  20192789.922 1 106113824.874 1     -1581.837          28.000                                                                  
G17  21719700.664 1 114137804.26311      -365.514          29.000                                                                  
G19  22022490.747 1 115728997.070 1       398.940          21.000                                                                  
G28  20508394.034 1 107772331.391 1        12.575          33.000                                                                  
J 1  37415022.719 1 196617308.775 1     -1026.550          33.000                                                                  
J 2  35948447.907 1 188910368.27511      -841.916          29.000                                                                  
J 3  39695616.497 1 208601855.839 1      -671.370          29.000                                                                  
R14  20616986.657 1 109900140.24111     -4318.065          18.000  
> 2021  5 21  6 31 15.9987103  0 11                     
C 7  35717734.827 1 185991623.258 1     -1058.162          29.000  
C10  35910958.261 1 186997750.370 1      -621.180          27.000  
C13  36545796.671 1 190303610.135 1     -1130.110          21.000  
C34  23037672.851 1 119963314.26611     -1275.817          22.000  
G 3  22264209.508 1 116999021.233 1     -2835.717          26.000                                                                  
G 6  21609008.295 1 113556103.374 1        -1.576          27.000    21609014.590 1  84798413.466 1         1.259          31.000  
G14  20192939.519 1 106114619.317 1     -1582.681          29.000                                                                  
G17  21719618.521 1 114137381.192 1      -364.253          31.000                                                                  
G19  22022259.607 1 115727807.940 1       404.458          21.000                                                                  
G28  20508239.341 1 107771530.453 1        14.601          36.000                                                                  
J 2  35948455.702 1 188910422.544 1      -841.907          30.000                                                                  
> 2021  5 21  6 31 16.9987095  0 11                     
C 7  35717697.652 1 185991433.318 1     -1059.169          30.000  
C10  35910837.445 1 186997122.175 1      -620.675          31.000  
C13  36545773.288 1 190303490.583 1     -1129.507          25.000  
C34  23037680.046 1 119963341.269 1     -1275.845          26.000  
G 6  21608767.861 1 113554844.473 1        -0.684          27.000    21608773.557 1  84797471.958 1        -0.583          34.000  
G14  20192999.777 1 106114942.128 1     -1583.699          32.000                                                                  
G17  21719445.841 1 114136484.055 1      -361.741          30.000                                                                  
G19  22021943.326 1 115726145.184 1       403.286          22.000                                                                  
G28  20507998.908 1 107770253.788 1        17.432          35.000                                                                  
J 2  35948375.957 1 188910007.068 1      -847.916          27.000                                                                  
J 3  39695483.389 1 208601150.94811      -669.789          31.000                                                                  
> 2021  5 21  6 31 17.9987087  0 13                     
C 7  35717658.679 1 185991242.890 1     -1057.624          23.000  
C10  35910718.127 1 186996495.051 1      -622.481          27.000  
C13  36545750.503 1 190303372.653 1     -1132.271          24.000  
C34  23037683.344 1 119963365.908 1     -1271.307          23.000  
G 6  21608525.929 1 113553586.316 1        -4.473          28.000    21608534.023 1  84796534.185 1        -5.147          30.000  
G14  20193062.734 1 106115266.023 1     -1584.720          37.000                                                                  
G17  21719272.560 1 114135585.140 1      -359.595          25.000                                                                  
G19  22021627.345 1 115724485.914 1       398.620          21.000                                                                  
G28  20507754.877 1 107768976.834 1        15.612          34.000                                                                  
J 1  37414976.851 1 196617051.44411     -1008.022          25.000                                                                  
J 2  35948294.414 1 188909590.806 1      -841.016          23.000                                                                  
J 3  39695371.266 1 208600559.382 1      -667.349          30.000                                                                  
R14  20618810.295 1 109909861.14311     -4316.562          20.000  
> 2021  5 21  6 31 18.9987082  0  8                     
C 7  35717713.242 1 185991519.075 1     -1056.426          22.000  
C10  35910687.548 1 186996337.548 1      -623.639          26.000  
C34  23037775.980 1 119963854.142 1     -1267.705          23.000  
G 6  21608375.733 1 113552805.768 1       -10.259          39.000                                                                  
G14  20193215.928 1 106116062.883 1     -1584.388          35.000                                                                  
G17  21719188.019 1 114135155.823 1      -359.274          27.000                                                                  
G28  20507602.282 1 107768174.406 1        14.038          35.000                                                                  
J 3  39695346.983 1 208600436.910 1      -662.056          29.000                                                                  
> 2021  5 21  6 31 19.9987075  0 10                     
C 7  35717705.747 1 185991481.952 1     -1053.370          23.000  
C10  35910597.910 1 186995867.688 1      -622.721          25.000  
C13  36545829.948 1 190303769.61911     -1137.453          23.000  
G 6  21608166.777 1 113551717.020 1       -16.923          34.000                                                                  
G14  20193305.565 1 106116544.354 1     -1584.188          25.000                                                                  
G17  21719046.517 1 114134412.215 1      -360.521          25.000                                                                  
G19  22021122.794 1 115721802.40811       392.902          23.000                                                                  
G28  20507388.231 1 107767058.620 1        13.484          31.000                                                                  
J 2  35948257.539 1 188909389.36811      -846.331          20.000                                                                  
J 3  39695261.242 1 208599994.511 1      -659.317          31.000                                                                  
> 2021  5 21  6 31 20.9987069  0  9                     
C 7  35717727.931 1 185991597.489 1     -1050.714          30.000  
C10  35910536.153 1 186995554.328 1      -623.366          23.000  
C13  36545870.121 1 190303971.836 1     -1139.984          16.000  
C34  23037877.309 1 119964364.35311     -1272.256          21.000  
G 3  22265846.975 1 117007809.81611     -2823.184          28.000                                                                  
G 6  21607991.099 1 113550791.078 1       -20.391          27.000                                                                  
G14  20193425.183 1 106117182.793 1     -1583.466          33.000                                                                  
G28  20507203.858 1 107766100.568 1        10.971          35.000                                                                  
J 3  39695206.980 1 208599707.745 1      -657.218          30.000                                                                  
> 2021  5 21  6 31 21.9987062  0  7                     
C 7  35717719.537 1 185991555.264 1     -1050.084          31.000  
C10  35910446.215 1 186995085.330 1      -623.811          24.000  
C34  23037914.783 1 119964542.637 1     -1271.433          25.000  
G 6  21607787.840 1 113549707.341 1       -18.365          26.000                                                                  
G14  20193515.720 1 106117663.110 1     -1583.013          34.000                                                                  
G28  20506992.205 1 107764987.421 1        10.047          32.000                                                                  
J 3  39695120.640 1 208599261.344 1      -655.916          33.000                                                                  
> 2021  5 21  6 31 22.9987057  0  9                     
C 7  35717771.102 1 185991824.473 1     -1049.437          30.000  
C10  35910414.437 1 186994928.084 1      -623.352          26.000  
G 6  21607644.539 1 113548938.469 1       -20.535          29.000                                                                  
G14  20193674.310 1 106118458.674 1     -1583.958          33.000                                                                  
G17  21718721.542 1 114132666.80911      -363.568          30.000                                                                  
G28  20506842.009 1 107764189.807 1         9.792          35.000                                                                  
J 1  37415062.891 1 196617397.95811     -1024.854          28.000                                                                  
J 3  39695095.457 1 208599127.742 1      -653.160          32.000                                                                  
R14  20621998.887 1 109926858.15511     -4316.854          15.000  
> 2021  5 21  6 31 23.9987049  0  9                     
C 7  35717732.129 1 185991624.926 1     -1049.441          30.000  
C10  35910293.921 1 186994302.518 1      -622.797          27.000  
G14  20193734.269 1                     -1585.424          34.000                                                                  
G17  21718550.960 1 114131769.564 1      -362.383          31.000                                                                  
G19  22020054.334 1 115716081.56311       419.697          24.000                                                                  
G28  20506602.774 1 107762919.371 1         9.667          36.000                                                                  
J 1  37415018.222 1 196617164.673 1     -1029.694          31.000                                                                  
J 3  39694983.035 1 208598518.960 1      -650.623          31.000                                                                  
R14  20622563.696 1 109929868.838 1     -4327.405          15.000  
> 2021  5 21  6 31 24.9987041  0 13                     
C 7  35717694.655 1 185991425.845 1     -1049.972          32.000  
C10  35910173.104 1 186993676.195 1      -622.852          26.000  
C21  23878131.114 1 124339694.78011      -429.716          17.000  
G 3                                                                  22267151.971 1  87381103.42111     -2098.285          30.000  
G 6  21607179.561 1 113546467.03011       -27.666          31.000                                                                  
G14  20193796.925 1 106119114.26211     -1584.980          35.000                                                                  
G17  21718378.579 1 114130868.847 1      -357.927          30.000                                                                  
G19  22019738.352 1 115714397.610 1       426.069          25.000                                                                  
G28  20506361.741 1                         8.832          37.000                                                                  
J 1  37414973.553 1 196616936.565 1     -1034.797          28.000                                                                  
J 2  35948003.615 1 188908253.73211      -846.878          31.000                                                                  
J 3  39694867.315 1                      -649.021          33.000                                                                  
R14  20623133.602 1 109932907.101 1     -4322.577          15.000  
> 2021  5 21  6 31 25.9987034  0 13                     
C 7  35717688.359 1 185991383.213 1     -1050.009          32.000  
C10  35910081.968 1 186993206.271 1      -622.875          28.000  
C21  23878002.803 1 124339035.551 1      -436.698          18.000  
C34  23038066.478 1 119965239.83711     -1264.086          28.000  
G 3  22267516.819 1 117016507.20011     -2854.662          22.000    22267476.347 1  87382377.841 1     -2097.568          27.000  
G 6  21606975.102 1 113545393.817 1       -29.985          27.000                                                                  
G14  20193888.962 1 106119597.102 1     -1587.481          34.000                                                                  
G17  21718237.077 1 114130124.530 1      -359.654          30.000                                                                  
G19  22019453.550 1 115712867.421 1       428.062          26.000                                                                  
G28  20506150.088 1 107760544.65311        11.868          37.000                                                                  
J 1  37414960.362 1 196616868.590 1     -1034.265          25.000                                                                  
J 2  35947952.051 1 188907996.467 1      -846.456          30.000                                                                  
J 3  39694778.577 1 208597480.22511      -649.296          34.000                                                                  
> 2021  5 21  6 31 26.9987031  0 12                     
C 7  35717804.978 1 185991965.434 1     -1050.697          32.000  
C10  35910111.047 1 186993360.567 1      -622.766          28.000  
C21  23877995.308 1 124339006.699 1      -441.340          17.000  
C34  23038221.171 1 119966035.369 1     -1264.012          29.000  
G 3                                                                  22267921.239 1  87384124.074 1     -2100.929          27.000  
G 6  21606889.362 1 113544950.777 1       -29.369          29.000                                                                  
G14  20194098.217 1 106120710.861 1     -1585.413          33.000                                                                  
G19  22019286.265 1 115711966.123 1       427.287          30.000                                                                  
G28  20506058.051 1 107760061.874 1         8.432          36.000                                                                  
J 1  37415071.285 1 196617429.179 1     -1030.533          26.000                                                                  
J 2  35948022.802 1 188908370.259 1      -846.704          28.000                                                                  
J 3  39694812.453 1 208597655.780 1      -649.054          35.000                                                                  
> 2021  5 21  6 31 27.9987023  0 10                     
C 7  35717768.403 1                     -1052.065          32.000  
C 8  36500584.671 1 190068163.82111     -1494.001          29.000  
C10  35909990.231 1 186992734.047 1      -620.872          28.000  
G 3                                                                  22268217.134 1  87385282.648 1     -2101.194          26.000  
G 6  21606654.624 1 113543719.526 1       -29.274          29.000                                                                  
G14  20194161.473 1 106121037.553 1     -1589.187          32.000                                                                  
G19  22018967.586 1 115710285.332 1       411.233          27.000                                                                  
G28  20505817.318 1 107758791.639 1        11.967          35.000                                                                  
J 1  37415030.513 1 196617196.596 1     -1026.271          24.000                                                                  
J 3  39694695.534 1 208597044.126 1      -648.935          36.000                                                                  
> 2021  5 21  6 31 28.9987016  0 10                     
C 7  35717760.009 1 185991751.54711     -1051.719          31.000  
C 8  36500661.418 1 190068564.464 1     -1493.104          27.000  
C10  35909899.694 1 186992261.792 1      -619.609          27.000  
G 3  22268635.644 1 117022252.15811     -2859.794          22.000    22268543.608 1  87386560.347 1     -2102.862          23.000  
G 6  21606451.365 1 113542644.799 1       -25.818          25.000                                                                  
G14  20194252.610 1 106121522.333 1     -1586.801          32.000                                                                  
G17  21717924.993 1 114128359.63411      -358.130          36.000                                                                  
G19  22018681.284 1 115708774.455 1       408.885          28.000                                                                  
G28  20505606.564 1 107757678.741 1         9.760          34.000                                                                  
J 3  39694610.093 1 208596590.413 1      -650.724          34.000                                                                  
> 2021  5 21  6 31 29.9987008  0  8                     
C 7  35717722.235 1 185991555.242 1     -1053.952          30.000  
C 8  36500709.085 1 190068808.385 1     -1493.278          27.000  
C10  35909780.077 1 186991632.154 1      -618.900          26.000  
G 3  22268948.628 1 117024114.440 1     -2853.660          22.000    22268840.702 1  87387722.578 1     -2105.317          27.000  
G14  20194323.361 1 106121850.271 1     -1587.464          32.000                                                                  
G28  20505361.034 1 107756408.546 1         8.961          36.000                                                                  
J 1  37414975.052 1 196616883.29811     -1025.907          18.000                                                                  
J 3  39694496.172 1 208595980.104 1      -649.824          33.000                                                                  
> 2021  5 21  6 31 30.9987003  0 11                     
C 7  35717769.003 1 185991827.468 1     -1052.928          30.000  
C 8  36500844.891 1 190069520.128 1     -1491.239          26.000  
C10  35909746.500 1 186991470.972 1      -619.444          26.000  
C25  23261174.724 1 121127190.52911     -1922.870          16.000  
E21  23635443.423 1  92750555.66211     -1452.758          29.000  
G 3  22269346.152 1 117026170.347 1     -2832.229          24.000                                                                  
G14  20194470.259 1 106122651.057 1     -1589.347          33.000                                                                  
G28  20505211.138 1 107755611.066 1        10.799          37.000                                                                  
J 1  37415023.019 1 196617118.562 1     -1018.336          20.000                                                                  
J 2  35947840.828 1 188907352.71711      -854.179          17.000                                                                  
J 3  39694469.491 1 208595843.429 1      -650.644          33.000                                                                  
> 2021  5 21  6 31 31.9986998  0 10                     
C 7  35717828.662 1 185992100.026 1     -1051.427          30.000  
C 8  36500980.397 1 190070229.780 1     -1489.989          28.000  
C10  35909715.621 1 186991310.176 1      -620.038          27.000  
E21  23635663.471 1  92751418.439 1     -1449.707          29.000  
G 3  22269710.400 1 117028210.327 1     -2821.886          29.000                                                                  
G14  20194622.554 1 106123452.209 1     -1588.771          34.000                                                                  
G17  21717579.033 1 114126596.16311      -358.408          32.000                                                                  
G19  22017909.319 1 115704709.86111       397.616          34.000                                                                  
G28  20505057.944 1 107754813.938 1         8.155          36.000                                                                  
J 3  39694447.606 1 208595708.645 1      -655.094          29.000                                                                  
> 2021  5 21  6 31 32.9986990  0  9                     
C 7  35717795.385 1 185991904.556 1     -1055.631          29.000  
C 8  36501025.966 1 190070470.585 1     -1490.432          28.000  
C10  35909594.505 1 186990679.888 1      -617.684          27.000  
E21  23635793.281 1  92751927.429 1     -1448.148          29.000  
G 3  22269985.910 1 117029770.842 1     -2820.749          29.000                                                                  
G14  20194682.812 1 106123780.893 1     -1589.810          33.000                                                                  
G17  21717407.851 1 114125695.573 1      -359.931          32.000                                                                  
G28  20504815.711 1 107753544.337 1         8.849          34.000                                                                  
J 3  39694325.590 1 208595103.664 1      -656.480          29.000                                                                  
> 2021  5 21  6 31 33.9986982  0  7                     
C 7  35717752.514 1 185991709.349 1     -1054.787          29.000  
C 8  36501072.433 1 190070713.386 1     -1492.528          27.000  
C10  35909473.089 1 186990047.911 1      -616.682          26.000  
E21  23635921.592 1  92752435.189 1     -1447.307          29.000  
G14  20194741.272 1 106124109.657 1     -1590.299          32.000                                                                  
G28  20504573.779 1 107752275.302 1         7.083          35.000                                                                  
J 3  39694212.868 1 208594501.870 1      -659.398          29.000                                                                  
> 2021  5 21  6 31 34.9986977  0  8                     
C 7  35717803.779 1 185991982.785 1     -1051.369          29.000  
C 8  36501210.038 1 190071424.979 1     -1491.943          27.000  
C10  35909440.711 1 186989883.321 1      -618.043          26.000  
E21  23636142.239 1  92753295.064 1     -1446.723          30.000  
G14  20194894.765 1 106124911.284 1     -1590.894          31.000                                                                  
G19  22017039.621 1 115700324.06011       403.774          31.000                                                                  
G28  20504421.484 1 107751479.515 1         7.604          36.000                                                                  
J 3  39694185.587 1 208594374.579 1      -660.304          30.000                                                                  
> 2021  5 21  6 31 35.9986970  0  8                     
C 7  35717796.284 1 185991943.839 1     -1053.834          33.000  
C 8  36501287.085 1 190071823.632 1     -1491.174          29.000  
C10  35909350.174 1 186989408.988 1      -619.720          27.000  
E21  23636300.829 1  92753918.857 1     -1448.120          30.000  
G14  20194988.600 1 106125397.766 1     -1590.723          31.000                                                                  
G19  22016754.818 1 115698818.675 1       401.276          32.000                                                                  
G28  20504206.833 1 107750368.796 1         8.238          36.000                                                                  
J 3  39694100.146 1 208593932.770 1      -661.896          30.000                                                                  
> 2021  5 21  6 31 36.9986964  0  9                     
C 7  35717822.666 1 185992060.906 1     -1054.512          32.000  
C 8  36501392.912 1 190072377.466 1     -1490.184          32.000  
C10  35909291.115 1 186989091.971 1      -619.875          30.000  
E21  23636489.099 1  92754660.298 1     -1448.274          29.000  
G 3                                                                  22271296.902 1  87397352.94111     -2125.660          27.000  
G14  20195119.010 1 106126042.112 1     -1589.922          33.000                                                                  
G19  22016499.395 1 115697471.887 1       403.104          38.000                                                                  
G28  20504026.058 1 107749415.850 1         6.532          34.000                                                                  
J 3  39694046.184 1 208593649.972 1      -663.375          29.000    39694059.674 1 155768024.75111      -495.579          28.000  
> 2021  5 21  6 31 37.9986957  0 11                     
C 7  35717813.672 1 185992021.762 1     -1054.186          32.000  
C 8  36501469.958 1 190072774.720 1     -1490.135          31.000  
C10  35909201.177 1 186988618.705 1      -619.053          28.000  
E21  23636647.989 1  92755284.302 1     -1448.033          30.000  
G 3                                                                  22271627.873 1  87398654.922 1     -2126.109          28.000  
G 6  21604770.728 1                        -7.922          37.000                                                                  
G14  20195211.346 1 106126529.320 1     -1589.606          33.000                                                                  
G19  22016212.193 1                       403.143          38.000                                                                  
G28  20503816.203 1 107748305.665 1         7.271          34.000                                                                  
G30  23709394.428 1 124593708.49611     -3705.252          30.000                                                                  
J 3  39693963.141 1 208593210.404 1      -663.151          30.000    39693975.732 1 155767697.146 1      -496.184          29.000  
> 2021  5 21  6 31 38.9986952  0 12                     
C 7  35717865.536 1 185992294.821 1     -1054.012          32.000  
C 8  36501606.963 1 190073485.064 1     -1491.120          32.000  
C10  35909170.598 1 186988457.161 1      -619.076          28.000  
E21  23636866.838 1  92756143.825 1     -1449.331          30.000  
G 3                                                                  22272018.802 1  87400191.936 1     -2125.553          28.000  
G 6  21604622.631 1 113533056.99911        -8.215          37.000                                                                  
G14  20195364.240 1 106127332.045 1     -1591.253          33.000                                                                  
G17  21716651.775 1 114121860.36411      -359.076          20.000                                                                  
G19  22015987.349 1                       404.422          38.000                                                                  
G28  20503667.506 1 107747510.905 1         5.815          33.000                                                                  
G30  23709948.144 1 124596626.453 1     -3705.989          30.000                                                                  
J 3  39693940.357 1 208593085.501 1      -663.091          29.000    39693950.850 1 155767603.857 1      -494.080          28.000  
> 2021  5 21  6 31 39.9986944  0 14                     
C 7  35717823.265 1 185992099.531 1     -1051.704          32.000  
C 8  36501659.127 1                     -1491.059          32.000  
C10  35909050.382 1 186987828.038 1      -620.373          28.000  
C11  23060963.127 1 120084486.32211      -728.613          33.000  
C34  23038727.521 1 119968939.62611     -1268.999          29.000  
E21  23636996.048 1  92756650.516 1     -1447.693          30.000  
G 3                                                                  22272319.494 1  87401375.541 1     -2124.747          27.000  
G 6  21604386.095 1 113531805.104 1        -8.066          36.000                                                                  
G14  20195424.499 1 106127662.579 1     -1591.343          34.000                                                                  
G17  21716481.493 1 114120958.977 1      -359.190          25.000                                                                  
G19  22015672.267 1 115693120.20311       404.345          37.000                                                                  
G28  20503425.874 1 107746243.791 1         7.896          33.000                                                                  
G30  23710414.022 1 124599072.186 1     -3706.174          29.000                                                                  
J 3  39693827.635 1 208592487.635 1      -662.505          29.000    39693836.629 1 155767156.829 1      -494.182          29.000  
> 2021  5 21  6 31 40.9986936  0 13                     
C 7  35717785.192 1 185991904.086 1     -1053.744          32.000  
C 8  36501706.195 1 190073957.95611     -1489.748          32.000  
C10  35908931.064 1 186987198.292 1      -618.419          29.000  
C11  23060861.498 1 120083966.395 1      -729.268          33.000  
C25  23262878.444 1 121135812.06411     -1907.604          16.000  
C34  23038727.221 1 119968697.730 1     -1269.395          29.000  
E21  23637124.959 1  92757157.354 1     -1448.297          30.000  
G 3                                                                  22272620.186 1  87402557.738 1     -2122.515          27.000  
G 6  21604145.062 1 113530553.362 1        -8.654          37.000                                                                  
G14  20195489.554 1 106127993.516 1     -1591.740          33.000                                                                  
G28  20503186.939 1 107744976.937 1         7.812          34.000                                                                  
G30  23710879.899 1 124601518.100 1     -3706.495          29.000                                                                  
J 3  39693713.414 1 208591889.369 1      -661.365          30.000    39693722.708 1 155766709.238 1      -494.068          28.000  
> 2021  5 21  6 31 41.9986929  0 13                     
C 7  35717778.297 1 185991864.717 1     -1054.869          31.000  
C 8  36501780.543 1 190074354.842 1     -1489.461          32.000  
C10  35908841.127 1 186986724.236 1      -618.682          28.000  
C11  23060793.745 1 120083602.388 1      -728.377          32.000  
C34  23038759.898 1 119968874.028 1     -1268.958          28.000  
E21  23637285.048 1  92757782.095 1     -1447.212          30.000  
G 3  22272943.062 1 117045105.13511     -2844.701          33.000    22272952.056 1  87403857.110 1     -2123.045          28.000  
G 6  21603935.507 1 113529459.388 1        -9.744          37.000                                                                  
G14  20195585.487 1 106128482.357 1     -1591.355          34.000                                                                  
G17  21716172.107 1 114119313.77311      -358.039          26.000                                                                  
G28  20502974.686 1 107743867.958 1         6.462          34.000                                                                  
G30  23711378.154 1 124604121.738 1     -3706.572          30.000                                                                  
J 3  39693629.472 1 208591447.522 1      -660.703          31.000    39693638.766 1 155766379.805 1      -494.738          29.000  
> 2021  5 21  6 31 42.9986926  0 12                     
C 7  35717894.616 1 185992449.770 1     -1053.724          31.000  
C 8  36501976.907 1 190075376.140 1     -1489.621          31.000  
C10  35908871.106 1 186986874.505 1      -618.711          28.000  
C11  23060844.709 1 120083862.681 1      -729.629          31.000  
C34  23038912.493 1 119969674.660 1     -1269.631          29.000  
E21  23637563.855 1  92758877.628 1     -1449.897          31.000  
G 3  22273398.747 1 117047477.125 1     -2845.056          31.000    22273403.544 1  87405626.839 1     -2123.610          27.000  
G 6  21603848.567 1 113528995.822 1        -9.348          36.000                                                                  
G14  20195797.440 1 106129601.858 1     -1592.472          33.000                                                                  
G28  20502884.448 1 107743389.458 1         5.350          34.000                                                                  
G30  23711996.027 1 124607355.546 1     -3706.456          30.000                                                                  
J 3  39693665.447 1 208591635.158 1      -660.421          31.000    39693674.441 1 155766522.368 1      -495.992          28.000  
> 2021  5 21  6 31 43.9986918  0 14                     
C 7  35717856.842 1 185992254.384 1     -1053.146          31.000  
C 8  36502024.574 1 190075616.834 1     -1489.684          30.000  
C10  35908749.990 1 186986243.771 1      -617.716          27.000  
C11  23060746.078 1 120083342.329 1      -727.764          29.000  
C25  23263458.543 1 121138733.78311     -1914.895          15.000  
C34  23038916.990 1 119969695.957 1     -1271.240          27.000  
E21  23637692.466 1  92759385.206 1     -1447.917          31.000  
G 3  22273702.137 1 117049061.917 1     -2845.136          30.000    22273705.734 1  87406810.582 1     -2124.786          29.000  
G 6  21603613.230 1 113527744.836 1        -8.960          34.000                                                                  
G14  20195855.600 1 106129934.181 1     -1592.394          31.000                                                                  
G17  21715982.938 1 114118296.82511      -357.808          25.000                                                                  
G28  20502643.116 1 107742123.665 1         6.202          33.000                                                                  
G30  23712465.202 1 124609801.731 1     -3706.589          28.000                                                                  
J 3  39693551.826 1 208591034.649 1      -660.076          29.000    39693559.920 1 155766074.773 1      -492.416          29.000  
> 2021  5 21  6 31 44.9986911  0 14                     
C 7  35717851.146 1 185992215.052 1     -1052.083          31.000  
C 8  36502099.522 1 190076013.647 1     -1491.476          30.000  
C10  35908658.253 1 186985768.637 1      -617.898          27.000  
C11  23060676.526 1 120082977.036 1      -729.534          28.000  
C34  23038953.265 1 119969873.570 1     -1269.727          28.000  
E21  23637852.255 1  92760010.579 1     -1448.416          30.000  
G 3                                                                  22274036.705 1  87408111.863 1     -2125.107          30.000  
G 6  21603404.274 1 113526651.561 1        -9.106          34.000                                                                  
G14  20195948.536 1 106130424.525 1     -1592.978          30.000                                                                  
G17  21715842.335 1 114117551.319 1      -357.597          25.000                                                                  
G19  22014298.318 1 115685900.66211       403.984          34.000                                                                  
G28  20502430.563 1 107741015.758 1         7.071          32.000                                                                  
G30  23712962.258 1 124612405.335 1     -3706.393          29.000                                                                  
J 3  39693468.184 1 208590592.123 1      -659.944          29.000    39693475.679 1 155765743.875 1      -493.139          29.000  
> 2021  5 21  6 31 45.9986906  0 14                     
C 7  35717903.310 1 185992487.832 1     -1053.392          31.000  
C 8  36502235.928 1 190076722.405 1     -1488.926          31.000  
C10  35908627.974 1 186985606.304 1      -618.720          27.000  
C11  23060666.932 1 120082925.825 1      -729.036          27.000  
C34  23039047.699 1 119970362.224 1     -1268.720          29.000  
E21  23638071.104 1  92760871.510 1     -1448.017          31.000  
G 3                                                                  22274428.534 1  87409649.005 1     -2124.777          29.000  
G 6  21603258.276 1 113525873.572 1        -9.443          34.000                                                                  
G14  20196100.231 1 106131230.312 1     -1595.359          29.000                                                                  
G17  21715759.892 1 114117121.296 1      -358.392          22.000                                                                  
G19  22014074.373 1 115684708.355 1       404.842          31.000                                                                  
G28  20502286.063 1 107740223.173 1         6.760          31.000                                                                  
G30  23713516.874 1 124615323.727 1     -3706.030          28.000                                                                  
J 3  39693446.299 1 208590463.490 1      -658.668          27.000    39693451.395 1 155765647.088 1      -491.398          29.000  
> 2021  5 21  6 31 46.9986898  0 13                     
C 7  35717866.436 1 185992292.282 1     -1052.367          31.000  
C 8  36502279.098 1 190076962.899 1     -1489.514          31.000  
C10  35908507.458 1 186984975.712 1      -618.099          28.000  
C11  23060570.100 1 120082405.519 1      -728.599          27.000  
C34  23039053.695 1 119970381.460 1     -1267.123          29.000  
E21  23638200.914 1  92761379.573 1     -1451.040          29.000  
G 3                                                                  22274730.125 1  87410833.336 1     -2126.479          28.000  
G 6  21603019.641 1 113524623.202 1       -10.553          36.000                                                                  
G14  20196165.586 1 106131563.861 1     -1594.805          31.000                                                                  
G17  21715585.713 1 114116219.063 1      -358.846          28.000                                                                  
G28  20502042.631 1 107738958.314 1         3.737          34.000                                                                  
G30  23713980.653 1 124617769.115 1     -3705.694          30.000                                                                  
J 3  39693331.478 1 208589861.625 1      -658.591          30.000    39693337.474 1 155765197.648 1      -492.694          29.000  
> 2021  5 21  6 31 47.9986893  0 11                     
C 7  35717919.499 1 185992565.072 1     -1053.562          30.000  
C 8  36502416.403 1 190077671.721 1     -1487.571          30.000  
C10  35908475.979 1 186984812.874 1      -618.666          29.000  
C34  23039149.329 1 119970868.307 1     -1267.832          31.000  
E21  23638420.962 1  92762240.971 1     -1448.370          27.000  
G 3                                                                  22275121.954 1  87412371.069 1     -2125.980          26.000  
G 6  21602869.744 1 113523845.711 1       -11.197          38.000                                                                  
G14  20196319.979 1 106132370.633 1     -1594.175          32.000                                                                  
G28  20501892.435 1 107738166.490 1         4.584          36.000                                                                  
G30  23714535.569 1 124620687.057 1     -3705.819          31.000                                                                  
J 3  39693307.195 1 208589733.261 1      -658.474          30.000    39693313.491 1 155765101.500 1      -490.895          28.000  
> 2021  5 21  6 31 48.9986885  0 12                     
C 7  35717882.025 1 185992369.657 1     -1052.403          30.000  
C 8  36502459.573 1 190077912.265 1     -1487.015          29.000  
C10  35908355.163 1 186984182.178 1      -619.072          27.000  
C34  23039157.723 1 119970887.136 1     -1267.646          31.000  
E21  23638551.072 1  92762749.651 1     -1452.042          28.000  
G 3                                                                  22275424.445 1  87413556.220 1     -2126.456          25.000  
G 6  21602633.508 1 113522596.008 1       -11.086          39.000                                                                  
G14  20196380.237 1 106132705.325 1     -1594.419          33.000                                                                  
G17  21715326.692 1 114114886.48411      -356.971          32.000                                                                  
G28  20501652.301 1 107736902.456 1         2.297          37.000                                                                  
G30  23715000.547 1 124623132.019 1     -3705.411          32.000                                                                  
J 3  39693192.375 1 208589131.643 1      -658.807          30.000    39693199.570 1 155764652.303 1      -492.894          28.000  
> 2021  5 21  6 31 49.9986880  0 12                     
C 7  35717932.390 1 185992642.574 1     -1054.139          31.000  
C 8  36502598.077 1 190078621.126 1     -1491.121          30.000  
C10  35908324.884 1 186984020.952 1      -619.885          28.000  
C34  23039261.751 1 119971374.881 1     -1268.032          32.000  
E21  23638770.220 1  92763611.566 1     -1451.006          28.000  
G 3                                                                  22275815.973 1  87415093.677 1     -2127.284          26.000  
G 6  21602487.809 1 113521819.096 1       -11.539          37.000                                                                  
G14  20196533.131 1 106133513.184 1     -1597.120          32.000                                                                  
G17  21715241.851 1 114114457.064 1      -358.157          30.000                                                                  
G28  20501498.508 1 107736111.498 1         2.019          36.000                                                                  
G30  23715557.261 1 124626049.786 1     -3704.873          31.000                                                                  
J 3  39693168.092 1 208589002.720 1      -658.759          31.000    39693174.687 1 155764555.935 1      -491.931          26.000  
> 2021  5 21  6 31 50.9986872  0 18                     
C 7  35717894.316 1 185992447.123 1     -1054.883          32.000  
C 8  36502644.545 1 190078861.676 1     -1489.057          30.000  
C10  35908203.768 1 186983391.731 1      -619.838          29.000  
C11  23060370.438 1 120081255.74511      -726.670          24.000  
C34  23039270.445 1                     -1267.860          32.000  
E13  25388637.812 1  99630467.48511     -2012.040          28.000  
E21  23638899.730 1  92764120.727 1     -1450.914          30.000  
E26  23661084.072 1  92851175.09311      -957.763          27.000  
G 3                                                                  22276118.164 1  87416280.588 1     -2128.101          27.000  
G 6  21602247.375 1 113520569.877 1       -11.187          36.000                                                                  
G14  20196593.689 1 106133848.810 1     -1595.357          30.000                                                                  
G17  21715068.271 1 114113555.372 1      -358.942          26.000                                                                  
G19  22012669.846 1 115677327.77011       404.221          31.000                                                                  
G28  20501257.175 1 107734848.255 1         2.693          33.000                                                                  
G30  23716022.239 1 124628494.218 1     -3704.976          29.000                                                                  
J 3  39693053.871 1 208588400.965 1      -658.290          29.000    39693059.866 1 155764106.719 1      -492.329          29.000  
R15  20064868.481 1 107220573.47511      -601.470          34.000  
R17  21027695.130 1 112523444.01711     -1731.730          37.000  
> 2021  5 21  6 31 51.9986865  0 17                     
C 7  35717885.922 1 185992407.794 1     -1053.051          32.000  
C 8  36502719.793 1 190079258.195 1     -1487.679          32.000  
C10  35908115.029 1 186982918.831 1      -619.813          29.000  
C11  23060298.787 1 120080890.201 1      -727.275          26.000  
C34  23039306.720 1 119971702.14111     -1267.234          33.000  
E13  25388940.902 1  99631655.985 1     -2011.469          29.000  
E21  23639058.620 1  92764747.770 1     -1448.925          31.000  
E26  23661118.249 1  92851310.066 1      -959.412          29.000  
G 3                                                                  22276450.334 1  87417584.492 1     -2126.412          28.000  
G 6  21602041.718 1 113519478.397 1       -11.562          36.000                                                                  
G14  20196688.723 1 106134342.465 1     -1597.342          29.000                                                                  
G17  21714926.769 1 114112810.871 1      -357.537          26.000                                                                  
G19  22012386.542 1 115675819.849 1       404.932          31.000                                                                  
G28  20501050.318 1 107733742.845 1         2.181          33.000                                                                  
G30  23716518.096 1 124631096.829 1     -3705.457          30.000                                                                  
J 3  39692968.730 1 208587957.082 1      -658.736          29.000    39692975.025 1 155763775.352 1      -492.681          29.000  
R17  21027813.248 1 112524075.471 1     -1731.169          38.000  
> 2021  5 21  6 31 52.9986860  0 16                     
C 7  35717937.486 1 185992680.686 1     -1053.239          31.000  
C 8  36502852.301 1 190079966.854 1     -1487.854          31.000  
C10  35908084.151 1 186982757.126 1      -617.653          29.000  
C11  23060285.896 1 120080837.836 1      -728.716          27.000  
C34  23039396.058 1 119972189.395 1     -1265.115          33.000  
E13  25389303.651 1  99633079.664 1     -2011.193          29.000  
E21  23639278.968 1  92765610.284 1     -1450.699          32.000  
E26  23661212.983 1  92851682.360 1      -959.726          29.000  
G 3                                                                  22276842.163 1  87419124.409 1     -2129.085          27.000  
G 6  21601893.620 1 113518702.189 1       -12.687          37.000                                                                  
G14  20196843.716 1 106135151.580 1     -1597.192          31.000                                                                  
G28  20500900.722 1 107732952.796 1         1.975          34.000                                                                  
G30  23717072.712 1 124634014.334 1     -3705.863          30.000                                                                  
J 3  39692943.247 1 208587827.719 1      -658.183          29.000    39692950.142 1 155763679.805 1      -491.268          29.000  
R15  20064735.673 1 107219863.04511      -603.440          35.000  
R17  21027990.725 1 112525025.394 1     -1731.538          38.000  
> 2021  5 21  6 31 53.9986854  0 16                     
C 7  35717959.371 1 185992797.279 1     -1052.689          31.000  
C 8  36502962.625 1 190080519.300 1     -1489.229          30.000  
C10  35908024.192 1 186982437.679 1      -616.847          27.000  
C11  23060243.026 1 120080629.240 1      -727.743          27.000  
C34  23039462.312 1 119972520.269 1     -1269.137          32.000  
E13  25389636.121 1  99634384.587 1     -2010.436          30.000  
E21  23639469.636 1  92766355.309 1     -1451.912          31.000  
E26  23661276.839 1  92851934.540 1      -958.570          29.000  
G 3                                                                  22277204.912 1  87420546.770 1     -2127.926          29.000  
G 6  21601714.045 1 113517768.655 1       -11.011          36.000                                                                  
G14  20196966.031 1 106135803.622 1     -1597.155          30.000                                                                  
G28  20500719.347 1 107732005.570 1         2.423          34.000                                                                  
G30  23717597.649 1 124636774.440 1     -3705.309          29.000                                                                  
J 3  39692890.184 1 208587540.832 1      -658.069          30.000    39692895.280 1 155763464.290 1      -489.993          29.000  
R15  20064671.817 1 107219521.926 1      -604.147          35.000  
R17  21028127.430 1 112525756.799 1     -1730.662          38.000  
> 2021  5 21  6 31 54.9986847  0 17                     
C 7  35717957.273 1 185992757.765 1     -1053.926          31.000  
C 8  36503040.271 1 190080915.502 1     -1488.876          31.000  
C10  35907932.755 1 186981962.059 1      -617.737          29.000  
C11  23060167.778 1 120080263.107 1      -725.967          29.000  
C34  23039492.291 1 119972694.882 1     -1267.684          32.000  
E13  25389938.911 1  99635570.734 1     -2010.653          29.000  
E21  23639630.025 1  92766982.828 1     -1449.220          31.000  
E26  23661311.615 1  92852068.905 1      -957.202          29.000  
G 3  22277531.986 1 117069200.09611     -2849.621          32.000    22277537.682 1  87421851.175 1     -2127.618          28.000  
G 6  21601504.490 1 113516677.722 1       -11.578          36.000    21601442.133 1  84768724.76411        -9.119          25.000  
G14  20197059.267 1 106136298.068 1     -1597.450          30.000                                                                  
G17  21714591.601 1 114111045.51811      -357.165          29.000                                                                  
G19  22011607.681 1 115671767.54511       405.759          33.000                                                                  
G28  20500510.992 1 107730901.010 1         2.680          33.000                                                                  
G30  23718092.306 1 124639376.533 1     -3704.629          29.000                                                                  
J 3  39692805.343 1 208587096.228 1      -658.112          28.000    39692810.739 1 155763131.829 1      -491.972          29.000  
R17  21028238.054 1 112526349.098 1     -1730.704          39.000  
> 2021  5 21  6 31 55.9986839  0 18                     
C 7  35717918.300 1 185992562.059 1     -1053.223          31.000  
C 8  36503083.141 1 190081155.512 1     -1488.255          30.000  
C10  35907811.040 1 186981331.165 1      -618.532          29.000  
C11  23060063.150 1 120079740.871 1      -726.247          29.000  
C34  23039497.987 1 119972713.252 1     -1266.811          32.000  
E13  25390211.722 1  99636640.005 1     -2009.663          29.000  
E21  23639758.935 1  92767492.977 1     -1450.863          32.000  
E26  23661316.112 1  92852084.918 1      -957.620          30.000  
G 3                                                                  22277839.573 1  87423037.201 1     -2128.627          28.000  
G 6  21601267.354 1 113515429.445 1       -12.170          37.000    21601205.297 1  84767791.821 1        -6.994          25.000  
G14  20197123.123 1 106136635.532 1     -1598.130          31.000                                                                  
G17  21714419.820 1 114110141.482 1      -355.876          29.000                                                                  
G19  22011286.304 1 115670101.332 1       405.272          33.000                                                                  
G28  20500266.061 1 107729639.213 1         0.281          34.000                                                                  
G30  23718556.385 1 124641820.909 1     -3704.965          28.000                                                                  
J 3  39692691.122 1 208586493.821 1      -657.458          30.000    39692696.818 1 155762682.470 1      -492.052          29.000  
R15  20064452.369 1 107218349.05611      -605.526          36.000  
R17  21028321.996 1 112526798.053 1     -1730.283          40.000  
> 2021  5 21  6 31 56.9986831  0 18                     
C 7  35717880.826 1 185992366.403 1     -1054.787          31.000  
C 8  36503131.708 1 190081395.536 1     -1489.399          29.000  
C10  35907690.223 1 186980700.888 1      -618.119          28.000  
C11  23059957.624 1 120079218.187 1      -726.389          30.000  
C34  23039502.185 1 119972731.465 1     -1266.821          31.000  
E13  25390483.934 1  99637708.834 1     -2009.691          29.000  
E21  23639889.345 1  92768003.341 1     -1452.182          31.000  
E26  23661320.309 1  92852102.096 1      -958.333          27.000  
G 3  22278136.967 1 117072379.90411     -2851.224          32.000    22278142.363 1  87424224.877 1     -2127.876          28.000  
G 6  21601033.216 1 113514181.491 1       -12.304          37.000    21600966.662 1  84766856.961 1        -6.824          25.000  
G14  20197188.178 1 106136973.553 1     -1598.653          31.000                                                                  
G17  21714247.739 1 114109237.032 1      -356.907          30.000                                                                  
G19  22010971.222 1 115668435.008 1       405.400          34.000                                                                  
G28  20500025.328 1 107728377.889 1         0.703          34.000                                                                  
G30  23719023.762 1 124644264.862 1     -3703.299          28.000                                                                  
J 3  39692577.201 1 208585890.287 1      -656.008          29.000    39692582.297 1 155762232.646 1      -491.286          29.000  
R15  20064325.257 1 107217670.593 1      -606.631          36.000  
R17  21028404.139 1 112527237.541 1     -1730.273          40.000  
> 2021  5 21  6 31 57.9986826  0 18                     
C 7  35717930.891 1 185992639.165 1     -1054.319          32.000  
C 8  36503266.015 1 190082103.966 1     -1488.095          30.000  
C10  35907657.246 1 186980538.835 1      -618.761          27.000  
C11  23059942.634 1 120079164.223 1      -726.836          31.000  
C34  23039591.223 1 119973218.002 1     -1269.513          30.000  
E13  25390845.783 1  99639129.748 1     -2011.159          27.000  
E21  23640109.093 1  92768866.957 1     -1454.300          31.000  
E26  23661414.743 1  92852472.778 1      -959.941          28.000  
G 3  22278536.590 1 117074443.236 1     -2851.636          35.000    22278534.492 1  87425765.811 1     -2130.659          26.000  
G 6  21600884.819 1 113513406.479 1       -13.300          37.000    21600819.764 1  84766276.688 1        -9.235          25.000  
G14  20197343.170 1 106137784.628 1     -1599.186          31.000                                                                  
G17  21714165.596 1 114108806.316 1      -356.810          28.000                                                                  
G19  22010747.277 1 115667241.352 1       406.800          35.000                                                                  
G28  20499873.633 1 107727589.632 1        -0.315          35.000                                                                  
G30  23719580.776 1 124647180.688 1     -3703.799          30.000                                                                  
J 3  39692554.117 1 208585759.016 1      -657.444          28.000    39692557.115 1 155762135.115 1      -490.516          28.000  
R15  20064289.881 1 107217480.903 1      -607.458          37.000  
R17  21028574.721 1 112528150.833 1     -1730.563          40.000  
> 2021  5 21  6 31 58.9986821  0 18                     
C 7  35717980.357 1 185992912.023 1     -1053.569          31.000  
C 8  36503404.219 1 190082812.419 1     -1490.471          29.000  
C10  35907626.368 1 186980375.966 1      -617.726          28.000  
C11  23059928.843 1 120079110.260 1      -726.667          32.000  
C34  23039688.655 1 119973704.389 1     -1267.731          31.000  
E13  25391208.232 1  99640552.700 1     -2012.386          27.000  
E21  23640329.141 1  92769730.797 1     -1451.972          30.000  
E26  23661508.878 1  92852843.472 1      -957.927          28.000  
G 3  22278926.620 1 117076507.014 1     -2851.325          36.000    22278926.620 1  87427307.997 1     -2131.073          26.000  
G 6  21600739.419 1 113512631.771 1       -13.289          38.000    21600673.165 1  84765698.770 1       -11.593          24.000  
G14  20197497.863 1 106138596.364 1     -1600.156          31.000                                                                  
G17  21714084.652 1 114108375.798 1      -357.433          28.000                                                                  
G19  22010518.835 1 115666047.584 1       406.367          35.000                                                                  
G28  20499727.634 1 107726801.735 1         0.215          35.000                                                                  
G30  23720136.891 1 124650097.110 1     -3704.088          31.000                                                                  
J 3  39692529.534 1 208585628.356 1      -656.575          29.000    39692531.332 1 155762037.127 1      -490.779          28.000  
R15  20064252.707 1 107217282.910 1      -608.241          36.000  
R17  21028755.196 1 112529116.305 1     -1730.812          41.000  
> 2021  5 21  6 31 59.9986813  0 17                     
C 7  35717945.281 1 185992716.285 1     -1052.792          32.000  
C 8  36503452.486 1 190083052.255 1     -1486.312          29.000  
C10  35907504.352 1 186979744.800 1      -618.336          28.000  
C11  23059826.015 1 120078588.029 1      -726.535          32.000  
C34  23039691.354 1 119973722.091 1     -1266.330          31.000  
E13  25391481.043 1  99641623.288 1     -2012.073          27.000  
E21  23640459.251 1  92770241.752 1     -1452.727          30.000  
E26  23661513.675 1  92852860.576 1      -959.201          28.000  
G 3                                                                  22279230.909 1  87428496.589 1     -2129.427          26.000  
G 6  21600500.485 1 113511384.414 1       -13.018          37.000    21600436.029 1  84764768.659 1       -11.430          24.000  
G17  21713914.370 1 114107472.677 1      -355.830          25.000                                                                  
G19  22010201.355 1 115664380.784 1       406.570          35.000                                                                  
G28  20499489.599 1 107725541.323 1        -0.889          35.000                                                                  
G30  23720602.469 1 124652540.686 1     -3703.764          31.000                                                                  
J 3  39692417.411 1 208585024.348 1      -655.910          29.000    39692416.512 1 155761586.051 1      -489.677          28.000  
R15  20064120.798 1 107216577.392 1      -608.412          36.000  
R17  21028839.437 1 112529566.807 1     -1729.608          41.000  
> 2021  5 21  6 32  0.9986806  0 18                     
C 7  35717940.185 1 185992676.648 1     -1055.855          31.000  
C 8  36503527.134 1 190083448.176 1     -1485.914          29.000  
C10  35907414.114 1 186979270.347 1      -618.122          27.000  
C11  23059755.264 1 120078221.610 1      -726.571          32.000  
C34  23039722.532 1 119973895.775 1     -1267.304          32.000  
E13  25391782.934 1  99642810.157 1     -2010.539          28.000  
E21  23640618.740 1  92770870.647 1     -1451.581          29.000  
E26  23661547.851 1  92852996.878 1      -960.218          27.000  
G 3                                                                  22279563.079 1  87429801.643 1     -2128.701          28.000  
G 6  21600292.429 1 113510294.884 1       -13.877          37.000    21600228.273 1  84763956.625 1        -9.526          24.000  
G14  20197660.051 1 106139431.62911     -1599.861          30.000                                                                  
G17  21713772.868 1 114106725.242 1      -355.719          25.000                                                                  
G19  22009912.355 1 115662871.481 1       405.264          34.000                                                                  
G28  20499278.545 1 107724438.855 1        -0.484          35.000                                                                  
G30  23721096.826 1 124655140.802 1     -3702.522          31.000                                                                  
J 3  39692331.970 1 208584577.136 1      -655.091          26.000    39692331.371 1 155761250.902 1      -487.902          27.000  
R15  20064025.764 1 107216069.582 1      -609.438          36.000  
R17  21028948.562 1 112530150.800 1     -1729.888          41.000  
> 2021  5 21  6 32  1.9986801  0 18                     
C 7  35717988.451 1 185992949.265 1     -1052.919          31.000  
C 8  36503663.540 1 190084156.241 1     -1487.858          30.000  
C10  35907382.636 1 186979108.488 1      -618.356          28.000  
C11  23059744.471 1 120078166.868 1      -725.519          33.000  
C34  23039818.466 1 119974381.545 1     -1266.933          31.000  
E13  25392145.983 1  99644232.863 1     -2012.300          29.000  
E21  23640839.387 1  92771735.039 1     -1453.261          29.000  
E26  23661642.885 1  92853369.336 1      -961.303          27.000  
G 3                                                                  22279956.407 1  87431342.575 1     -2129.995          28.000  
G 6  21600146.430 1 113509520.674 1       -13.172          36.000    21600081.375 1  84763378.805 1       -11.682          24.000  
G14  20197815.044 1 106140244.276 1     -1600.918          31.000                                                                  
G17  21713691.324 1 114106293.444 1      -355.087          24.000                                                                  
G19  22009689.009 1 115661677.076 1       407.428          34.000                                                                  
G28  20499130.747 1 107723651.810 1        -0.550          34.000                                                                  
G30  23721650.543 1 124658055.259 1     -3702.255          30.000                                                                  
J 3  39692306.788 1 208584445.203 1      -656.160          28.000    39692306.488 1 155761151.046 1      -490.054          28.000  
R15  20063978.097 1 107215815.397 1      -609.433          35.000  
R17  21029122.142 1 112531080.247 1     -1729.462          41.000  
> 2021  5 21  6 32  2.9986793  0 17                     
C 7  35717948.579 1 185992753.432 1     -1053.017          31.000  
C 8  36503706.110 1 190084395.887 1     -1490.967          31.000  
C10  35907260.621 1 186978477.895 1      -618.098          28.000  
C11  23059648.238 1                      -726.085          33.000  
C34  23039819.665 1 119974398.732 1     -1267.414          30.000  
E13  25392418.195 1  99645302.177 1     -2009.560          28.000  
E21  23640970.397 1  92772246.657 1     -1454.181          29.000  
E26  23661647.682 1  92853386.885 1      -956.993          26.000  
G 3                                                                  22280259.497 1  87432532.854 1     -2131.998          28.000  
G 6  21599907.795 1 113508273.993 1       -13.830          37.000    21599843.639 1  84762448.759 1       -10.352          25.000  
G14  20197880.998 1 106140585.141 1     -1601.465          29.000                                                                  
G19  22009373.328 1 115660009.868 1       407.913          33.000                                                                  
G28  20498889.714 1 107722392.381 1        -1.707          34.000                                                                  
G30  23722113.722 1 124660497.164 1     -3702.157          29.000                                                                  
J 3  39692192.567 1 208583841.214 1      -656.604          28.000    39692192.267 1 155760700.578 1      -490.622          28.000  
R15  20063847.987 1 107215119.480 1      -609.873          33.000  
R17  21029207.583 1 112531536.876 1     -1729.108          41.000  
> 2021  5 21  6 32  3.9986788  0 17                     
C 7  35718005.839 1 185993025.960 1     -1052.600          31.000  
C 8  36503843.415 1 190085103.876 1     -1487.499          31.000  
C10  35907228.843 1 186978315.001 1      -617.966          27.000  
C11  23059644.940 1 120077584.81111      -726.122          30.000  
C34  23039906.904 1 119974882.490 1     -1265.235          31.000  
E13  25392779.744 1  99646723.985 1     -2009.449          28.000  
E21  23641190.744 1  92773111.894 1     -1452.054          29.000  
E26  23661741.217 1  92853755.816 1      -956.711          26.000  
G 3                                                                  22280652.525 1  87434076.884 1     -2130.800          29.000  
G 6  21599755.201 1 113507499.995 1       -14.349          37.000    21599697.041 1  84761870.698 1       -10.903          24.000  
G14  20198036.890 1 106141399.309 1     -1602.489          28.000                                                                  
G17  21713442.497 1 114104951.39811      -352.953          18.000                                                                  
G28  20498738.319 1 107721606.000 1        -0.148          34.000                                                                  
G30  23722670.737 1 124663411.292 1     -3702.029          26.000                                                                  
J 3  39692166.785 1 208583708.419 1      -653.538          27.000    39692166.785 1 155760600.700 1      -486.682          28.000  
R15  20063808.115 1 107214906.883 1      -611.013          34.000  
R17  21029387.158 1 112532497.649 1     -1730.074          41.000  
> 2021  5 21  6 32  4.9986783  0 17                     
C 7  35718055.305 1 185993298.308 1     -1051.701          30.000  
C 8  36503981.320 1 190085811.975 1     -1490.272          29.000  
C10  35907197.065 1 186978152.824 1      -618.465          29.000  
C11  23059632.049 1 120077529.735 1      -725.333          30.000  
C34  23039998.041 1 119975366.730 1     -1265.059          25.000  
E13  25393140.694 1  99648143.492 1     -2005.644          27.000  
E21  23641411.991 1  92773978.153 1     -1455.369          30.000  
E26  23661835.652 1  92854126.060 1      -959.252          25.000  
G 3  22281038.358 1 117087631.02311     -2845.826          32.000    22281044.654 1  87435619.218 1     -2129.875          28.000  
G 6  21599614.598 1                       -14.670          34.000    21599550.742 1  84761294.044 1       -12.322          24.000  
G14  20198192.183 1 106142214.340 1     -1603.338          29.000                                                                  
G17  21713363.951 1 114104518.224 1      -353.967          25.000                                                                  
G19  22008921.840 1 115657621.80511       406.104          28.000                                                                  
G28  20498589.921 1 107720819.786 1        -0.969          35.000                                                                  
G30  23723226.852 1 124666327.436 1     -3706.193          23.000                                                                  
J 3  39692139.803 1 208583574.141 1      -652.732          28.000    39692140.403 1 155760499.108 1      -485.848          27.000  
R17  21029564.336 1 112533446.421 1     -1730.069          42.000  
> 2021  5 21  6 32  5.9986775  0 15                     
C 7  35718018.730 1 185993102.292 1     -1054.591          30.000  
C 8  36504020.592 1 190086051.445 1     -1488.729          28.000  
C10  35907074.450 1 186977521.784 1      -618.141          27.000  
C34  23040000.739 1 119975380.717 1     -1259.290          28.000  
E13  25393410.208 1  99649205.834 1     -2001.281          27.000  
E21  23641543.000 1  92774493.263 1     -1457.990          30.000  
E26  23661840.449 1  92854144.599 1      -958.118          27.000  
G 3  22281338.750 1 117089215.076 1     -2844.407          33.000    22281345.945 1  87436805.493 1     -2124.600          28.000  
G 6  21599375.064 1 113505478.08011       -14.432          38.000    21599315.705 1  84760367.199 1       -15.455          25.000  
G14  20198257.237 1 106142557.563 1     -1604.132          31.000                                                                  
G19  22008606.159 1 115655956.802 1       402.829          33.000                                                                  
G28  20498350.387 1 107719561.108 1        -2.912          35.000                                                                  
J 3  39692023.784 1 208582965.495 1      -649.163          28.000    39692022.884 1 155760043.923 1      -485.719          26.000  
R15  20063653.122 1 107214078.54011      -615.205          33.000  
R17  21029641.682 1 112533860.552 1     -1730.450          36.000  
> 2021  5 21  6 32  6.9986767  0 17                     
C 7  35717982.455 1 185992906.007 1     -1056.711          27.000  
C 8  36504066.461 1 190086290.609 1     -1487.167          28.000  
C10  35906952.134 1 186976890.424 1      -616.737          26.000  
C11  23059428.190 1 120076483.88011      -727.164          26.000  
C34  23040001.039 1 119975389.881 1     -1256.259          28.000  
E13  25393678.822 1  99650263.637 1     -1996.720          28.000  
E21  23641674.010 1  92775009.825 1     -1456.229          30.000  
E26  23661844.646 1  92854161.719 1      -959.095          31.000  
G 3  22281640.641 1 117090795.238 1     -2839.255          31.000    22281646.337 1  87437986.260 1     -2120.056          29.000  
G 6  21599136.429 1                       -14.861          31.000    21599080.967 1  84759443.148 1       -19.734          28.000  
G14  20198322.592 1 106142901.526 1     -1604.931          30.000                                                                  
G17  21713010.795 1 114102697.51211      -346.291          26.000                                                                  
G19  22008291.077 1 115654292.673 1       404.586          35.000                                                                  
G28  20498111.153 1 107718302.325 1        -0.741          33.000                                                                  
G30  23724158.007 1 124671229.38011     -3714.907          18.000                                                                  
J 3  39691904.466 1 208582352.146 1      -644.831          26.000    39691905.366 1 155759584.754 1      -479.886          27.000  
R17  21029725.624 1 112534308.897 1     -1730.352          29.000  
> 2021  5 21  6 32  7.9986760  0 15                     
C 7  35717973.462 1 185992867.011 1     -1052.993          28.000  
C 8  36504142.908 1 190086685.563 1     -1488.680          27.000  
C10  35906857.999 1 186976413.748 1      -615.684          23.000  
C11  23059358.338 1 120076119.480 1      -728.941          28.000  
C34  23040031.018 1 119975551.438 1     -1251.763          27.000  
E13  25393976.816 1  99651435.717 1     -1993.389          25.000  
E21  23641836.797 1  92775645.327 1     -1459.453          29.000  
E26  23661878.522 1  92854297.837 1      -960.171          29.000  
G 3  22281974.010 1 117092529.764 1     -2836.253          32.000    22281976.109 1  87439280.884 1     -2117.028          30.000  
G 6  21598928.073 1 113503143.56811       -15.242          33.000    21598875.610 1  84758641.014 1       -22.714          25.000  
G14  20198418.826 1 106143404.182 1     -1605.887          28.000                                                                  
G19  22008005.075 1 115652786.041 1       402.085          27.000                                                                  
G28  20497903.097 1 107717201.268 1        -3.197          33.000                                                                  
J 3  39691814.828 1 208581892.189 1      -640.298          27.000    39691817.227 1 155759240.625 1      -478.061          27.000  
R17  21029839.245 1 112534916.839 1     -1728.286          26.000  
