     3.03           OBSERVATION DATA    M: Mixed            RINEX VERSION / TYPE
RTKCONV demo5 b33c                      20210520 080531 UTC PGM / RUN BY / DATE 
log: C:\Users\Ivan_PolyU_Dktp\Dropbox\HUAWEI Exp\20210517_  COMMENT             
format: RINEX                                               COMMENT             
                                                            MARKER NAME         
                                                            MARKER NUMBER       
                                                            MARKER TYPE         
                                                            OBSERVER / AGENCY   
                                                            REC # / TYPE / VERS 
                                                            ANT # / TYPE        
        0.0000        0.0000        0.0000                  APPROX POSITION XYZ 
        0.0000        0.0000        0.0000                  ANTENNA: DELTA H/E/N
G    4 C1C L1C D1C S1C                                      SYS / # / OBS TYPES 
E    4 C1C L1C D1C S1C                                      SYS / # / OBS TYPES 
J    4 C1C L1C D1C S1C                                      SYS / # / OBS TYPES 
  2021     5    17     2    33   12.9970000     GPS         TIME OF FIRST OBS   
  2021     5    17     2    46   18.9960000     GPS         TIME OF LAST OBS    
G                                                           SYS / PHASE SHIFT   
E                                                           SYS / PHASE SHIFT   
J                                                           SYS / PHASE SHIFT   
  0                                                         GLONASS SLOT / FRQ #
 C1C    0.000 C1P    0.000 C2C    0.000 C2P    0.000        GLONASS COD/PHS/BIS 
                                                            END OF HEADER       
> 2021  5 17  2 33 12.9970000  0 13                     
G 8  20022298.865 4 105217885.771 3     -1746.027          32.000  
G21  19549271.324 4 102732149.086 3      1007.588          28.000  
G 1  20509240.582 9                      3258.692          26.000  
G27  22164578.991 4 116475671.333 4     -2896.298          27.000  
J 2  37495993.648 9                      1271.136          21.000  
G 4  22628342.861 4 118912648.259 4     -2702.329          27.000  
E 1  24341491.658 9                      1489.154          23.000  
E13  24264124.185 4 127508822.889 2     -1622.746          31.000  
E18  18795371.559 9                      2759.422          22.000  
G 9  21955912.581 2 115379091.986 1     -1844.224          37.000  
E26  21989541.469 2 115555860.836 2      1135.515          29.000  
E21  23624305.290 9                       191.983          20.000  
J 3  37600799.084 4 197593543.875 4      -663.508          27.000  
> 2021  5 17  2 33 13.9970000  0 14                     
G 8  20022631.558 4 105219632.965 2     -1747.204          32.000  
G21  19549081.850 4 102731142.357 3      1006.859          28.000  
G 1  20508621.331 9                      3259.479          25.000  
G27  22165130.492 4 116478568.432 4     -2896.884          27.000  
J 2  37495753.040 9                      1281.213          21.000  
G 4  22628859.004 4 118915350.734 4     -2701.871          26.000  
G16  23242612.993 9                     -1555.639          15.000  
E 1  24341205.191 9                      1490.233          23.000  
E13  24264433.019 4 127510445.743 2     -1623.030          31.000  
E18  18794846.813 9                      2762.811          22.000  
G 9  21956263.797 2 115380936.713 1     -1844.238          37.000  
E26  21989325.187 4 115554726.021 2      1134.634          28.000  
E21  23624269.888 9                       201.335          20.000  
J 3  37600925.005 4 197594207.260 3      -662.671          27.000  
> 2021  5 17  2 33 14.9970000  0 14                     
G 8  20022964.033 4 105221379.379 2     -1746.393          32.000  
G21  19548892.414 4 102730135.227 3      1007.572          28.000  
G 1  20508002.703 9                      3261.884          25.000  
G27  22165684.938 4 116481464.487 3     -2895.618          27.000  
J 2  37495509.265 9                      1272.613          21.000  
G 4  22629372.429 4 118918052.213 4     -2701.076          26.000  
G16  23242911.348 9                     -1554.480          17.000  
E 1  24340918.650 9                      1491.361          23.000  
E13  24264740.553 4 127512067.975 3     -1621.695          31.000  
E18  18794320.755 9                      2745.224          21.000  
G 9  21956614.607 2 115382780.655 1     -1843.589          37.000  
E26  21989107.495 4 115553590.625 3      1135.716          28.000  
E21  23624232.540 9                       204.079          20.000  
J 3  37601050.477 4 197594869.664 4      -661.725          27.000  
> 2021  5 17  2 33 15.9970000  0 14                     
G 8  20023296.534 4 105223125.490 2     -1746.552          33.000  
G21  19548697.657 2 102729128.212 2      1006.702          28.000  
G 1  20507386.994 9                      3260.724          26.000  
G27  22166240.819 4 116484359.980 3     -2895.464          28.000  
J 2  37495267.143 9                      1276.083          22.000  
G 4  22629884.754 4 118920846.16234     -2701.887          25.000  
G16  23243211.112 9                     -1554.664          18.000  
E 1  24340632.505 9                      1491.811          23.000  
E13  24265049.138 4 127513690.031 3     -1622.512          31.000  
E18  18793796.027 9                      2763.705          21.000  
G 9  21956965.570 2 115384624.323 1     -1843.803          37.000  
E26  21988893.373 4 115552455.131 3      1135.037          28.000  
E21  23624194.800 9                       204.099          21.000  
J 3  37601180.673 4 197595531.526 4      -661.896          27.000  
> 2021  5 17  2 33 16.9970000  0 14                     
G 8  20023629.305 4 105224872.183 3     -1747.485          32.000  
G21  19548506.346 2 102728122.151 3      1005.525          29.000  
G 1  20506767.834 9                      3259.069          26.000  
G27  22166798.715 8 116487255.819 4     -2896.318          29.000  
J 2  37495026.326 9                      1258.204          21.000  
G 4  22630395.600 8 118923547.27625     -2701.662          25.000  
G16  23243508.791 9                     -1550.021          18.000  
E 1  24340347.469 9                      1493.177          23.000  
E13  24265358.243 4 127515312.751 2     -1623.680          32.000  
E18  18793271.469 9                      2758.701          21.000  
G 9  21957316.630 2 115386468.567 1     -1845.526          37.000  
E26  21988678.368 4 115551320.413 2      1133.917          28.000  
E21  23624157.426 9                       199.421          21.000  
J 3  37601305.830 4 197596193.690 4      -662.636          27.000  
> 2021  5 17  2 33 17.9970000  0 14                     
G 8  20023962.351 4 105226620.603 3     -1748.425          33.000  
G21  19548315.689 4 102727118.308 3      1002.787          29.000  
G 1  20506149.185 8 107760541.01235      3257.361          26.000  
G27  22167355.237 4 116490153.198 3     -2897.727          29.000  
J 2  37494785.229 9                      1252.753          21.000  
G 4  22630910.844 8 118926250.02025     -2703.095          24.000  
G16  23243808.904 9                     -1554.120          19.000  
E 1  24340064.230 9                      1491.811          23.000  
E13  24265667.530 4 127516937.368 3     -1625.038          31.000  
E18  18792747.347 9                      2754.302          21.000  
G 9  21957667.907 2 115388314.537 1     -1846.482          37.000  
E26  21988462.928 4 115550187.683 3      1132.104          28.000  
E21  23624121.038 9                       194.534          22.000  
J 3  37601431.812 4 197596857.413 4      -664.323          27.000  
> 2021  5 17  2 33 18.9970000  0 14                     
G 8  20024295.432 4 105228370.191 2     -1749.658          33.000  
G21  19548126.075 8 102726115.805 3      1002.756          29.000  
G 1  20505532.106 8 107757284.73125      3255.966          26.000  
G27  22167911.764 8 116493051.403 4     -2897.584          30.000  
J 2  37494542.728 9                      1271.603          21.000  
G 4  22631426.873 8 118928953.53725     -2704.012          24.000  
G16  23244107.678 9                     -1552.681          20.000  
E 1  24339781.833 9                      1486.163          22.000  
E13  24265977.328 4 127518563.200 2     -1625.952          31.000  
E18  18792219.906 9                      2756.775          21.000  
G 9  21958019.337 2 115390161.632 1     -1847.357          37.000  
E26  21988248.456 4 115549056.264 3      1130.514          28.000  
E21  23624085.566 9                       196.883          22.000  
J 3  37601560.006 4 197597521.972 4      -665.242          27.000  
> 2021  5 17  2 33 19.9970000  0 14                     
G 8  20024628.653 4 105230119.641 2     -1748.621          33.000  
G21  19547936.042 4 102725113.757 3      1002.183          29.000  
G 1  20504912.880 8 107754028.36925      3257.401          26.000  
G27  22168464.871 8 116495949.291 3     -2896.645          30.000  
J 2  37494298.800 9                      1284.276          21.000  
G 4  22631937.702 9                     -2702.325          23.000  
G16  23244406.129 9                     -1563.449          19.000  
E 1  24339498.019 9                      1492.352          21.000  
E13  24266287.031 4 127520189.056 3     -1625.316          31.000  
E18  18791693.306 9                      2753.006          22.000  
G 9  21958370.871 2 115392008.587 1     -1845.538          36.000  
E26  21988033.893 4 115547924.874 3      1132.579          27.000  
E21  23624047.563 9                       199.743          23.000  
J 3  37601687.065 4 197598186.149 4      -663.623          26.000  
> 2021  5 17  2 33 20.9970000  0 14                     
G 8  20024961.223 4 105231868.710 3     -1751.202          31.000  
G21  19547747.480 8 102724111.073 3      1003.006          29.000  
G 1  20504294.637 8 107750770.42825      3257.370          26.000  
G27  22169009.522 9                     -2898.532          29.000  
J 2  37494056.281 9                      1272.189          21.000  
G 4  22632449.164 9                     -2695.904          22.000  
G16  23244702.015 9                     -1556.544          19.000  
E 1  24339215.338 9                      1488.890          20.000  
E13  24266599.708 8 127521815.107 4     -1627.334          31.000  
E18  18791172.605 9                      2753.962          20.000  
G 9  21958721.621 2 115393853.485 1     -1843.588          35.000  
E26  21987818.347 4 115546792.749 3      1131.766          29.000  
E21  23624011.660 9                       195.910          24.000  
J 3  37601808.854 8 197598849.710 5      -665.860          27.000  
> 2021  5 17  2 33 21.9970000  0 14                     
G 8  20025292.874 8 105233620.515 3     -1753.590          30.000  
G21  19547557.669 9                      1001.013          28.000  
G 1  20503672.606 4 107747525.81734      3256.871          26.000  
G27  22169561.355 9                     -2904.462          27.000  
J 2  37493815.499 9                      1274.094          22.000  
G 4  22632958.780 9                     -2695.029          22.000  
G16  23244997.709 9                     -1559.474          21.000  
E 1  24338932.527 9                      1496.515          20.000  
E13  24266903.525 8 127523445.356 4     -1633.495          31.000  
E18  18790650.599 9                      2745.993          20.000  
G 9  21959071.943 4 115395696.332 2     -1840.462          36.000  
E26  21987595.875 8 115545662.019 3      1130.217          28.000  
E21  23623973.326 9                       188.480          24.000  
J 3  37601933.279 9                      -669.842          27.000  
> 2021  5 17  2 33 22.9970000  0 14                     
G 8  20025622.041 8 105235375.829 4     -1756.484          30.000  
G21  19547368.753 9                       998.396          27.000  
G 1  20503052.958 9                      3247.384          25.000  
G27  22170116.211 9                     -2909.997          26.000  
J 2  37493570.646 9                      1274.003          22.000  
G 4  22633467.454 9                     -2663.779          18.000  
G16  23245294.407 9                     -1565.573          21.000  
E 1  24338651.653 9                      1483.340          21.000  
E13  24267219.134 8 127525081.211 4     -1638.016          30.000  
E18  18790127.132 9                      2747.853          18.000  
G 9  21959421.475 4 115397534.573 2     -1835.266          35.000  
E26  21987385.059 8 115544532.019 4      1131.253          29.000  
E21  23623936.925 9                       186.628          26.000  
J 3  37602057.821 9                      -668.984          26.000  
> 2021  5 17  2 33 23.9970000  0 14                     
G 8  20025967.106 8 105237132.886 5     -1759.911          29.000  
G21  19547179.021 9 102721118.77835      1000.142          31.000  
G 1  20502435.281 9                      3256.007          24.000  
G27  22170666.037 9                     -2903.878          24.000  
J 2  37493329.506 9                      1262.453          23.000  
G 4  22633976.547 9                     -2663.779          16.000  
G16  23245587.906 9                     -1569.286          23.000  
E 1  24338365.892 9                      1487.646          21.000  
E13  24267529.674 8 127526721.056 4     -1641.914          30.000  
E18  18789604.175 9                      2756.813          18.000  
G 9  21959769.637 4 115399366.402 2     -1829.084          35.000  
E26  21987178.321 9                      1134.743          20.000  
E21  23623899.695 9                       184.530          26.000  
J 3  37602179.567 9                      -669.764          25.000  
> 2021  5 17  2 33 24.9970000  0 14                     
G 8  20026299.468 9                     -1748.429          19.000  
G21  19546988.221 9                       998.538          24.000  
G 1  20501812.125 9                      3255.331          24.000  
G27  22171220.810 9                     -2908.910          22.000  
J 2  37493085.107 9                      1274.969          24.000  
G 4  22634489.273 9                     -2695.029          13.000  
G16  23245880.965 9                     -1573.043          30.000  
E 1  24338085.986 9                      1486.851          21.000  
E13  24267840.183 8 127528364.556 3     -1644.686          31.000  
E18  18789079.002 9                      2758.009          18.000  
G 9  21960117.516 2 115401195.131 2     -1829.261          35.000  
E26  21986954.967 9                      1130.342          19.000  
E21  23623861.701 9                       181.909          25.000  
J 3  37602308.698 9                      -677.802          25.000  
> 2021  5 17  2 33 25.9970000  0 14                     
G 8  20026636.601 9                     -1752.339          18.000  
G21  19546804.068 9                       995.041          29.000  
G 1  20501191.639 9                      3258.402          25.000  
G27  22171774.854 9                     -2894.697          20.000  
J 2  37492843.016 9                      1264.483          30.000  
G 4  22635001.612 9                     -2695.029          10.000  
G16  23246175.272 9                     -1571.758          26.000  
E 1  24337804.754 9                      1480.532          19.000  
E13  24268149.475 8 127530008.767 2     -1644.580          32.000  
E18  18788556.158 9                      2751.147          17.000  
G 9  21960465.587 4 115403025.127 2     -1829.852          31.000  
E26  21986740.775 9                      1128.420          30.000  
E21  23623827.857 9 124144062.98115       182.622          27.000  
J 3  37602435.160 9                      -670.910          31.000  
> 2021  5 17  2 33 26.9970000  0 14                     
G 8  20026975.441 9                     -1736.085          19.000  
G21  19546609.429 9                      1000.816          28.000  
G 1  20500572.723 9                      3255.350          26.000  
G27  22172327.913 9                     -2899.739          19.000  
J 2  37492599.236 9                      1263.538          28.000  
G 4  22635513.727 9                     -2695.029          10.000  
G16  23246473.370 9                     -1570.278          24.000  
E 1  24337521.053 9                      1486.322          16.000  
E13  24268470.485 8 127531653.216 3     -1644.405          30.000  
E18  18788031.635 9                      2751.147          17.000  
G 9  21960814.225 4 115404855.077 4     -1828.701          26.000  
E26  21986527.184 9                      1128.321          24.000  
E21  23623794.134 8 124143880.878 5       183.517          27.000  
J 3  37602563.917 9                      -669.559          26.000  
> 2021  5 17  2 33 27.9970000  0 15                     
G 8  20027310.948 9                     -1747.534          18.000  
G 7  20027669.122 9                      2377.197          35.000  
G21  19546420.129 9                      1006.419          23.000  
G 1  20499952.870 9                      3265.713          23.000  
G27  22172887.956 9                     -2894.149          19.000  
J 2  37492355.404 9                      1275.409          20.000  
G 4  22636026.040 9                     -2695.029          11.000  
G16  23246773.688 9                     -1560.342          23.000  
E 1  24337237.701 9                      1486.322          13.000  
E13  24268785.474 9                     -1617.002          21.000  
E18  18787494.766 9  98728960.95615      2744.371          33.000  
G 9  21961167.251 9                     -1828.447          22.000  
E26  21986316.935 9                      1137.303          22.000  
E21  23623762.676 9                       182.013          23.000  
J 3  37602692.241 9                      -667.672          23.000  
> 2021  5 17  2 33 28.9970000  0 15                     
G 8  20027648.701 9                     -1734.714          20.000  
G 7  20027216.568 9                      2372.082          25.000  
G21  19546218.304 9 102716069.92835      1007.844          37.000  
G 1  20499332.178 9                      3270.578          24.000  
G27  22173446.371 9                     -2901.161          20.000  
J 2  37492116.297 9                      1274.505          32.000  
G 4  22636538.134 9                     -2695.029          11.000  
G16  23247073.962 9                     -1566.267          22.000  
E 1  24336953.563 9                      1486.322          12.000  
E13  24269092.157 9                     -1617.002          19.000  
E18  18786977.149 9                      2742.956          17.000  
G 9  21961520.876 9                     -1844.046          29.000  
E26  21986091.435 9                      1137.978          34.000  
E21  23623720.525 9                       182.013          21.000  
J 3  37602818.402 9                      -665.038          22.000  
> 2021  5 17  2 33 29.9970000  0 13                     
G 8  20027985.224 9                     -1741.659          30.000  
G 7  20026766.156 9                      2374.296          26.000  
G21  19546028.685 8 102715062.33222      1008.013          39.000  
G 1  20498715.409 9                      3269.265          33.000  
J 2  37491872.688 9 197021119.79034      1278.079          37.000  
G16  23247366.664 9                     -1551.050          23.000  
E 1  24336667.210 9                      1486.322          12.000  
E13  24269402.754 9                     -1628.218          34.000  
E18  18786453.442 9                      2740.029          38.000  
G 9  21961867.075 9                     -1851.221          32.000  
E26  21985871.680 9 115536545.16713      1135.711          37.000  
E21  23623683.988 9 124143307.39315       197.849          38.000  
J 3  37602941.326 9 197604789.53834      -659.523          37.000  
> 2021  5 17  2 33 30.9970000  0 14                     
G 8  20028311.417 9                     -1758.099          42.000  
G 7  20026311.818 9 105238978.64934      2368.164          39.000  
G21  19545834.805 4 102714053.63322      1009.241          39.000  
G 1  20498076.134 8 107718116.88833      3270.271          39.000  
G27  22174550.381 9                     -2900.470          34.000  
J 2  37491628.271 8 197019840.24822      1279.163          39.000  
G16  23247663.636 9                     -1553.347          22.000  
E 1  24336384.110 9                      1486.322          12.000  
E13  24269716.805 9 127538209.44714     -1629.282          33.000  
E18  18785932.893 9  98720749.15412      2739.260          39.000  
G 9  21962224.499 9                     -1838.446          25.000  
E26  21985656.885 8 115535408.712 2      1136.890          37.000  
E21  23623647.888 8 124143109.517 2       198.067          37.000  
J 3  37603065.955 8 197605448.98322      -660.178          37.000  
> 2021  5 17  2 33 31.9970000  0 14                     
G 8  20028640.720 9 105251216.40034     -1761.896          40.000  
G 7  20025860.333 8 105236611.12822      2365.839          38.000  
G21  19545641.496 4 102713043.36822      1010.492          36.000  
G 1  20497450.700 8 107714845.04822      3273.271          39.000  
G27  22175103.352 9                     -2900.969          36.000  
J 2  37491380.618 4 197018560.00522      1281.512          38.000  
G16  23247957.864 9                     -1549.121          20.000  
E 1  24336101.705 9                      1486.322          14.000  
E13  24270027.415 9                     -1633.180          33.000  
E18  18785409.906 8  98718010.105 1      2738.173          38.000  
G 9  21962580.265 9                     -1826.398          21.000  
E26  21985440.363 8 115534270.861 1      1138.180          36.000  
E21  23623601.553 8 124142911.851 3       197.626          33.000  
J 3  37603193.573 4 197606107.96122      -659.726          37.000  
> 2021  5 17  2 33 32.9970000  0 13                     
G 8  20028977.509 8 105252980.02024     -1765.283          37.000  
G 7  20025411.727 4 105234246.87721      2362.311          38.000  
G21  19545449.434 4 102712032.04722      1011.629          37.000  
G 1  20496828.714 4 107711570.31122      3276.028          37.000  
G27  22175653.876 9                     -2906.764          34.000  
J 2  37491138.151 8 197017280.52122      1277.848          34.000  
G16  23248256.010 9                     -1557.098          17.000  
E 1  24335817.746 9                      1485.712          16.000  
E13  24270333.588 9                     -1625.132          27.000  
E18  18784889.614 8  98715273.440 1      2735.187          38.000  
E26  21985227.710 4 115533132.307 1      1138.794          36.000  
E21  23623574.100 8 124142715.964 3       193.972          38.000  
J 3  37603317.862 8 197606767.77623      -659.365          37.000  
> 2021  5 17  2 33 33.9970000  0 14                     
G 8  20029311.990 8 105254746.46523     -1767.969          37.000  
G 7  20024961.219 4 105231885.25121      2360.449          37.000  
G21  19545257.774 4 102711020.06521      1011.642          38.000  
G 1  20496211.351 8                      3275.337          31.000  
G27  22176202.210 9                     -2897.038          33.000  
J 2  37490895.388 8 197016001.64623      1277.104          31.000  
G 4  22639138.351 9                     -2707.170          22.000  
E 1  24335536.854 9                      1472.354          17.000  
E13  24270650.471 9                     -1634.117          33.000  
E18  18784375.492 4  98712538.767 1      2733.889          38.000  
G 9  21963300.929 9                     -1850.828          20.000  
E26  21985008.361 4 115531993.247 1      1138.801          36.000  
E21  23623535.129 8 124142521.751 2       194.139          37.000  
J 3  37603444.127 4 197607428.34622      -660.249          38.000  
> 2021  5 17  2 33 34.9970000  0 15                     
G 8  20029649.656 8 105256514.16023     -1768.164          39.000  
G 7  20024512.967 4 105229525.79821      2358.527          37.000  
G21  19545065.595 2 102710007.13721      1013.322          38.000  
G 1  20495604.938 9                      3277.432          24.000  
G27  22176758.313 9                     -2898.145          29.000  
J 2  37490656.674 9                      1281.087          22.000  
G 4  22639646.812 9                     -2647.478          21.000  
G16  23248860.258 9                     -1544.476          16.000  
E 1  24335256.931 9                      1472.354          15.000  
E13  24270956.050 8 127544773.54513     -1634.664          33.000  
E18  18783852.443 4  98709805.836 1      2731.815          38.000  
G 9  21963663.789 9                     -1828.766          23.000  
E26  21984791.363 4 115530853.472 2      1140.244          36.000  
E21  23623499.518 4 124142327.355 2       195.437          39.000  
J 3  37603569.952 4 197608088.53322      -659.861          36.000  
> 2021  5 17  2 33 35.9970000  0 15                     
G 8  20029985.569 4 105258282.72422     -1769.635          36.000  
G 7  20024063.916 4 105227168.86922      2355.499          34.000  
G21  19544872.744 4 102708993.59522      1014.249          34.000  
G 1  20494980.003 9                      3280.694          22.000  
G27  22177305.565 9                     -2907.568          33.000  
J 2  37490412.593 9                      1281.087          19.000  
G 4  22640146.267 9                     -2688.005          19.000  
G16  23249158.875 9                     -1541.667          16.000  
E 1  24334955.679 9                      1453.226          21.000  
E13  24271269.460 8 127546407.032 3     -1632.689          33.000  
E18  18783332.955 4  98707074.785 1      2729.864          35.000  
G 9  21964015.903 9                     -1826.797          22.000  
E26  21984573.131 2 115529713.411 1      1140.426          35.000  
E21  23623460.940 8                       194.914          27.000  
J 3  37603698.146 9                      -656.526          16.000  
> 2021  5 17  2 33 36.9970000  0 15                     
G 8  20030323.056 4 105260051.49522     -1768.945          36.000  
G 7  20023615.567 4 105224813.62122      2354.626          33.000  
G21  19544679.670 4 102707978.795 2      1016.114          34.000  
G 1  20494356.005 9                      3266.831          20.000  
G27  22177860.714 9                     -2906.266          20.000  
J 2  37490170.807 9                      1281.087          14.000  
G 4  22640652.476 9                     -2674.333          17.000  
G16  23249451.847 9                     -1541.667          14.000  
E 1  24334660.356 9                      1457.428          25.000  
E13  24271583.268 9                     -1638.042          18.000  
E18  18782812.991 2  98704344.898 1      2729.324          34.000  
G 9  21964339.679 9 115423383.59735     -1851.885          33.000  
E26  21984357.428 2 115528572.375 1      1141.682          31.000  
E21  23623425.014 9                       196.584          12.000  
J 3  37603821.864 9                      -656.526          13.000  
> 2021  5 17  2 33 37.9970000  0 15                     
G 8  20030658.842 8 105261821.30324     -1768.011          28.000  
G 7  20023167.284 4 105222460.27022      2352.899          33.000  
G21  19544486.426 4 102706963.518 2      1014.482          33.000  
G 1  20493726.628 9                      3285.099          27.000  
G27  22178414.387 9                     -2906.266          17.000  
J 2  37489930.025 9                      1281.087          11.000  
G 4  22641159.252 9                     -2713.518          17.000  
G16  23249745.791 9                     -1541.667          13.000  
E 1  24334374.521 8 127878057.03015      1455.216          27.000  
E13  24271895.949 9                     -1638.042          14.000  
E18  18782294.265 2  98701616.482 1      2728.337          34.000  
G 9  21964696.218 8 115425237.13723     -1855.211          34.000  
E26  21984140.832 4 115527430.901 2      1141.993          32.000  
E21  23623388.399 9                       196.584          11.000  
J 3  37603947.906 9                      -656.526          12.000  
> 2021  5 17  2 33 38.9970000  0 14                     
G 8  20030996.438 9                     -1770.970          32.000  
G 7  20022719.512 4 105220108.60022      2351.410          32.000  
G21  19544293.414 4 102705947.908 2      1015.416          32.000  
G 1  20493114.683 9                      3225.622          26.000  
G27  22178977.157 9                     -2906.266          13.000  
J 2  37489692.689 9                      1284.206          21.000  
G 4  22641670.156 9                     -2713.518          16.000  
G16  23250042.057 9                     -1541.667          11.000  
E 1  24334098.350 8 127876602.555 5      1453.924          26.000  
E18  18781775.449 4  98698889.593 2      2726.400          33.000  
G 9  21965049.048 9                     -1859.749          23.000  
E26  21983923.359 4 115526289.320 2      1141.342          31.000  
E21  23623350.964 9                       196.584          11.000  
J 3  37604073.570 9                      -655.410          25.000  
> 2021  5 17  2 33 39.9970000  0 11                     
G 8  20031332.625 9                     -1772.411          18.000  
G 7  20022272.280 4 105217757.76222      2351.642          33.000  
G21  19544100.336 4 102704932.090 3      1016.499          31.000  
G 1  20492504.685 9                      3287.484          25.000  
J 2  37489445.471 9                      1278.939          24.000  
G 4  22642185.570 9                     -2713.518          15.000  
E 1  24333820.726 8                      1453.717          26.000  
E18  18781256.514 2  98696163.508 2      2726.019          33.000  
G 9  21965440.317 9                     -1853.109          24.000  
E26  21983706.330 4 115525147.492 2      1141.406          31.000  
J 3  37604199.752 9                      -657.184          28.000  
> 2021  5 17  2 33 40.9970000  0 13                     
G 8  20031671.412 9                     -1771.326          28.000  
G 7  20021825.031 4 105215406.56922      2351.495          34.000  
G21  19543906.913 4 102703916.086 2      1015.620          32.000  
G 1  20491868.302 9                      3228.379          26.000  
J 2  37489203.236 9                      1278.726          25.000  
G 4  22642698.536 9                     -2726.945          17.000  
G16  23250629.379 9                     -1541.667          11.000  
E 1  24333540.353 8 127873693.936 5      1454.769          27.000  
E18  18780737.802 2  98693437.416 1      2725.511          34.000  
G 9  21965818.066 9                     -1857.608          31.000  
E26  21983488.944 4 115524005.245 2      1141.445          32.000  
E21  23623286.647 9                       198.404          18.000  
J 3  37604327.680 9                      -653.089          27.000  
> 2021  5 17  2 33 41.9970000  0 11                     
G 8  20032011.103 9                     -1772.304          26.000  
G21  19543713.884 4 102702901.838 3      1014.580          32.000  
G 1  20491258.700 9                      3246.263          25.000  
G27  22180662.839 9                     -2864.603          27.000  
J 2  37488949.419 9 197005757.92135      1283.698          31.000  
G16  23250923.166 9                     -1541.667          11.000  
E13  24273150.917 9                     -1630.103          24.000  
E18  18780219.404 2  98690712.456 2      2725.036          35.000  
E26  21983271.811 4 115522864.454 2      1139.973          33.000  
E21  23623243.702 9                       196.674          30.000  
J 3  37604450.512 9 197612720.40235      -656.639          35.000  
> 2021  5 17  2 33 42.9970000  0 13                     
G 8  20032347.041 9                     -1771.510          24.000  
G 7  20020927.195 9                      2351.609          32.000  
G21  19543521.150 4 102701888.481 3      1011.983          33.000  
G 1  20490641.364 9                      3225.265          23.000  
G27  22181222.734 9                     -2868.274          14.000  
J 2  37488705.355 9 197004474.50324      1284.425          35.000  
G 4  22643723.409 9                     -2685.319          17.000  
G16  23251216.308 9                     -1541.667          12.000  
E13  24273461.469 9                     -1632.358          22.000  
E18  18779700.954 2  98687987.720 1      2724.887          35.000  
E26  21983054.983 4 115521724.225 3      1139.728          32.000  
E21  23623200.704 9 124140796.76815       196.757          30.000  
J 3  37604564.497 9                      -658.040          27.000  
> 2021  5 17  2 33 43.9970000  0 13                     
G 8  20032683.595 9                     -1743.371          23.000  
G 7  20020490.059 9 105208384.53634      2351.636          34.000  
G21  19543329.451 4 102700876.799 2      1010.519          33.000  
G 1  20490014.866 9                      3272.513          22.000  
G27  22181770.636 9                     -2877.712          15.000  
J 2  37488459.046 4 197003191.33222      1283.402          37.000  
G16  23251509.899 9                     -1541.667          11.000  
G 9  21966879.877 9                     -1882.156          34.000  
E13  24273774.086 9                     -1639.771          24.000  
E18  18779182.905 2  98685263.768 1      2724.263          35.000  
E26  21982837.951 4 115520585.376 3      1138.896          32.000  
E21  23623173.835 9                       194.305          23.000  
J 3  37604692.834 8 197613977.04034      -656.600          34.000  
> 2021  5 17  2 33 44.9970000  0 12                     
G 8  20033019.647 9                     -1765.182          22.000  
G 7  20020035.939 9 105206030.25522      2356.641          36.000  
G21  19543137.424 4 102699867.272 2      1007.983          36.000  
G 1  20489386.815 9                      3274.491          29.000  
G27  22182322.743 9                     -2877.426          17.000  
J 2  37488217.421 9                      1281.738          28.000  
G16  23251803.429 9                     -1541.667          11.000  
E13  24274086.951 9                     -1640.249          23.000  
E18  18778663.940 2  98682538.181 1      2727.113          35.000  
E26  21982621.062 4 115519447.866 2      1135.910          34.000  
E21  23623145.575 9                       194.076          23.000  
J 3  37604822.695 8 197614634.37722      -657.652          39.000  
> 2021  5 17  2 33 45.9970000  0 13                     
G 8  20033354.329 9                     -1759.511          21.000  
G 7  20019586.050 8 105203669.62723      2365.856          34.000  
G21  19542944.386 4 102698862.591 2      1001.687          34.000  
G 1  20488758.490 9                      3265.086          26.000  
G27  22182874.855 9                     -2889.836          17.000  
J 2  37487978.510 9                      1284.573          20.000  
G 4  22645263.875 9                     -2721.452          21.000  
G16  23252097.073 9                     -1542.554          11.000  
E13  24274399.297 9                     -1622.761          20.000  
E18  18778144.961 2  98679809.685 2      2730.359          34.000  
E26  21982405.412 4 115518313.598 2      1132.313          34.000  
E21  23623107.930 9                       194.257          23.000  
J 3  37604958.244 8                      -658.572          29.000  
> 2021  5 17  2 33 46.9970000  0 13                     
G 8  20033690.128 9                     -1755.817          34.000  
G 7  20019132.209 4 105201302.19322      2370.978          36.000  
G21  19542754.872 4 102697864.731 2       994.329          35.000  
G 1  20488136.730 9                      3257.599          24.000  
G27  22183431.107 9                     -2897.187          19.000  
J 2  37487739.394 9                      1284.573          18.000  
G 4  22645778.609 9                     -2721.818          21.000  
G16  23252393.923 9                     -1560.801          14.000  
E13  24274715.320 9                     -1625.662          20.000  
E18  18777625.556 2  98677077.995 1      2733.804          37.000  
E26  21982190.644 4 115517184.272 2      1127.700          34.000  
E21  23623072.040 9                       190.270          21.000  
J 3  37605091.760 9                      -671.446          21.000  
> 2021  5 17  2 33 47.9970000  0 14                     
G 8  20034021.128 8 105279506.91233     -1754.205          37.000  
G 7  20018683.743 4 105198927.81421      2376.282          37.000  
G21  19542562.658 4 102696874.074 2       987.230          37.000  
G 1  20487517.365 9                      3257.349          24.000  
G27  22183988.772 9                     -2894.003          21.000  
J 2  37487499.192 9                      1279.324          17.000  
G 4  22646284.600 9                     -2692.733          29.000  
G16  23252690.027 9                     -1527.251          17.000  
G 9  21968283.882 9                     -1852.876          24.000  
E13  24275030.994 9                     -1640.021          20.000  
E18  18777105.282 1  98674343.588 1      2735.195          37.000  
E26  21981976.852 2 115516060.268 2      1121.923          35.000  
E21  23623034.081 9                       199.955          21.000  
J 3  37605218.544 9                      -664.107          20.000  
> 2021  5 17  2 33 48.9970000  0 14                     
G 8  20034356.089 4 105281261.30022     -1755.371          37.000  
G 7  20018229.924 4 105196551.16721      2375.531          37.000  
G21  19542376.909 4 102695888.094 2       983.860          36.000  
G 1  20486896.211 9                      3247.011          30.000  
G27  22184549.823 9                     -2897.093          23.000  
J 2  37487262.201 9                      1279.324          15.000  
G 4  22646788.902 9 119009678.42835     -2701.004          25.000  
G16  23252987.091 9                     -1550.186          21.000  
E 1  24331305.268 9 127861882.22015      1491.637          33.000  
E13  24275343.816 9                     -1640.021          19.000  
E18  18776584.633 2  98671608.984 1      2733.227          37.000  
E26  21981763.453 2 115514939.924 2      1119.152          34.000  
E21  23623001.362 9                       186.773          23.000  
J 3  37605346.533 9                      -664.107          18.000  
> 2021  5 17  2 33 49.9970000  0 14                     
G 8  20034690.736 4 105283017.27221     -1756.976          37.000  
G 7  20017776.506 2 105194176.25421      2374.170          36.000  
G21  19542191.461 4 102694904.196 2       983.128          36.000  
G 1  20486277.640 9 107656119.10534      3245.894          29.000  
G27  22185111.200 9                     -2886.229          23.000  
J 2  37487019.573 9                      1279.324          11.000  
G 4  22647295.709 9 119012379.97624     -2701.272          27.000  
G16  23253286.065 9                     -1561.810          22.000  
E 1  24331022.871 9 127860390.982 3      1490.937          33.000  
E13  24275655.123 9                     -1640.021          16.000  
E18  18776064.786 1  98668876.494 1      2731.709          36.000  
E26  21981550.482 2 115513821.503 1      1117.736          34.000  
E21  23622963.678 9                       193.496          23.000  
J 3  37605471.018 9                      -664.107          15.000  
> 2021  5 17  2 33 50.9970000  0 14                     
G 8  20035027.473 2 105284773.56821     -1756.244          37.000  
G 7  20017326.278 2 105191801.85521      2374.518          36.000  
G21  19542003.575 2 102693921.039 1       983.045          36.000  
G 1  20485660.369 8 107652872.90025      3246.846          28.000  
G27  22185669.978 9                     -2893.401          23.000  
J 2  37486778.729 9                      1279.324          11.000  
G 4  22647804.871 8 119015081.65824     -2701.527          28.000  
G16  23253587.692 9                     -1551.781          24.000  
E 1  24330735.165 9 127858899.741 2      1491.458          34.000  
E13  24275968.224 9                     -1640.021          13.000  
E18  18775544.883 1  98666144.862 1      2731.043          36.000  
E26  21981337.515 2 115512703.618 2      1117.544          34.000  
E21  23622926.771 9                       196.675          23.000  
J 3  37605598.863 9                      -664.107          13.000  
> 2021  5 17  2 33 51.9970000  0 13                     
G 8  20035359.053 2 105286530.26621     -1756.451          37.000  
G 7  20016875.390 2 105189428.00121      2374.182          36.000  
G21  19541816.513 2 102692938.663 1       982.041          36.000  
G 1  20485041.502 8 107649627.25925      3246.215          27.000  
G27  22186228.752 9                     -2925.980          25.000  
J 2  37486532.193 9                      1279.324          12.000  
G 4  22648312.838 8 119017783.46923     -2702.021          28.000  
G16  23253887.635 9                     -1549.165          24.000  
E 1  24330452.668 8 127857408.618 1      1491.640          34.000  
E13  24276280.805 9                     -1635.162          12.000  
E18  18775025.303 1  98663414.096 1      2730.583          36.000  
E26  21981124.941 2 115511586.298 2      1117.259          34.000  
E21  23622890.767 9                       188.673          23.000  
> 2021  5 17  2 33 52.9970000  0 12                     
G 8  20035695.655 2 105288286.42721     -1756.024          38.000  
G 7  20016424.158 2 105187053.86021      2373.901          36.000  
G21  19541629.538 2 102691956.137 1       982.120          36.000  
G 1  20484421.805 8                      3245.440          25.000  
G27  22186788.393 9                     -2895.930          25.000  
J 2  37486289.395 9                      1279.324          11.000  
G 4  22648821.818 4 119020484.36123     -2700.525          28.000  
G16  23254189.114 9                     -1552.488          25.000  
E 1  24330168.290 8 127855916.690 2      1492.427          34.000  
E18  18774505.365 1  98660683.320 1      2730.251          36.000  
E26  21980911.931 2 115510468.663 1      1117.567          34.000  
E21  23622852.407 9                       195.226          24.000  
> 2021  5 17  2 33 53.9970000  0 11                     
G 8  20036029.783 2 105290043.08821     -1756.976          38.000  
G 7  20015972.721 2 105184680.36721      2372.778          37.000  
G21  19541442.855 2 102690974.465 1       981.424          36.000  
G 1  20483799.796 9                      3242.546          22.000  
G27  22187343.450 9                     -2897.816          25.000  
G 4  22649331.787 4 119023185.60523     -2701.840          28.000  
G16  23254493.660 9                     -1556.782          25.000  
E 1  24329891.067 4 127854424.982 2      1491.230          34.000  
E18  18773986.378 2  98657953.548 1      2728.956          36.000  
E26  21980699.221 2 115509351.739 1      1116.411          34.000  
E21  23622812.302 9                       194.769          25.000  
> 2021  5 17  2 33 54.9970000  0 12                     
G 8  20036363.231 2 105291800.053 1     -1756.952          38.000  
G 7  20015521.210 2 105182307.38721      2372.357          36.000  
G21  19541256.413 2 102689993.518 1       980.570          36.000  
G 1  20483179.389 9                      3243.837          20.000  
G27  22187897.917 9                     -2897.196          26.000  
G 4  22649843.174 4 119025886.79923     -2701.393          28.000  
G16  23254793.341 8                     -1555.605          26.000  
G 9  21970729.408 9                     -1854.687          25.000  
E 1  24329605.582 4 127852933.303 1      1491.281          34.000  
E18  18773467.317 1  98655224.629 1      2728.074          37.000  
E26  21980486.966 2 115508235.339 2      1115.904          34.000  
E21  23622775.556 9                       203.825          25.000  
> 2021  5 17  2 33 55.9970000  0 11                     
G 8  20036697.481 1 105293557.142 1     -1756.476          38.000  
G 7  20015069.821 2 105179934.69221      2372.949          36.000  
G21  19541070.123 2 102689013.062 1       980.954          36.000  
G27  22188450.570 9                     -2894.772          26.000  
G 4  22650353.698 4 119028587.81523     -2700.146          28.000  
G16  23255091.936 9                     -1555.800          26.000  
G 9  21971081.584 9                     -1854.230          26.000  
E 1  24329322.814 4 127851441.397 1      1492.668          34.000  
E18  18772948.121 2  98652496.297 1      2728.537          36.000  
E26  21980274.444 2 115507119.259 2      1116.315          34.000  
E21  23622739.495 9                       192.232          25.000  
> 2021  5 17  2 33 56.9970000  0 11                     
G 8  20037031.661 1 105295313.509 1     -1756.476          38.000  
G 7  20014618.305 2 105177561.46621      2373.279          36.000  
G21  19540883.227 2 102688032.287 1       980.387          36.000  
G27  22189003.384 9                     -2895.598          26.000  
G 4  22650866.800 4 119031287.89724     -2699.963          28.000  
G16  23255389.087 9                     -1556.731          26.000  
G 9  21971434.196 9                     -1853.491          26.000  
E 1  24329036.046 2 127849948.544 1      1492.667          34.000  
E18  18772429.060 2  98649767.788 1      2728.166          37.000  
E26  21980061.638 2 115506002.681 1      1116.155          34.000  
E21  23622704.464 9                       194.165          26.000  
> 2021  5 17  2 33 57.9970000  0 12                     
G 8  20037366.300 1 105297070.927 1     -1758.014          38.000  
G 7  20014167.042 2 105175189.52221      2371.362          36.000  
G21  19540697.173 2 102687052.983 1       978.524          36.000  
G27  22189556.342 8 116606905.42735     -2896.764          26.000  
G 4  22651382.266 4 119033988.77824     -2701.179          27.000  
G16  23255685.497 9                     -1556.183          26.000  
G 9  21971789.570 9                     -1854.912          25.000  
E 1  24328753.291 2 127848456.443 1      1492.200          34.000  
E18  18771910.300 1  98647040.864 1      2726.105          36.000  
E26  21979849.679 2 115504887.354 1      1114.785          34.000  
E21  23622667.731 9                       193.613          25.000  
J 3  37606474.061 9                      -659.929          13.000  
> 2021  5 17  2 33 58.9970000  0 12                     
G 8  20037701.134 1 105298829.004 1     -1758.221          38.000  
G 7  20013716.120 2 105172818.41821      2371.344          37.000  
G21  19540511.140 2 102686074.675 1       978.466          36.000  
G27  22190109.663 4 116609802.57524     -2896.973          27.000  
G 4  22651896.768 4 119036690.04524     -2701.308          27.000  
G16  23255981.164 9                     -1555.896          25.000  
G 9  21972139.769 9                     -1855.242          24.000  
E 1  24328469.337 2 127846964.779 1      1491.714          34.000  
E18  18771391.679 1  98644315.101 1      2725.379          37.000  
E26  21979638.008 2 115503772.939 1      1114.101          34.000  
E21  23622633.721 9                       191.456          26.000  
J 3  37606599.000 9                      -659.929          13.000  
> 2021  5 17  2 33 59.9970000  0 12                     
G 8  20038035.633 1 105300586.356 1     -1757.147          39.000  
G 7  20013264.770 1 105170446.81421      2371.759          37.000  
G21  19540325.012 2 102685096.114 1       978.637          37.000  
G 1  20480092.310 9                      3242.926          22.000  
G27  22190659.161 4 116612698.80524     -2896.125          27.000  
G 4  22652412.501 4 119039390.36223     -2700.250          28.000  
G16  23256276.295 9                     -1556.041          25.000  
E 1  24328184.929 2 127845472.087 1      1492.770          34.000  
E18  18770873.107 1  98641589.158 1      2725.963          37.000  
E26  21979425.840 2 115502657.976 1      1115.280          34.000  
E21  23622598.039 9                       193.999          26.000  
J 3  37606724.406 9                      -659.929          13.000  
> 2021  5 17  2 34  0.9970000  0 11                     
G 8  20038370.202 1 105302344.232 1     -1758.325          39.000  
G 7  20012813.717 2 105168075.90321      2370.447          37.000  
G21  19540139.150 2 102684118.439 1       977.079          37.000  
G 1  20479474.223 9                      3244.352          22.000  
G 4  22652924.255 4 119042090.86523     -2700.653          28.000  
G16  23256572.221 9                     -1556.068          25.000  
E 1  24327900.970 2 127843979.623 1      1492.101          34.000  
E18  18770354.669 1  98638864.260 1      2724.172          37.000  
E26  21979214.051 2 115501543.764 1      1114.050          34.000  
E21  23622562.790 9                       191.671          26.000  
J 3  37606850.842 9                      -660.450          13.000  
> 2021  5 17  2 34  1.9970000  0 12                     
G 8  20038704.840 1 105304102.373 1     -1758.386          39.000  
G 7  20012362.550 2 105165705.42821      2370.276          37.000  
G21  19539953.034 2 102683141.395 1       976.910          37.000  
G 1  20478857.109 9                      3236.281          23.000  
G27  22191754.717 9                     -2870.325          27.000  
G 4  22653432.981 4 119044791.39723     -2700.741          28.000  
G16  23256867.321 9                     -1556.184          24.000  
E 1  24327616.929 2 127842487.115 1      1492.868          34.000  
E18  18769836.245 1  98636140.092 1      2723.939          37.000  
E26  21979002.074 2 115500430.022 2      1113.675          34.000  
E21  23622528.247 8 124137233.85915       192.536          27.000  
J 3  37606977.914 9                      -660.450          14.000  
> 2021  5 17  2 34  2.9970000  0 12                     
G 8  20039039.409 1 105305860.856 1     -1758.502          39.000  
G 7  20011911.636 2 105163335.54121      2369.550          37.000  
G21  19539767.320 2 102682165.126 1       975.927          36.000  
G 1  20478240.179 9                      3238.534          23.000  
G27  22192309.132 9                     -2897.184          27.000  
G 4  22653945.555 4 119047491.94423     -2700.039          28.000  
G16  23257162.871 9                     -1556.401          23.000  
E 1  24327332.870 2 127840994.711 1      1492.956          34.000  
E18  18769317.856 1  98633416.844 1      2723.032          37.000  
E26  21978790.329 2 115499316.866 2      1113.235          34.000  
E21  23622491.763 8 124137041.287 4       192.555          27.000  
J 3  37607104.585 9                      -665.099          15.000  
> 2021  5 17  2 34  3.9970000  0 12                     
G 8  20039373.768 1 105307618.509 1     -1757.422          38.000  
G 7  20011460.500 2 105160964.97421      2370.679          37.000  
G21  19539581.371 2 102681188.414 1       976.392          36.000  
G 1  20477624.492 9                      3245.646          23.000  
G27  22192868.590 9 116624266.34235     -2894.626          27.000  
G 4  22654457.706 4 119050191.50524     -2699.959          27.000  
G16  23257457.640 9                     -1549.489          23.000  
E 1  24327048.357 2 127839501.214 1      1493.971          34.000  
E18  18768799.593 1  98630693.280 1      2723.448          37.000  
E26  21978578.462 2 115498203.071 2      1114.035          34.000  
E21  23622456.749 4 124136847.651 4       194.245          27.000  
J 3  37607230.196 9                      -665.099          14.000  
> 2021  5 17  2 34  4.9970000  0 13                     
G 8  20039708.385 1 105309376.537 1     -1758.398          39.000  
G 7  20011009.404 2 105158595.02921      2368.781          37.000  
G21  19539395.766 2 102680212.454 1       974.776          36.000  
G 1  20477006.003 9                      3252.307          22.000  
G27  22193423.132 9 116627162.07925     -2896.150          27.000  
G 4  22654971.287 4 119052891.08724     -2700.060          28.000  
G16  23257754.106 9                     -1555.178          22.000  
G 9  21974251.891 9                     -1857.259          15.000  
E 1  24326764.071 2 127838007.793 1      1492.786          34.000  
E18  18768281.570 1  98627970.615 1      2721.601          37.000  
E26  21978366.899 2 115497089.887 2      1112.356          34.000  
E21  23622421.648 4 124136654.337 3       192.892          27.000  
J 3  37607356.671 9                      -657.770          15.000  
> 2021  5 17  2 34  5.9970000  0 12                     
G 8  20040043.102 1 105311135.761 1     -1759.894          38.000  
G 7  20010558.725 2 105156226.38921      2368.237          37.000  
G21  19539210.379 2 102679238.037 1       973.943          36.000  
G27  22193972.591 8 116630058.63524     -2896.519          27.000  
G 4  22655484.878 4 119055591.55024     -2700.224          28.000  
G16  23258049.861 9                     -1556.781          22.000  
G 9  21974605.594 9                     -1857.259          18.000  
E 1  24326479.934 2 127836515.234 2      1492.546          34.000  
E18  18767764.023 1  98625249.604 1      2720.440          37.000  
E26  21978155.416 2 115495978.059 1      1111.415          34.000  
E21  23622385.535 4 124136462.011 4       192.189          27.000  
J 3  37607482.823 9                      -662.575          16.000  
> 2021  5 17  2 34  6.9970000  0 12                     
G 8  20040377.867 1 105312895.031 1     -1758.472          38.000  
G 7  20010108.130 2 105153858.042 1      2369.037          37.000  
G21  19539024.993 2 102678264.083 1       974.870          36.000  
G27  22194520.864 8 116632955.12224     -2895.823          27.000  
G 4  22655998.451 4 119058291.91824     -2699.485          28.000  
G16  23258351.222 9                     -1558.015          21.000  
G 9  21974959.807 9                     -1857.259          20.000  
E 1  24326195.980 2 127835022.520 1      1493.395          34.000  
E18  18767246.751 1  98622529.220 1      2720.750          37.000  
E26  21977943.509 2 115494866.492 2      1112.756          34.000  
E21  23622350.080 4 124136269.621 3       193.236          27.000  
J 3  37607608.443 9                      -660.300          17.000  
> 2021  5 17  2 34  7.9970000  0 12                     
G 8  20040712.645 1 105314653.474 1     -1758.990          38.000  
G 7  20009657.055 2 105151489.028 1      2368.713          36.000  
G21  19538839.553 2 102677289.712 1       973.775          36.000  
G27  22195073.181 8 116635850.44024     -2895.065          27.000  
G 4  22656514.284 4 119060991.06924     -2699.337          28.000  
G16  23258649.652 9                     -1566.576          20.000  
G 9  21975314.784 9                     -1857.259          21.000  
E 1  24325911.825 2 127833528.620 1      1494.184          34.000  
E18  18766728.937 1  98619808.481 1      2720.361          37.000  
E26  21977731.659 2 115493754.356 1      1111.694          34.000  
E21  23622313.849 4 124136076.246 4       192.980          27.000  
J 3  37607735.297 9                      -658.156          16.000  
> 2021  5 17  2 34  8.9970000  0 12                     
G 8  20041047.078 2 105316412.914 1     -1760.309          38.000  
G 7  20009206.416 2 105149121.263 1      2367.023          36.000  
G21  19538654.594 2 102676316.730 1       972.253          36.000  
G27  22195624.416 4 116638746.66424     -2896.828          27.000  
G 4  22657028.899 4 119063691.00924     -2700.355          28.000  
G16  23258951.710 9                     -1553.485          20.000  
G 9  21975669.194 9                     -1857.259          23.000  
E 1  24325627.757 2 127832035.495 1      1492.619          34.000  
E18  18766211.722 1  98617089.302 1      2717.949          37.000  
E26  21977520.542 4 115492643.405 2      1109.952          34.000  
E21  23622276.955 4 124135883.734 4       191.756          27.000  
J 3  37607860.442 9                      -661.106          17.000  
> 2021  5 17  2 34  9.9970000  0 12                     
G 8  20041381.935 2 105318173.319 1     -1760.583          38.000  
G 7  20008756.031 2 105146754.613 1      2366.284          36.000  
G21  19538469.447 2 102675345.076 2       971.245          36.000  
G27  22196173.845 4 116641643.43424     -2896.948          27.000  
G 4  22657541.015 4 119066391.64223     -2700.462          28.000  
G16  23259253.084 9                     -1547.671          19.000  
G 9  21976022.364 9                     -1857.259          24.000  
E 1  24325344.021 2 127830543.026 1      1492.605          34.000  
E18  18765694.227 1  98614371.584 1      2717.189          37.000  
E26  21977309.578 2 115491533.595 1      1110.038          34.000  
E21  23622241.588 4 124135691.981 4       191.891          27.000  
J 3  37607986.227 9                      -661.106          16.000  
> 2021  5 17  2 34 10.9970000  0 12                     
G 8  20041716.499 2 105319933.718 1     -1760.400          38.000  
G 7  20008305.444 2 105144388.157 1      2366.937          36.000  
G21  19538284.549 2 102674373.836 1       970.652          36.000  
G27  22196727.130 4 116644540.01924     -2895.879          27.000  
G 4  22658053.127 2 119069091.97623     -2700.319          28.000  
G16  23259552.779 9                     -1559.679          18.000  
G 9  21976375.535 9                     -1857.958          25.000  
E 1  24325059.983 2 127829050.294 1      1492.522          34.000  
E18  18765177.399 1  98611654.365 1      2716.968          37.000  
E26  21977098.670 2 115490424.055 1      1109.402          34.000  
E21  23622206.893 4 124135500.138 4       192.307          26.000  
J 3  37608111.812 9                      -661.198          16.000  
> 2021  5 17  2 34 11.9970000  0 12                     
G 8  20042051.330 2 105321693.938 1     -1759.943          37.000  
G 7  20007855.076 2 105142021.728 1      2366.339          35.000  
G21  19538099.664 2 102673402.762 1       970.895          35.000  
G27  22197276.799 4                     -2895.927          26.000  
G 4  22658563.301 4 119071791.82224     -2698.977          27.000  
G16  23259852.264 9                     -1557.944          16.000  
G 9  21976725.604 9                     -1857.286          25.000  
E 1  24324775.462 2 127827557.027 2      1493.794          33.000  
E18  18764660.122 1  98608937.481 1      2716.737          37.000  
E26  21976887.261 2 115489314.493 2      1109.877          33.000  
E21  23622168.254 4 124135307.995 5       192.661          25.000  
J 3  37608238.034 9                      -665.387          16.000  
> 2021  5 17  2 34 12.9970000  0 12                     
G 8  20042386.112 1 105323453.636 1     -1760.150          37.000  
G 7  20007404.568 2 105139654.953 1      2366.235          35.000  
G21  19537914.605 2 102672431.575 1       970.533          36.000  
G27  22197828.553 9                     -2895.098          26.000  
G 4  22659075.971 4 119074490.993 4     -2699.469          26.000  
G16  23260150.955 9                     -1557.944          15.000  
G 9  21977079.664 9                     -1856.637          26.000  
E 1  24324491.189 2 127826063.002 1      1494.011          34.000  
E18  18764143.469 1  98606220.617 1      2716.411          37.000  
E26  21976676.340 2 115488204.654 1      1108.978          34.000  
E21  23622130.077 8                       193.585          24.000  
J 3  37608366.053 9                      -665.387          16.000  
> 2021  5 17  2 34 13.9970000  0 12                     
G 8  20042721.165 2 105325213.973 1     -1760.565          37.000  
G 7  20006954.322 4 105137289.010 2      2366.168          35.000  
G21  19537729.907 2 102671461.454 1       969.729          36.000  
G27  22198381.903 9                     -2896.372          26.000  
G 4  22659587.202 4 119077190.428 4     -2699.365          27.000  
G16  23260447.805 9                     -1539.273          14.000  
G 9  21977431.670 9                     -1857.934          26.000  
E 1  24324206.956 2 127824569.354 1      1494.101          34.000  
E18  18763626.638 1  98603504.892 1      2715.427          37.000  
E26  21976465.467 2 115487095.610 2      1109.249          34.000  
E21  23622093.828 8                       192.842          24.000  
J 3  37608491.542 9                      -658.462          16.000  
> 2021  5 17  2 34 14.9970000  0 13                     
G 8  20043055.834 2 105326973.669 1     -1759.430          37.000  
G 7  20006503.618 4 105134922.673 2      2366.235          35.000  
G21  19537545.227 2 102670491.052 1       969.995          36.000  
G27  22198931.402 8 116656171.37635     -2894.550          27.000  
G 4  22660096.482 4 119079888.939 5     -2697.857          26.000  
G16  23260743.970 9                     -1539.273          13.000  
G 9  21977783.471 8                     -1856.667          26.000  
E 1  24323922.495 2 127823074.775 1      1494.918          34.000  
E13  24283421.796 9                     -1650.398          15.000  
E18  18763109.666 1  98600789.067 1      2715.634          37.000  
E26  21976254.380 2 115485986.210 1      1109.502          34.000  
E21  23622057.951 9                       193.605          23.000  
J 3  37608616.450 9                      -661.192          16.000  
> 2021  5 17  2 34 15.9970000  0 13                     
G 8  20043390.346 1 105328733.039 1     -1759.949          37.000  
G 7  20006053.258 4 105132556.122 2      2366.254          35.000  
G21  19537360.495 2 102669520.695 1       970.186          36.000  
G27  22199479.788 8 116659065.73825     -2894.522          26.000  
G 4  22660608.131 4 119082586.920 4     -2698.257          26.000  
G16  23261043.948 9                     -1558.104          14.000  
G 9  21978138.269 8                     -1856.611          26.000  
E 1  24323637.952 2 127821579.559 1      1495.450          34.000  
E13  24283746.728 9                     -1644.802          18.000  
E18  18762592.503 1  98598073.411 1      2715.158          37.000  
E26  21976043.630 2 115484876.647 2      1109.261          34.000  
E21  23622021.824 9                       192.366          22.000  
J 3  37608740.072 9                      -655.130          17.000  
> 2021  5 17  2 34 16.9970000  0 13                     
G 8  20043725.176 2 105330492.711 1     -1760.010          37.000  
G 7  20005602.545 4 105130190.155 2      2365.454          35.000  
G21  19537176.107 2 102668551.109 1       969.183          36.000  
G27  22200030.020 4 116661960.17324     -2894.668          26.000  
G 4  22661120.138 4 119085284.920 5     -2697.677          26.000  
G16  23261341.383 9                     -1546.322          15.000  
G 9  21978491.771 8                     -1857.758          26.000  
E 1  24323353.239 2 127820084.459 2      1495.172          34.000  
E13  24284073.715 9                     -1640.106          21.000  
E18  18762076.208 1  98595358.631 1      2714.362          37.000  
E26  21975832.513 2 115483767.636 2      1108.885          34.000  
E21  23621983.818 9                       198.469          21.000  
J 3  37608866.761 9                      -668.393          16.000  
> 2021  5 17  2 34 17.9970000  0 13                     
G 8  20044060.234 2 105332253.733 1     -1762.347          36.000  
G 7  20005152.626 4 105127825.690 2      2363.745          34.000  
G21  19536991.911 2 102667583.211 1       966.494          36.000  
G27  22200580.766 4 116664855.74324     -2896.840          25.000  
G 4  22661630.099 9                     -2698.472          25.000  
G16  23261641.155 9                     -1552.399          17.000  
G 9  21978845.461 8 115499603.27435     -1858.867          24.000  
E 1  24323069.023 2 127818590.337 1      1493.580          33.000  
E13  24284394.908 9                     -1649.017          23.000  
E18  18761559.956 1  98592645.704 1      2711.482          37.000  
E26  21975621.806 4 115482660.184 2      1106.128          33.000  
E21  23621947.526 9                       201.796          19.000  
J 3  37608992.773 9                      -668.393          16.000  
> 2021  5 17  2 34 18.9970000  0 12                     
G 8  20044395.195 2 105334016.450 1     -1762.964          36.000  
G 7  20004702.960 4 105125463.156 2      2361.719          34.000  
G21  19536808.339 2 102666617.445 1       965.148          35.000  
G27  22201131.766 4 116667752.76724     -2897.600          25.000  
G 4  22662141.721 9                     -2700.228          25.000  
G16  23261944.013 9                     -1561.992          18.000  
E 1  24322784.881 2 127817097.687 2      1492.502          33.000  
E13  24284717.357 9                     -1649.943          25.000  
E18  18761044.298 2  98589935.010 1      2709.955          37.000  
E26  21975411.291 2 115481554.634 2      1105.867          33.000  
E21  23621911.849 9                       186.632          18.000  
J 3  37609119.248 9                      -668.393          15.000  
> 2021  5 17  2 34 19.9970000  0 12                     
G 8  20044730.204 2 105335779.669 1     -1762.683          35.000  
G 7  20004253.499 2 105123101.315 1      2362.219          34.000  
G21  19536624.632 4 102665652.542 2       965.297          35.000  
G27  22201682.896 9                     -2897.337          25.000  
G 4  22662655.116 9                     -2699.937          24.000  
G16  23262245.579 9                     -1563.478          19.000  
E 1  24322500.617 4 127815605.288 2      1492.665          33.000  
E13  24285037.407 9                     -1639.777          25.000  
E18  18760528.692 1  98587225.350 1      2709.756          37.000  
E26  21975200.802 2 115480449.864 2      1104.918          33.000  
E21  23621876.634 9                       186.632          16.000  
J 3  37609245.592 9                      -664.021          14.000  
> 2021  5 17  2 34 20.9970000  0 12                     
G 8  20045065.288 2 105337541.877 1     -1762.268          35.000  
G 7  20003803.668 2 105120738.616 1      2362.799          34.000  
G21  19536440.847 2 102664687.044 1       965.130          35.000  
G27  22202233.450 9                     -2895.805          25.000  
G 4  22663168.008 9                     -2698.266          24.000  
G16  23262545.557 9                     -1553.953          18.000  
E 1  24322216.492 2 127814111.515 2      1494.145          33.000  
E13  24285351.948 9                     -1646.408          25.000  
E18  18760012.811 1  98584515.142 1      2709.885          37.000  
E26  21974990.095 2 115479344.218 2      1105.875          33.000  
E21  23621841.228 9                       186.632          11.000  
J 3  37609371.927 9                      -657.123          15.000  
> 2021  5 17  2 34 21.9970000  0 12                     
G 8  20045400.415 2 105339304.723 1     -1763.299          35.000  
G 7  20003354.080 2 105118376.840 1      2360.101          34.000  
G21  19536257.214 2 102663722.600 1       963.506          35.000  
G27  22202786.282 9                     -2897.966          25.000  
G 4  22663682.070 9                     -2700.303          24.000  
G16  23262846.822 9                     -1553.950          18.000  
E 1  24321932.329 2 127812618.144 2      1493.079          33.000  
E13  24285667.818 9                     -1646.638          25.000  
E18  18759497.209 1  98581806.146 1      2708.146          37.000  
E26  21974779.711 4 115478239.488 2      1103.881          33.000  
G22  23919812.126 8 125699460.43022      1779.265          32.000  
J 3  37609497.050 9                      -657.123          15.000  
> 2021  5 17  2 34 22.9970000  0 12                     
G 8  20045736.057 2 105341068.250 1     -1764.191          35.000  
G 7  20002905.021 2 105116015.896 1      2360.266          35.000  
G21  19536073.943 2 102662758.912 1       963.562          35.000  
G27  22203338.795 9                     -2897.004          25.000  
G 4  22664196.733 9                     -2699.292          25.000  
G16  23263145.478 9                     -1556.082          18.000  
E 1  24321648.025 2 127811125.265 2      1492.705          33.000  
E13  24285982.197 9                     -1646.895          25.000  
E18  18758981.760 1  98579098.269 1      2707.076          37.000  
E26  21974569.518 2 115477135.339 2      1103.822          33.000  
G22  23919472.567 8 125697681.03123      1780.050          32.000  
J 3  37609620.479 9                      -660.967          14.000  
> 2021  5 17  2 34 23.9970000  0 13                     
G 8  20046071.690 4 105342832.198 2     -1763.806          34.000  
G 7  20002456.341 4 105113655.968 2      2360.474          35.000  
G21  19535890.406 4 102661794.491 2       964.955          34.000  
G27  22203889.681 9                     -2891.002          23.000  
G 4  22664712.143 9                     -2711.176          22.000  
G16  23263436.827 9                     -1550.360          18.000  
G 9  21980985.930 9                     -1860.831          27.000  
E 1  24321363.656 4 127809633.245 2      1492.135          31.000  
E13  24286295.219 9                     -1651.725          24.000  
E18  18758466.752 2  98576391.240 1      2707.033          36.000  
E26  21974357.852 4 115476030.544 2      1105.441          32.000  
G22  23919131.777 8 125695899.04223      1784.656          30.000  
J 3  37609746.710 9                      -660.967          15.000  
> 2021  5 17  2 34 24.9970000  0 14                     
G 8  20046407.375 4 105344596.773 2     -1765.948          32.000  
G 7  20002007.674 4 105111297.370 2      2356.976          34.000  
G21  19535707.013 4 102660828.660 2       965.536          34.000  
G27  22204440.192 9                     -2896.127          22.000  
J 2  37478547.959 9                      1278.433          13.000  
G 4  22665223.661 9                     -2710.075          22.000  
G16  23263730.309 9                     -1553.808          18.000  
E 1  24321079.855 4 127808142.523 2      1488.490          31.000  
E13  24286607.966 9                     -1647.447          21.000  
E18  18757951.478 2  98573685.015 1      2704.807          36.000  
E26  21974146.630 4 115474924.525 2      1105.846          32.000  
E21  23621695.414 9                       192.045          17.000  
G22  23918789.923 8 125694113.51324      1787.347          30.000  
J 3  37609873.411 9                      -674.840          16.000  
> 2021  5 17  2 34 25.9970000  0 15                     
G 8  20046743.344 4 105346363.667 2     -1767.694          37.000  
G 7  20001559.461 4 105108941.947 2      2353.882          34.000  
G21  19535523.061 8 102659862.457 3       965.789          33.000  
G 1  20464102.963 9                      3244.966          20.000  
G27  22204990.358 9                     -2896.364          20.000  
J 2  37478302.059 9                      1278.433          14.000  
G 4  22665737.954 9                     -2690.711          21.000  
G16  23264025.588 9                     -1553.808          17.000  
E 1  24320796.537 4 127806655.107 3      1485.855          31.000  
E13  24286921.472 9                     -1647.447          18.000  
E18  18757437.072 2  98570981.397 1      2702.598          35.000  
E26  21973940.770 8 115473818.505 3      1105.027          32.000  
E21  23621658.856 9                       184.094          19.000  
G22  23918452.305 8 125692324.97223      1789.542          30.000  
J 3  37610001.435 9                      -685.311          16.000  
> 2021  5 17  2 34 26.9970000  0 15                     
G 8  20047080.190 2 105348131.196 1     -1767.725          33.000  
G 7  20001111.753 4 105106587.549 2      2354.388          34.000  
G21  19535337.565 4 102658896.791 2       965.411          34.000  
G27  22205543.791 9                     -2894.941          20.000  
J 2  37478058.354 9                      1278.433          14.000  
G 4  22666262.913 9                     -2705.464          22.000  
G16  23264315.851 9                     -1553.808          15.000  
G 9  21982038.296 9                     -1862.455          24.000  
E 1  24320513.896 4 127805168.374 2      1486.990          32.000  
E13  24287235.127 9                     -1647.447          15.000  
E18  18756922.626 2  98568278.935 1      2703.338          35.000  
E26  21973726.450 4 115472712.806 2      1106.055          33.000  
E21  23621624.042 9                       187.747          19.000  
G22  23918114.914 4 125690535.76323      1790.119          28.000  
J 3  37610129.904 9                      -671.120          15.000  
> 2021  5 17  2 34 27.9970000  0 16                     
G 8  20047423.270 8 105349919.72835     -1764.526          30.000  
G 7  20000663.566 4 105104231.732 2      2356.525          36.000  
G21  19535156.449 4 102657931.249 2       965.382          34.000  
G 1  20462849.274 9                      3244.966          24.000  
G27  22206093.931 9                     -2897.892          18.000  
J 2  37477815.883 9                      1278.433          14.000  
G 4  22666781.878 9                     -2702.185          22.000  
G16  23264605.773 9                     -1551.058          15.000  
G 9  21982353.892 9 115518049.07435     -1858.799          34.000  
E 1  24320230.723 4 127803679.745 3      1489.710          27.000  
E13  24287547.263 9                     -1648.742          15.000  
E18  18756408.172 2  98565575.813 1      2703.018          34.000  
E26  21973517.545 4 115471606.980 2      1105.417          33.000  
E21  23621586.599 9                       192.068          19.000  
G22  23917779.106 8 125688746.50824      1787.153          27.000  
J 3  37610256.727 9                      -659.754          17.000  
> 2021  5 17  2 34 28.9970000  0 15                     
G 8  20047763.663 9                     -1766.350          22.000  
G 7  20000215.013 4 105101874.597 2      2358.179          33.000  
G21  19534971.660 4 102656968.650 1       960.431          36.000  
G 1  20462225.865 9                      3244.966          24.000  
J 2  37477571.405 9                      1278.433          13.000  
G 4  22667302.698 9                     -2694.409          23.000  
G16  23264880.945 9                     -1555.376          22.000  
G 9  21982702.146 8 115519910.14022     -1862.233          38.000  
E 1  24319949.260 4 127802188.547 3      1492.908          28.000  
E13  24287861.830 9                     -1651.095          16.000  
E18  18755893.857 2  98562872.694 1      2702.335          35.000  
E26  21973310.677 2 115470503.259 1      1102.436          34.000  
E21  23621549.482 9                       188.814          18.000  
G22  23917436.759 8 125686961.04225      1783.362          25.000  
J 3  37610382.836 9                      -662.586          19.000  
> 2021  5 17  2 34 29.9970000  0 15                     
G 8  20048104.060 9 105353497.90234     -1765.100          34.000  
G 7  19999766.407 2 105099516.818 1      2357.928          39.000  
G21  19534787.862 4 102656008.909 2       959.300          37.000  
G 1  20461614.527 9                      3237.056          25.000  
J 2  37477327.966 9                      1278.433          15.000  
G 4  22667836.748 9                     -2699.338          26.000  
G16  23265159.560 9                     -1555.790          29.000  
G 9  21983051.277 4 115521772.26821     -1862.154          39.000  
E 1  24319660.083 4 127800695.586 2      1493.878          33.000  
E13  24288178.503 9                     -1644.039          20.000  
E18  18755379.473 1  98560170.091 1      2702.468          39.000  
E26  21973099.089 2 115469401.901 1      1100.884          37.000  
E21  23621515.463 9                       190.027          17.000  
G22  23917099.494 8                      1780.688          23.000  
J 3  37610509.311 9                      -655.593          18.000  
> 2021  5 17  2 34 30.9970000  0 15                     
G 8  20048443.344 8 105355262.27023     -1763.989          34.000  
G 7  19999317.566 2 105097158.322 1      2358.765          39.000  
G21  19534603.522 2 102655049.402 1       960.595          37.000  
G 1  20461005.471 9                      3233.661          26.000  
J 2  37477085.975 9                      1278.433          15.000  
G 4  22668381.727 9 119122984.79234     -2699.098          29.000  
G16  23265449.338 9                     -1555.263          28.000  
G 9  21983405.852 4 115523633.91621     -1860.986          39.000  
E 1  24319371.396 8 127799201.290 2      1494.751          33.000  
E13  24288494.562 9                     -1648.309          23.000  
E18  18754865.271 1  98557467.324 1      2702.766          39.000  
E26  21972889.760 2 115468300.527 1      1101.921          37.000  
E21  23621478.721 9                       190.027          16.000  
G22  23916773.803 8                      1783.191          23.000  
J 3  37610638.586 9                      -662.477          17.000  
> 2021  5 17  2 34 31.9970000  0 15                     
G 8  20048782.441 8 105357027.06323     -1765.996          29.000  
G 7  19998869.191 1 105094800.600 1      2356.409          39.000  
G21  19534421.686 2 102654089.218 1       960.226          37.000  
G 1  20460378.577 9 107520074.54735      3234.265          31.000  
J 2  37476842.719 9                      1278.433          17.000  
G 4  22668907.040 9                     -2698.754          16.000  
G16  23265735.552 9                     -1553.918          28.000  
G 9  21983763.194 2 115525495.14921     -1862.163          41.000  
E 1  24319091.437 8 127797707.549 2      1492.521          34.000  
E13  24288807.893 9                     -1647.803          25.000  
E18  18754350.922 1  98554765.199 1      2701.062          39.000  
E26  21972680.196 2 115467198.465 1      1101.589          36.000  
E21  23621441.596 9                       188.123          17.000  
G22  23916434.052 9                      1786.218          22.000  
J 3  37610765.087 9                      -662.338          19.000  
> 2021  5 17  2 34 32.9970000  0 14                     
G 8  20049121.691 8                     -1765.040          28.000  
G 7  19998420.856 1 105092445.597 1      2352.307          38.000  
G21  19534240.889 2 102653129.433 1       960.218          38.000  
G 1  20459748.641 9                      3233.534          25.000  
J 2  37476598.368 9                      1278.433          15.000  
G 4  22669418.283 9                     -2706.562          15.000  
G16  23266024.947 9                     -1552.236          26.000  
G 9  21984113.459 2 115527356.97921     -1861.137          37.000  
E 1  24318809.752 4 127796216.623 2      1489.134          34.000  
E13  24289119.380 9                     -1660.470          24.000  
E18  18753837.205 1  98552065.435 1      2698.410          38.000  
E26  21972470.519 2 115466096.905 1      1101.686          36.000  
E21  23621405.762 9                       191.809          17.000  
G22  23916095.129 9                      1788.955          20.000  
> 2021  5 17  2 34 33.9970000  0 14                     
G 8  20049470.652 9                     -1776.943          27.000  
G 7  19997973.266 2 105090094.485 1      2350.116          36.000  
G21  19534058.639 2 102652168.022 1       962.082          39.000  
G 1  20459133.617 9                      3228.069          25.000  
J 2  37476353.716 9                      1278.433          16.000  
G16  23266312.361 9                     -1557.391          25.000  
G 9  21984468.361 8 115529216.52424     -1855.965          36.000  
E 1  24318530.649 9                      1486.053          35.000  
E13  24289435.586 9                     -1646.358          23.000  
E18  18753323.911 1  98549368.597 1      2696.418          38.000  
E26  21972260.719 2 115464994.168 1      1103.720          36.000  
E21  23621369.029 9                       184.997          20.000  
G22  23915751.299 9                      1795.020          19.000  
J 3  37611014.861 9                      -663.570          20.000  
> 2021  5 17  2 34 34.9970000  0 16                     
G 8  20049810.604 9                     -1788.476          25.000  
G 7  19997526.105 4 105087743.941 2      2350.635          36.000  
G21  19533875.660 4 102651205.556 2       962.254          37.000  
G 1  20458525.813 9                      3229.447          23.000  
E27  26438481.405 9                     -1064.550          25.000  
G27  22209966.431 9                     -2879.738          19.000  
G 4  22670428.005 9                     -2703.985          19.000  
G16  23266602.043 9                     -1568.685          25.000  
G 9  21984827.072 9                     -1849.463          33.000  
E 1  24318242.166 9                      1482.332          32.000  
E13  24289750.825 9                     -1653.055          22.000  
E18  18752810.399 2  98546672.173 1      2696.725          36.000  
E26  21972050.571 2 115463890.151 1      1103.954          35.000  
E21  23621331.306 9                       194.771          19.000  
G22  23915405.135 9                      1789.161          22.000  
J 3  37611142.169 9                      -658.125          20.000  
> 2021  5 17  2 34 35.9970000  0 16                     
G 8  20050147.546 9                     -1774.820          23.000  
G 7  19997078.620 4 105085392.836 2      2351.288          34.000  
G21  19533693.297 4 102650246.192 2       956.392          35.000  
G 1  20457911.242 9                      3229.447          22.000  
E27  26438676.364 9                     -1073.463          27.000  
G27  22210517.832 9                     -2884.149          18.000  
G 4  22670931.296 9                     -2672.735          17.000  
G16  23266895.652 9                     -1567.608          24.000  
G 9  21985178.899 9                     -1841.900          29.000  
E 1  24317960.559 9                      1489.783          31.000  
E13  24290065.081 9                     -1653.055          19.000  
E18  18752297.254 2  98543976.708 1      2696.253          34.000  
E26  21971840.775 4 115462788.232 2      1098.959          34.000  
E21  23621294.085 9                       195.308          17.000  
G22  23915059.350 9                      1798.125          29.000  
J 3  37611266.000 9                      -661.068          19.000  
> 2021  5 17  2 34 36.9970000  0 15                     
G 8  20050474.956 9                     -1785.273          21.000  
G 7  19996630.507 4 105083039.976 2      2354.248          37.000  
G21  19533512.512 8                       953.375          32.000  
G 1  20457285.534 9 107503760.37135      3240.930          36.000  
E27  26438878.337 9                     -1082.750          27.000  
G27  22211066.637 9                     -2879.633          18.000  
G 4  22671434.743 9                     -2672.735          15.000  
G16  23267184.885 9                     -1581.570          24.000  
E 1  24317677.939 9 127790270.41115      1487.853          31.000  
E13  24290380.599 9                     -1653.055          16.000  
E18  18751784.532 2  98541281.692 1      2695.343          35.000  
E26  21971631.735 4 115461689.991 2      1097.025          36.000  
E21  23621257.706 9                       195.308          13.000  
G22  23914715.262 9                      1800.470          18.000  
J 3  37611389.735 9                      -666.633          28.000  
> 2021  5 17  2 34 37.9970000  0 16                     
G 8  20050792.515 9 105367624.99335     -1780.542          31.000  
G 7  19996183.397 4 105080685.856 4      2353.354          26.000  
G21  19533337.692 9                       955.896          23.000  
G 1  20456664.647 9                      3234.854          22.000  
E27  26439082.919 9 138938353.44315     -1084.694          26.000  
G27  22211616.044 9                     -2885.025          16.000  
J 2  37475363.172 9                      1265.532          28.000  
G 4  22671941.860 9                     -2672.735          14.000  
G16  23267476.028 9                     -1580.662          23.000  
E 1  24317398.605 9 127788781.936 5      1489.422          30.000  
E13  24290695.069 9                     -1653.055          11.000  
E18  18751271.691 2  98538585.933 1      2696.182          37.000  
E26  21971423.244 9                      1100.240          21.000  
E21  23621220.022 9                       195.308          11.000  
G22  23914374.123 9                      1800.470          15.000  
J 3  37611508.030 9 197649808.08535      -675.603          30.000  
> 2021  5 17  2 34 38.9970000  0 13                     
G 8  20051128.130 8 105369406.10824     -1783.411          31.000  
G 7  19995737.270 8                      2355.766          26.000  
G21  19533161.999 9                       955.559          23.000  
G 1  20456041.146 9                      3242.010          28.000  
G27  22212166.289 9                     -2885.025          15.000  
J 2  37475110.366 9                      1261.746          30.000  
G 4  22672450.472 9                     -2672.735          14.000  
G16  23267772.036 9                     -1591.386          23.000  
G 9  21986219.700 9                     -1831.390          27.000  
E 1  24317126.613 9                      1482.081          22.000  
E18  18750754.703 8  98535889.783 4      2692.893          31.000  
E26  21971214.605 9                      1100.798          21.000  
J 3  37611634.954 9 197650483.93824      -677.541          30.000  
> 2021  5 17  2 34 39.9970000  0 13                     
G 8  20051465.321 8 105371190.34924     -1787.189          32.000  
G 7  19995289.562 9                      2358.089          23.000  
G21  19532980.686 9                       951.087          25.000  
G 1  20455424.102 9                      3246.710          28.000  
G27  22212714.426 9                     -2873.133          16.000  
J 2  37474857.661 9                      1259.130          23.000  
G 4  22672956.572 9                     -2672.735          14.000  
G16  23268070.125 9                     -1591.285          21.000  
G 9  21986566.196 9 115540194.26634     -1829.676          34.000  
E 1  24316855.598 9                      1490.188          21.000  
E18  18750243.228 8  98533195.572 3      2694.419          32.000  
E26  21971010.446 9                      1096.660          23.000  
J 3  37611759.296 9                      -679.822          22.000  
> 2021  5 17  2 34 40.9970000  0 12                     
G 8  20051809.784 9                     -1784.805          26.000  
G 7  19994842.414 9                      2349.407          20.000  
G21  19532801.704 9                       960.806          26.000  
G27  22213261.530 9                     -2860.519          16.000  
G 4  22673466.389 9                     -2675.270          14.000  
G16  23268371.691 9                     -1591.285          18.000  
G 9  21986918.394 8 115542022.76823     -1826.109          30.000  
E 1  24316582.367 9                      1487.877          21.000  
E18  18749732.242 8  98530502.956 3      2692.674          32.000  
E26  21970801.279 9                      1102.987          29.000  
E21  23621110.692 9                       160.914          12.000  
J 3  37611889.741 9                      -676.981          22.000  
> 2021  5 17  2 34 41.9970000  0 12                     
G 8  20052149.474 9                     -1798.198          23.000  
G 7  19994396.089 9                      2349.407          16.000  
G21  19532611.854 9                       952.796          27.000  
G 1  20454195.249 9                      3246.656          27.000  
G27  22213807.582 9                     -2857.702          17.000  
G 4  22673972.611 9                     -2675.270          14.000  
G16  23268675.072 9                     -1591.285          14.000  
E 1  24316306.911 9                      1495.351          19.000  
E18  18749218.368 8  98527810.133 3      2691.540          31.000  
E26  21970590.851 9                      1095.946          30.000  
E21  23621076.572 9                       162.474          16.000  
J 3  37612019.858 9                      -677.798          22.000  
> 2021  5 17  2 34 42.9970000  0 13                     
G 8  20052495.586 9                     -1796.235          22.000  
G 7  19993948.614 9                      2356.582          18.000  
G21  19532428.008 9 102643601.46135       949.910          31.000  
G 1  20453580.028 9                      3244.942          27.000  
G27  22214352.295 9                     -2853.131          17.000  
G 4  22674478.803 9                     -2675.270          14.000  
G 9  21987612.053 9                     -1826.924          31.000  
E 1  24316023.933 9                      1495.351          18.000  
E13  24292271.404 9                     -1653.055          11.000  
E18  18748706.954 8  98525118.822 3      2689.889          32.000  
E26  21970382.077 9                      1094.667          30.000  
E21  23621042.195 9                       156.800          23.000  
J 3  37612151.193 9                      -683.111          31.000  
> 2021  5 17  2 34 43.9970000  0 13                     
G 8  20052834.439 9                     -1773.280          22.000  
G 7  19993500.963 9                      2362.961          20.000  
G21  19532251.302 9                       948.855          24.000  
G27  22214897.745 9                     -2868.195          17.000  
J 2  37473899.247 9 196926669.01235      1255.454          31.000  
G 4  22674985.959 9                     -2675.270          12.000  
G 9  21987959.003 9 115547503.58235     -1821.300          33.000  
E 1  24315736.345 9                      1502.821          17.000  
E13  24292585.970 9                     -1696.562          28.000  
E18  18748194.891 8  98522428.693 4      2690.721          33.000  
E26  21970177.853 9 115454052.26415      1094.108          29.000  
E21  23621009.201 9 124129251.32615       156.793          28.000  
J 3  37612280.634 9 197653871.07434      -683.417          32.000  
> 2021  5 17  2 34 44.9970000  0 12                     
G 8  20053176.550 9                     -1735.777          24.000  
G 7  19993055.389 9                      2346.444          21.000  
G21  19532077.969 9                       947.413          27.000  
G27  22215447.095 9                     -2944.606          19.000  
J 2  37473659.097 8 196925412.57324      1257.210          32.000  
G 4  22675492.839 9                     -2670.326          14.000  
E 1  24315450.210 9                      1494.789          19.000  
E13  24292903.896 9 127660081.35715     -1694.523          28.000  
E18  18747681.972 8  98519739.563 3      2688.221          29.000  
E26  21969969.833 8 115452958.188 5      1094.428          29.000  
E21  23620980.566 9                       156.044          30.000  
J 3  37612410.712 8 197654553.84724      -682.423          34.000  
> 2021  5 17  2 34 45.9970000  0 15                     
G 8  20053519.307 9                     -1749.270          27.000  
G 7  19992605.928 9                      2357.518          23.000  
G21  19531888.743 9                       949.219          34.000  
G 1  20451728.957 9                      3253.907          29.000  
G27  22216002.291 9                     -2929.579          22.000  
J 2  37473418.145 9 196924154.30625      1258.060          38.000  
G 4  22676014.034 9                     -2738.109          28.000  
G 9  21988652.531 9                     -1827.441          35.000  
E 1  24315165.182 9                      1487.516          29.000  
E13  24293221.708 9 127661775.405 5     -1693.408          29.000  
E18  18747169.599 8  98517049.864 2      2689.467          38.000  
E26  21969751.635 8 115451863.489 4      1088.888          31.000  
E21  23620947.183 9                       159.375          31.000  
G22  23911635.591 9                      1800.470          12.000  
J 3  37612541.013 9                      -679.844          36.000  
> 2021  5 17  2 34 46.9970000  0 16                     
G 8  20053859.277 9                     -1774.560          30.000  
G 7  19992152.480 9 105059470.06535      2350.623          38.000  
G21  19531712.169 9                       940.035          22.000  
G 1  20451112.677 9                      3261.698          28.000  
G27  22216549.443 9                     -2850.325          21.000  
J 2  37473186.737 8 196922894.82924      1258.689          32.000  
G 4  22676533.540 9                     -2739.045          24.000  
G16  23270186.867 9                     -1554.463          17.000  
G 9  21988995.166 9 115552949.13633     -1822.726          37.000  
E 1  24314873.301 9                      1517.942          26.000  
E13  24293544.140 8 127663467.691 4     -1692.976          33.000  
E18  18746664.158 8  98514360.440 2      2687.517          43.000  
E26  21969545.103 9                      1091.565          21.000  
E21  23620916.754 9 124128765.23215       158.981          34.000  
G22  23911290.674 9                      1800.470          13.000  
J 3  37612668.016 9 197655916.95434      -681.698          35.000  
> 2021  5 17  2 34 47.9970000  0 16                     
G 8  20054200.808 9                     -1786.488          33.000  
G 7  19991712.499 9                      2349.651          32.000  
G21  19531536.048 9                       953.716          22.000  
G 1  20450494.642 9                      3245.979          28.000  
G27  22217095.962 9                     -2866.009          20.000  
J 2  37472941.884 8 196921635.02823      1259.096          38.000  
G 4  22677050.651 9                     -2696.907          21.000  
G16  23270487.779 9                     -1583.010          17.000  
G 9  21989348.576 9 115554773.15423     -1824.330          35.000  
E 1  24314582.676 9                      1485.574          27.000  
E13  24293863.134 8 127665159.419 3     -1691.989          33.000  
E18  18746151.418 8  98511671.804 1      2687.686          44.000  
E26  21969343.217 9                      1096.191          22.000  
E21  23620888.202 8 124128604.700 3       160.240          36.000  
G22  23910949.017 9                      1800.470          12.000  
J 3  37612799.084 8 197656596.57123      -679.845          38.000  
> 2021  5 17  2 34 48.9970000  0 10                     
G 8  20054540.394 9                     -1795.017          33.000  
G 7  19991269.647 9                      2345.767          32.000  
G21  19531360.534 9                       955.236          30.000  
J 2  37472702.546 8 196920376.36024      1258.863          31.000  
G16  23270791.264 9                     -1587.089          18.000  
E13  24294182.565 8 127666852.478 3     -1693.536          33.000  
E18  18745637.740 8  98508985.670 2      2685.440          40.000  
E26  21969140.677 9                      1091.040          25.000  
E21  23620858.567 8 124128445.206 3       159.909          35.000  
J 3  37612928.386 4 197657277.44222      -681.423          39.000  
> 2021  5 17  2 34 49.9970000  0 12                     
G 8  20054875.233 9 105389080.32235     -1787.988          37.000  
G 7  19990827.786 9                      2357.600          27.000  
G21  19531179.610 9                       945.521          28.000  
G 9  21990041.751 9                     -1826.680          37.000  
G 1  20449265.610 9                      3219.146          25.000  
J 2  37472464.403 9                      1268.019          30.000  
G16  23271086.269 9                     -1533.862          17.000  
E13  24294504.356 8 127668544.980 4     -1691.971          33.000  
E18  18745129.520 8  98506299.866 3      2685.527          40.000  
E26  21968935.759 9                      1092.473          25.000  
E21  23620822.419 8 124128285.177 3       161.190          34.000  
J 3  37613058.002 8                      -679.009          29.000  
> 2021  5 17  2 34 50.9970000  0 11                     
G 8  20055218.562 9                     -1785.815          29.000  
G 7  19990378.351 9                      2345.473          26.000  
G21  19530996.370 9                       936.941          26.000  
G 1  20448630.309 9                      3216.949          24.000  
J 2  37472220.366 9                      1261.126          25.000  
G16  23271386.033 9                     -1537.290          18.000  
E13  24294832.481 9                     -1695.189          31.000  
E18  18744617.448 4  98503614.266 2      2684.391          39.000  
E26  21968729.720 9                      1104.939          25.000  
E21  23620802.778 9                       158.752          26.000  
J 3  37613189.162 9                      -682.681          34.000  
> 2021  5 17  2 34 51.9970000  0 13                     
G 8  20055561.886 9                     -1781.383          27.000  
G 7  19989919.450 9                      2343.402          33.000  
G21  19530817.448 9                       944.171          35.000  
G 9  21990740.585 9                     -1825.069          38.000  
G 1  20447996.072 9                      3246.552          33.000  
J 2  37471983.540 9                      1259.788          29.000  
G27  22219344.527 9                     -2935.216          20.000  
G16  23271684.798 9                     -1518.420          17.000  
E13  24295155.096 9                     -1697.612          26.000  
E18  18744105.402 4  98500929.645 3      2684.318          34.000  
E26  21968508.800 9                      1087.460          39.000  
E21  23620764.261 9                       157.730          31.000  
J 3  37613318.167 9                      -677.400          32.000  
> 2021  5 17  2 34 52.9970000  0 12                     
G 8  20055906.174 9                     -1787.449          24.000  
G 7  19989472.393 9                      2345.461          36.000  
G21  19530631.682 9                       941.945          39.000  
G 9  21991083.695 9 115563924.10633     -1825.361          39.000  
G 1  20447374.587 9 107451678.54835      3241.810          39.000  
G27  22219905.905 9                     -2935.216          19.000  
G16  23271979.899 9                     -1513.145          17.000  
E13  24295479.439 9                     -1692.055          26.000  
E18  18743594.468 9                      2682.186          37.000  
E26  21968298.626 9                      1088.531          36.000  
E21  23620743.989 9                       161.602          24.000  
J 3  37613452.870 9                      -686.982          26.000  
> 2021  5 17  2 34 53.9970000  0 14                     
G 8  20056241.781 9                     -1779.303          24.000  
G 7  19989021.584 9 105043016.91833      2347.845          39.000  
G21  19530449.162 9 102633202.43633       939.470          39.000  
G 9  21991428.058 9 115565748.72622     -1824.193          37.000  
G 1  20446758.023 8 107448436.84522      3241.741          39.000  
J 2  37471509.339 9 196914109.71035      1255.116          31.000  
G27  22220470.808 9                     -2935.216          17.000  
G16  23272273.521 9                     -1507.048          17.000  
E 1  24312875.884 9                      1485.264          32.000  
E13  24295797.757 9                     -1699.041          30.000  
E18  18743085.476 9  98495588.74513      2682.417          37.000  
E26  21968090.458 9 115443104.81613      1087.813          36.000  
E21  23620711.016 9                       155.801          31.000  
J 3  37613575.671 9 197660673.90233      -683.221          34.000  
> 2021  5 17  2 34 54.9970000  0 12                     
G 8  20056577.633 9 105398026.52934     -1794.000          38.000  
G 7  19988576.010 8 105040669.02322      2347.644          39.000  
G21  19530270.105 4 102632262.93822       939.126          39.000  
G 1  20446139.862 4 107445195.07421      3242.179          39.000  
J 2  37471265.721 8 196912853.98522      1256.016          36.000  
G27  22221035.122 9                     -2935.216          17.000  
E 1  24312590.145 9 127763550.37615      1485.671          35.000  
E13  24296124.368 9 127677005.32315     -1700.469          30.000  
E18  18742570.494 8  98492906.899 2      2681.688          37.000  
E26  21967886.722 8 115442016.584 2      1088.705          35.000  
E21  23620676.631 9 124127529.11314       154.149          31.000  
J 3  37613707.233 8 197661357.69622      -683.893          35.000  
> 2021  5 17  2 34 55.9970000  0 13                     
G 8  20056918.749 8 105399821.45222     -1795.795          37.000  
G 7  19988129.568 4 105038321.57921      2346.692          39.000  
G21  19530093.033 4 102631323.78321       939.150          39.000  
G 9  21992124.021 9                     -1821.367          38.000  
G 1  20445522.962 4 107441952.74721      3243.162          38.000  
J 2  37471028.896 4 196911598.55522      1255.229          35.000  
G27  22221591.683 9                     -2935.216          17.000  
E 1  24312307.835 9 127762065.948 4      1483.388          33.000  
E13  24296442.769 9 127678706.716 3     -1702.979          30.000  
E18  18742059.948 8  98490225.850 1      2680.545          38.000  
E26  21967675.862 8 115440928.591 1      1087.449          36.000  
E21  23620649.086 8 124127375.105 3       153.684          32.000  
J 3  37613835.383 4 197662041.74821      -683.655          34.000  
> 2021  5 17  2 34 56.9970000  0 12                     
G 8  20057262.436 8 105401617.32123     -1796.265          37.000  
G 7  19987680.412 8 105035975.16322      2344.305          35.000  
G21  19529910.857 4 102630384.40121       939.405          39.000  
G 1  20444905.940 9                      3236.929          21.000  
J 2  37470790.770 4 196910343.08122      1255.972          34.000  
G27  22222150.160 9                     -2935.216          16.000  
E 1  24312023.580 9                      1485.139          27.000  
E13  24296766.514 8 127680409.125 3     -1703.327          30.000  
E18  18741558.211 4  98487545.709 2      2679.602          37.000  
E26  21967471.341 4 115439840.287 1      1088.343          34.000  
E21  23620618.884 8 124127221.634 3       153.296          31.000  
J 3  37613967.625 4 197662725.87522      -683.950          34.000  
> 2021  5 17  2 34 57.9970000  0 12                     
G 8  20057602.497 8 105403413.69522     -1795.642          35.000  
G 7  19987236.405 8 105033628.97123      2347.205          35.000  
G21  19529732.581 4 102629445.20722       939.448          37.000  
G 9  21992817.318 9                     -1818.485          34.000  
J 2  37470549.682 8 196909087.53422      1256.231          32.000  
G27  22222710.626 9                     -2935.216          13.000  
G 4  22682048.690 9                     -2660.539          22.000  
E13  24297095.909 8 127682112.341 4     -1703.523          29.000  
E18  18741043.408 4  98484866.203 1      2679.316          35.000  
E26  21967266.554 4 115438752.001 2      1088.477          34.000  
E21  23620591.831 8 124127068.456 3       153.418          30.000  
J 3  37614098.812 8 197663409.97123      -683.145          32.000  
> 2021  5 17  2 34 58.9970000  0 14                     
G 8  20057942.689 4 105405210.27722     -1796.167          34.000  
G 7  19986791.101 9                      2339.942          27.000  
G21  19529555.828 8 102628506.53223       936.570          34.000  
G 9  21993163.635 9 115574854.70734     -1821.906          34.000  
E27  26443446.210 9                     -1099.082          28.000  
J 2  37470309.925 8 196907831.93423      1255.601          31.000  
G27  22223269.125 9                     -2935.216          10.000  
G 4  22682545.450 9                     -2660.539          19.000  
E 1  24311461.906 9                      1481.757          28.000  
E13  24297414.733 8 127683815.776 4     -1702.689          29.000  
E18  18740533.621 4  98482187.364 2      2679.679          35.000  
E26  21967056.532 4 115437664.317 3      1084.438          29.000  
E21  23620559.867 8 124126915.274 3       154.013          29.000  
J 3  37614229.309 8 197664094.01323      -684.318          31.000  
> 2021  5 17  2 34 59.9970000  0 12                     
G 8  20058286.908 4 105407006.35622     -1795.282          34.000  
G 7  19986352.752 9                      2350.625          25.000  
G21  19529381.213 9                       941.062          21.000  
G 9  21993512.037 9 115576676.02923     -1821.309          32.000  
J 2  37470068.850 8 196906575.34223      1256.511          30.000  
G 4  22683041.276 9                     -2660.539          17.000  
E 1  24311190.886 9                      1488.355          26.000  
E13  24297746.423 8 127685518.236 3     -1702.095          28.000  
E18  18740023.434 9                      2684.392          25.000  
E26  21966846.554 9                      1099.297          21.000  
E21  23620533.216 4 124126761.006 3       155.042          29.000  
J 3  37614359.884 8 197664777.11623      -681.543          31.000  
> 2021  5 17  2 35  0.9970000  0 11                     
G 8  20058628.692 8 105408801.36123     -1793.972          33.000  
G 7  19985910.118 9                      2347.219          30.000  
G21  19529204.324 9                       937.761          21.000  
G 9  21993853.935 8 115578498.01723     -1823.335          36.000  
J 2  37469829.926 9                      1267.238          24.000  
G 4  22683537.420 9                     -2660.539          17.000  
E13  24298065.273 8 127687219.139 3     -1700.065          30.000  
E18  18739514.293 9                      2675.907          31.000  
E26  21966643.560 9                      1077.569          22.000  
E21  23620502.626 8 124126605.385 3       154.856          29.000  
J 3  37614486.551 9                      -681.141          30.000  
> 2021  5 17  2 35  1.9970000  0 14                     
G 8  20058977.989 9                     -1796.260          29.000  
G 7  19985472.323 9                      2341.374          23.000  
G21  19529027.811 9                       940.726          21.000  
G 9  21994202.813 8 115580321.74422     -1824.869          36.000  
G 1  20441837.384 9                      3241.898          34.000  
J 2  37469591.351 9                      1257.880          34.000  
G27  22224944.560 9                     -2944.765          19.000  
G 4  22684037.923 9                     -2660.539          18.000  
E13  24298387.989 8 127688919.318 3     -1699.649          31.000  
E18  18739008.176 9                      2679.431          31.000  
E19  25780865.976 9                     -1879.417          31.000  
E26  21966437.599 9                      1086.142          22.000  
E21  23620469.353 8                       156.350          29.000  
J 3  37614616.895 8 197666142.16634      -681.062          35.000  
> 2021  5 17  2 35  2.9970000  0 14                     
G 8  20059319.939 9                     -1796.327          28.000  
G 7  19985019.533 9                      2349.991          25.000  
G21  19528844.719 9                       935.794          37.000  
G 9  21994550.316 4 115582147.84022     -1826.612          35.000  
G 1  20441214.233 9                      3241.379          34.000  
J 2  37469352.143 9 196902772.55233      1258.499          34.000  
G27  22225499.079 9                     -2942.627          30.000  
G 4  22684532.240 9                     -2660.539          18.000  
E13  24298707.860 8 127690619.747 4     -1700.771          30.000  
E18  18738497.325 9                      2656.750          25.000  
E19  25781221.044 9                     -1882.102          29.000  
E26  21966229.758 9                      1084.991          36.000  
E21  23620444.085 8 124126292.186 5       156.289          31.000  
J 3  37614744.836 8 197666823.81423      -682.309          34.000  
> 2021  5 17  2 35  3.9970000  0 12                     
G 8  20059662.190 9                     -1791.370          29.000  
G 7  19984561.566 9                      2328.734          25.000  
G21  19528660.680 8 102623804.42432       935.853          40.000  
G 9  21994897.667 4 115583975.84122     -1829.938          36.000  
G 1  20440587.591 8 107416065.09833      3240.251          37.000  
J 2  37469114.258 8 196901513.43022      1259.412          35.000  
E13  24299036.544 8 127692319.432 3     -1699.096          32.000  
E18  18737984.254 9  98468782.31515      2673.208          33.000  
E19  25781579.236 9 135483136.95815     -1881.566          27.000  
E26  21966022.725 9 115432238.24013      1086.323          36.000  
E21  23620409.913 8 124126134.998 3       157.938          33.000  
J 3  37614876.079 8 197667504.80822      -680.575          34.000  
> 2021  5 17  2 35  4.9970000  0 13                     
G 8  20060009.126 9                     -1789.464          22.000  
G 7  19984130.052 9                      2324.954          21.000  
G21  19528482.461 4 102622867.27122       937.360          39.000  
G 9  21995248.657 8 115585805.23623     -1828.231          34.000  
G 1  20439977.558 9                      3242.389          24.000  
J 2  37468873.371 8 196900253.36422      1259.625          35.000  
G27  22226610.479 9                     -2930.712          26.000  
E13  24299359.905 8 127694018.649 3     -1699.996          32.000  
E18  18737467.557 9  98466109.243 5      2672.331          28.000  
E19  25781939.020 9                     -1883.979          25.000  
E26  21965815.285 8 115431151.755 2      1085.486          37.000  
E21  23620380.370 8 124125977.084 3       157.553          33.000  
J 3  37615005.660 8 197668185.15822      -679.960          34.000  
> 2021  5 17  2 35  5.9970000  0 12                     
G 8  20060349.977 9                     -1796.409          22.000  
G 7  19983679.226 9                      2344.059          17.000  
G21  19528305.372 4 102621929.18222       938.170          37.000  
G 9  21995597.687 8 115587633.96223     -1828.624          29.000  
J 2  37468634.198 8 196898992.50324      1260.905          33.000  
G27  22227171.923 9                     -2938.083          27.000  
E13  24299680.867 8 127695718.024 3     -1699.453          30.000  
E18  18736965.410 9  98463437.038 3      2672.218          28.000  
E19  25782296.758 9                     -1883.979          20.000  
E26  21965609.294 8 115430064.266 1      1087.866          35.000  
E21  23620353.470 8 124125818.844 2       157.512          31.000  
J 3  37615135.232 8 197668864.90923      -679.748          32.000  
> 2021  5 17  2 35  6.9970000  0 14                     
G 8  20060687.229 9                     -1802.728          21.000  
G 7  19983237.343 9                      2344.059          14.000  
G21  19528124.766 4 102620991.25522       936.295          39.000  
G 9  21995943.485 8 115589461.20125     -1826.119          24.000  
G 1  20438756.710 9                      3216.519          30.000  
J 2  37468393.114 8 196897731.44522      1261.250          32.000  
G27  22227730.866 9                     -2940.936          26.000  
G 4  22686557.377 9                     -2665.000          20.000  
E13  24300009.267 8 127697417.882 3     -1700.295          30.000  
E18  18736457.905 8  98460764.892 2      2671.729          35.000  
E19  25782655.705 9                     -1883.979          14.000  
E26  21965400.624 4 115428976.703 1      1086.790          36.000  
E21  23620322.182 4 124125660.557 2       157.574          32.000  
J 3  37615262.231 4 197669544.40822      -680.157          32.000  
> 2021  5 17  2 35  7.9970000  0 11                     
G 8  20061034.108 9                     -1786.279          20.000  
G 7  19982791.538 9                      2347.889          16.000  
G21  19527948.393 8 102620055.19123       932.924          31.000  
J 2  37468152.232 8 196896471.20623      1260.739          29.000  
G 4  22687082.332 9                     -2665.000          19.000  
E13  24300327.070 8 127699119.002 4     -1702.171          29.000  
E18  18735949.179 8  98458093.634 2      2671.219          33.000  
E19  25783014.904 9                     -1883.979          11.000  
E26  21965196.007 4 115427890.623 2      1085.353          33.000  
E21  23620292.669 8 124125503.283 3       157.264          30.000  
J 3  37615395.293 8 197670224.70023      -679.954          31.000  
> 2021  5 17  2 35  8.9970000  0 11                     
G 8  20061377.769 9                     -1791.923          20.000  
G 7  19982347.818 9                      2345.968          17.000  
G21  19527771.779 9                       937.133          25.000  
G 9  21996636.743 9 115593105.99734     -1828.385          31.000  
J 2  37467918.735 9                      1263.474          22.000  
G 4  22687591.023 9                     -2665.000          18.000  
E13  24300654.702 8 127700820.168 4     -1700.309          29.000  
E18  18735443.227 9                      2661.164          22.000  
E26  21964993.031 9                      1086.221          22.000  
E21  23620265.255 9                       157.789          22.000  
J 3  37615530.048 9                      -679.335          26.000  
> 2021  5 17  2 35  9.9970000  0 11                     
G 8  20061716.176 9                     -1797.888          19.000  
G 7  19981904.321 9                      2345.968          16.000  
G21  19527598.184 9 102618220.87935       930.750          33.000  
G 9  21996985.132 8 115594932.77723     -1827.870          32.000  
J 2  37467678.384 9                      1260.077          30.000  
G 4  22688098.676 9                     -2665.000          18.000  
E13  24300981.689 9                     -1697.443          19.000  
E18  18734939.950 9                      2670.615          22.000  
E26  21964780.016 9 115425708.34315      1082.988          31.000  
E21  23620235.598 9                       155.357          29.000  
J 3  37615655.655 9                      -680.587          32.000  
> 2021  5 17  2 35 10.9970000  0 11                     
G 8  20062052.843 9                     -1788.662          18.000  
G 7  19981453.437 9                      2341.204          31.000  
G21  19527418.909 9                       930.645          28.000  
G 9  21997334.228 8 115596760.50125     -1828.521          27.000  
J 2  37467432.419 9 196892719.92735      1257.541          29.000  
G 4  22688602.106 9                     -2665.000          17.000  
E13  24301300.500 9                     -1696.538          22.000  
E18  18734422.411 9                      2673.438          22.000  
E26  21964568.877 9 115424626.017 4      1081.417          30.000  
E21  23620204.092 9                       154.721          28.000  
J 3  37615782.055 9 197672286.37034      -683.422          30.000  
> 2021  5 17  2 35 11.9970000  0 10                     
G 8  20062392.150 9                     -1782.614          18.000  
G 7  19980996.682 9 105000845.34434      2340.350          28.000  
G21  19527239.360 9                       929.428          29.000  
G 9  21997682.744 8 115598588.33725     -1827.551          28.000  
J 2  37467193.316 9                      1256.905          28.000  
E13  24301624.760 9                     -1704.158          24.000  
E18  18733916.979 9  98447408.54615      2667.287          31.000  
E26  21964372.584 8 115423544.451 4      1081.048          30.000  
E21  23620174.614 9 124124866.00515       154.059          28.000  
J 3  37615918.498 9 197672968.43725      -680.585          23.000  
> 2021  5 17  2 35 12.9970000  0 11                     
G 8  20062732.804 9                     -1785.476          17.000  
G 7  19980555.785 9                      2341.095          29.000  
G21  19527063.950 8                       930.312          28.000  
G 9  21998031.360 8 115600414.91225     -1826.530          28.000  
J 2  37466953.812 9                      1258.484          27.000  
G 4  22689615.811 9                     -2665.000          14.000  
E13  24301950.813 9                     -1696.134          23.000  
E18  18733405.910 9  98444739.496 4      2669.135          30.000  
E26  21964160.791 9                      1081.441          23.000  
E21  23620143.130 9                       154.287          24.000  
J 3  37616045.296 9                      -681.637          25.000  
> 2021  5 17  2 35 13.9970000  0 12                     
G 8  20063071.526 9                     -1785.476          16.000  
G 7  19980107.114 8 104996186.43934      2342.432          32.000  
G21  19526886.032 9                       917.661          27.000  
G 9  21998376.181 8 115602241.68723     -1827.420          31.000  
G 1  20434449.097 9                      3235.115          29.000  
J 2  37466713.557 9                      1256.446          26.000  
E 1  24307228.806 9                      1485.466          28.000  
E13  24302275.217 9                     -1708.377          23.000  
E18  18732901.852 8  98442070.516 3      2667.734          31.000  
E26  21963961.029 9                      1076.158          22.000  
E21  23620112.705 9                       153.030          24.000  
J 3  37616170.850 9                      -687.564          24.000  
> 2021  5 17  2 35 14.9970000  0 11                     
G 8  20063415.099 9                     -1789.454          28.000  
G 7  19979662.574 9                      2342.952          27.000  
G21  19526710.500 9 102613555.75434       927.703          34.000  
G 9  21998722.624 8 115604068.59123     -1826.195          31.000  
G 1  20433811.942 9 107380405.71334      3235.310          33.000  
J 2  37466474.851 9 196887654.10934      1258.298          31.000  
E13  24302598.395 9                     -1707.157          22.000  
E18  18732394.958 8  98439402.583 2      2668.300          32.000  
E26  21963751.291 9                      1079.867          30.000  
E21  23620084.916 9                       155.360          25.000  
J 3  37616302.534 9 197675003.96935      -680.796          31.000  
> 2021  5 17  2 35 15.9970000  0 11                     
G 8  20063754.008 9 105435738.59234     -1796.783          33.000  
G 7  19979213.170 8 104991473.05233      2340.521          35.000  
G21  19526532.949 8 102612627.05122       929.977          35.000  
G 9  21999071.567 4 115605894.22522     -1825.175          33.000  
G 1  20433189.990 8 107377169.07122      3238.246          36.000  
J 2  37466235.513 8 196886394.66423      1259.565          31.000  
E13  24302924.456 9                     -1705.570          25.000  
E18  18731891.362 8  98436734.672 2      2667.526          33.000  
E26  21963546.813 9 115419220.87213      1081.230          31.000  
E21  23620056.358 9                       155.351          27.000  
J 3  37616432.290 8 197675684.89324      -680.860          31.000  
> 2021  5 17  2 35 16.9970000  0  9                     
G 8  20064097.996 9                     -1811.182          32.000  
G 7  19978766.915 8 104989133.62123      2337.714          34.000  
G21  19526356.649 8 102611698.32422       928.337          35.000  
J 2  37465997.793 8 196885135.31223      1259.417          30.000  
E13  24303250.588 9                     -1706.580          25.000  
E18  18731380.987 4  98434068.364 2      2665.382          32.000  
E26  21963342.659 8 115418139.632 3      1081.446          31.000  
E21  23620025.860 8                       152.970          26.000  
J 3  37616561.395 8 197676366.09124      -681.858          30.000  
> 2021  5 17  2 35 17.9970000  0  8                     
G 8  20064438.594 9                     -1788.663          25.000  
G 7  19978320.360 9                      2315.558          19.000  
G21  19526182.749 9                       928.586          23.000  
E13  24303575.332 9                     -1710.467          23.000  
E18  18730872.845 9                      2672.159          26.000  
E26  21963137.601 9                      1080.848          24.000  
E21  23619996.116 9                       156.885          24.000  
J 3  37616693.755 9                      -684.716          20.000  
> 2021  5 17  2 35 18.9970000  0  8                     
G 8  20064780.805 9                     -1804.251          22.000  
G 7  19977884.986 9                      2338.934          18.000  
G21  19526002.920 9                       930.733          25.000  
E13  24303900.430 9                     -1710.467          19.000  
E18  18730364.769 9                      2662.302          25.000  
E26  21962936.331 9                      1080.476          23.000  
E21  23619966.132 9                       168.677          21.000  
J 3  37616825.936 9                      -681.075          19.000  
> 2021  5 17  2 35 19.9970000  0 10                     
G 8  20065125.238 9                     -1800.878          31.000  
G 7  19977439.687 9                      2334.521          30.000  
G21  19525828.558 9                       937.681          22.000  
G 9  22000458.546 9                     -1825.695          25.000  
J 2  37465280.890 9                      1256.224          24.000  
E13  24304226.278 9                     -1709.311          19.000  
E18  18729860.156 9                      2662.050          28.000  
E26  21962722.592 9                      1077.793          25.000  
E21  23619935.677 9                       152.955          21.000  
J 3  37616947.547 9                      -679.351          22.000  
> 2021  5 17  2 35 20.9970000  0 10                     
G 8  20065469.343 9 105444752.84034     -1800.732          32.000  
G 7  19976992.128 9 104979817.58734      2337.085          34.000  
G21  19525649.828 9                       942.214          20.000  
G 9  22000809.927 9 115615014.44234     -1824.240          32.000  
J 2  37465040.051 9 196880121.49235      1259.046          27.000  
E13  24304551.929 9                     -1710.809          23.000  
E18  18729351.247 8  98423415.31014      2662.396          33.000  
E26  21962519.977 9 115413831.22814      1080.064          33.000  
E21  23619910.431 9                       152.853          25.000  
J 3  37617081.067 9 197679094.92235      -683.064          30.000  
> 2021  5 17  2 35 21.9970000  0 11                     
G 8  20065806.163 8 105446553.99923     -1801.508          32.000  
G 7  19976547.706 9                      2331.155          22.000  
G21  19525475.959 9 102607067.94835       924.446          36.000  
G 9  22001156.572 8 115616839.68824     -1827.259          29.000  
G 1  20429510.354 9                      3234.150          29.000  
J 2  37464799.443 8 196878863.31524      1256.884          30.000  
E13  24304877.332 9                     -1710.732          26.000  
E18  18728849.322 8  98420753.681 2      2660.603          34.000  
E26  21962316.878 8 115412752.463 3      1077.642          32.000  
E21  23619880.260 9 124123324.72315       152.132          27.000  
J 3  37617209.500 8 197679777.37524      -683.320          30.000  
> 2021  5 17  2 35 22.9970000  0 10                     
G 8  20066153.701 8 105448356.17622     -1803.149          34.000  
G 7  19976105.731 9                      2331.155          20.000  
G21  19525299.506 8 102606144.71423       922.217          36.000  
G 9  22001505.175 8                     -1832.954          28.000  
J 2  37464556.658 8 196877606.01324      1257.236          30.000  
E13  24305203.442 8 127724713.23915     -1711.969          26.000  
E18  18728341.316 8  98418094.215 2      2658.656          35.000  
E26  21962107.201 8 115411675.600 2      1075.607          32.000  
E21  23619852.492 8 124123173.059 4       150.996          27.000  
J 3  37617340.176 8 197680460.87823      -683.797          31.000  
> 2021  5 17  2 35 23.9970000  0 10                     
G 8  20066495.473 8 105450158.75223     -1802.515          36.000  
G 7  19975663.307 9                      2333.842          17.000  
G21  19525126.871 9                       920.352          29.000  
G 9  22001851.514 8                     -1829.960          28.000  
J 2  37464314.942 9                      1261.147          22.000  
E13  24305526.646 9                     -1711.937          27.000  
E18  18727834.906 8  98415436.189 3      2657.113          34.000  
E26  21961901.175 9                      1079.859          26.000  
E21  23619821.950 8 124123021.637 4       151.732          27.000  
J 3  37617471.175 8 197681144.73225      -680.603          30.000  
> 2021  5 17  2 35 24.9970000  0  9                     
G 8  20066838.793 9                     -1799.182          29.000  
G 7  19975221.450 9                      2333.769          19.000  
G21  19524951.357 9                       921.681          21.000  
G 9  22002200.007 9 115622340.80735     -1832.921          32.000  
E13  24305851.299 9                     -1708.625          26.000  
E18  18727328.152 8  98412778.352 3      2658.797          34.000  
E26  21961711.530 9                      1075.809          24.000  
E21  23619793.711 9                       151.018          26.000  
J 3  37617599.888 9                      -693.017          21.000  
> 2021  5 17  2 35 25.9970000  0 10                     
G 8  20067185.262 9                     -1793.370          29.000  
G 7  19974777.482 9                      2336.831          38.000  
G21  19524784.991 9                       928.442          22.000  
G 9  22002549.941 8 115624175.04424     -1836.815          31.000  
J 2  37463840.841 9                      1258.119          30.000  
E13  24306175.969 9                     -1706.651          25.000  
E18  18726822.776 8  98410119.231 4      2659.208          34.000  
E26  21961515.595 9                      1072.831          23.000  
E21  23619763.775 9                       155.845          25.000  
J 3  37617728.880 9                      -681.326          30.000  
> 2021  5 17  2 35 26.9970000  0 10                     
G 8  20067530.497 9                     -1802.368          29.000  
G 7  19974325.412 9                      2341.425          36.000  
G21  19524609.826 9                       928.442          19.000  
G 9  22002904.259 9                     -1845.510          24.000  
J 2  37463604.801 9 196872571.22033      1260.243          34.000  
E13  24306500.207 9                     -1701.098          26.000  
E18  18726318.626 9                      2660.296          34.000  
E26  21961313.495 9                      1072.831          19.000  
E21  23619734.079 9                       160.212          27.000  
J 3  37617860.202 9 197683188.91033      -679.295          33.000  
> 2021  5 17  2 35 27.9970000  0 10                     
G 8  20067874.851 9                     -1802.775          29.000  
G 7  19973876.413 8 104963444.81232      2343.945          36.000  
G21  19524425.425 9                       910.976          36.000  
J 2  37463364.433 8 196871310.65522      1261.775          34.000  
E 1  24303278.238 9                      1503.612          33.000  
E13  24306823.171 9                     -1698.014          25.000  
E18  18725808.591 8  98404817.08513      2662.036          35.000  
E26  21961090.429 9 115406319.27615      1066.811          33.000  
E21  23619706.255 9 124122390.85813       160.930          31.000  
J 3  37617988.365 8 197683868.36023      -679.138          32.000  
> 2021  5 17  2 35 28.9970000  0 11                     
G 8  20068216.282 9                     -1772.115          26.000  
G 7  19973429.042 4 104961099.56822      2346.667          36.000  
G21  19524252.633 9 102600639.75833       906.913          35.000  
G 9  22003597.853 9                     -1846.703          34.000  
J 2  37463122.656 4 196870049.01122      1263.534          34.000  
E 1  24302976.083 9 127713011.34213      1508.813          33.000  
E13  24307142.523 8 127734926.91714     -1692.617          28.000  
E18  18725299.830 8  98402154.635 2      2663.404          36.000  
E26  21960882.348 9 115405253.731 3      1065.066          29.000  
E21  23619670.490 8 124122228.604 3       164.525          32.000  
J 3  37618121.894 8 197684546.49623      -676.962          32.000  
> 2021  5 17  2 35 29.9970000  0 11                     
G 8  20068548.827 9                     -1780.994          31.000  
G 7  19972985.226 4 104958753.02222      2346.167          34.000  
G21  19524081.137 9                       909.412          27.000  
G 9  22003954.941 8 115631536.54833     -1851.357          32.000  
J 2  37462883.915 8 196868784.81623      1265.501          30.000  
E 1  24302691.793 8 127711502.258 3      1509.780          31.000  
E13  24307467.677 9                     -1688.852          26.000  
E18  18724799.070 4  98399491.546 1      2662.785          35.000  
E26  21960686.875 8 115404188.973 4      1065.729          29.000  
E21  23619641.999 8 124122062.476 3       168.107          31.000  
J 3  37618249.865 8 197685222.08524      -673.755          31.000  
> 2021  5 17  2 35 30.9970000  0 11                     
G 8  20068880.817 9 105462716.18734     -1780.786          33.000  
G 7  19972537.816 4 104956407.81122      2342.639          31.000  
G21  19523904.274 9                       909.503          28.000  
G 9  22004308.722 8 115633391.01924     -1856.531          26.000  
J 2  37462635.014 8 196867517.84123      1267.948          30.000  
E 1  24302407.524 8 127709993.336 5      1508.121          24.000  
E13  24307794.341 9                     -1690.669          22.000  
E18  18724293.594 4  98396829.319 2      2661.349          35.000  
E26  21960474.886 8 115403123.344 4      1067.043          29.000  
E21  23619607.260 8 124121892.843 3       171.663          30.000  
J 3  37618372.723 8 197685895.19823      -672.068          31.000  
> 2021  5 17  2 35 31.9970000  0 11                     
G 8  20069223.343 8 105464496.02623     -1780.060          32.000  
G 7  19972094.148 9                      2342.162          25.000  
G21  19523733.554 8 102597898.67233       912.989          32.000  
G 9  22004662.787 9                     -1867.175          25.000  
J 2  37462397.599 8 196866247.86124      1270.992          30.000  
E 1  24302122.811 9                      1504.607          23.000  
E13  24308116.969 9                     -1690.669          19.000  
E18  18723782.717 4  98394168.518 2      2660.190          34.000  
E26  21960277.650 8 115402056.447 4      1068.477          29.000  
E21  23619577.027 9                       174.195          21.000  
J 3  37618501.528 9                      -669.002          30.000  
> 2021  5 17  2 35 32.9970000  0 11                     
G 8  20069557.951 9                     -1772.511          27.000  
G 7  19971646.760 9                      2337.122          27.000  
G21  19523560.758 8 102596985.00323       914.516          32.000  
G 9  22005026.480 9                     -1874.901          22.000  
J 2  37462159.979 8 196864973.85725      1276.283          29.000  
E 1  24301831.436 9                      1497.300          23.000  
E13  24308442.307 9                     -1690.669          10.000  
E18  18723279.788 4  98391509.669 3      2659.384          28.000  
E26  21960072.113 8 115400987.356 4      1071.079          29.000  
E21  23619541.245 9                       178.049          22.000  
J 3  37618629.730 8 197687226.15634      -664.187          30.000  
> 2021  5 17  2 35 33.9970000  0  9                     
G 8  20069900.071 9                     -1773.429          25.000  
G 7  19971204.000 9                      2333.335          27.000  
G21  19523387.407 8 102596067.72023       918.072          32.000  
J 2  37461915.755 8 196863695.44824      1279.639          29.000  
E 1  24301541.950 9                      1499.919          25.000  
E18  18722769.636 8  98388852.852 3      2656.872          33.000  
E26  21959870.345 8 115399915.679 3      1073.312          30.000  
E21  23619509.194 9                       182.924          26.000  
J 3  37618756.083 8 197687889.45124      -662.738          31.000  
> 2021  5 17  2 35 34.9970000  0 11                     
G 8  20070235.329 9                     -1779.053          26.000  
G 7  19970762.535 8 104947043.23835      2330.707          32.000  
G21  19523211.666 8 102595148.45922       919.045          33.000  
G 1  20421555.083 9                      3211.105          21.000  
J 2  37461668.708 8 196862414.32623      1280.491          30.000  
G27  22243345.570 9                     -2868.932          14.000  
E 1  24301253.860 9 127703961.18115      1497.362          27.000  
E18  18722264.487 8  98386197.983 2      2654.254          32.000  
E26  21959661.239 8 115398842.841 3      1073.087          31.000  
E21  23619467.392 8 124121183.81615       185.479          26.000  
J 3  37618883.596 8 197688550.41023      -660.877          30.000  
> 2021  5 17  2 35 35.9970000  0 11                     
G 8  20070576.132 9 105471576.67735     -1778.656          26.000  
G 7  19970321.878 8 104944712.02023      2331.121          31.000  
G21  19523036.043 8 102594229.45822       918.486          32.000  
G 1  20420939.972 9                      3211.105          23.000  
J 2  37461426.198 8 196861132.54023      1281.685          30.000  
G27  22243896.591 9                     -2868.932          15.000  
E 1  24300971.655 9 127702463.278 4      1498.240          26.000  
E18  18721763.905 8  98383544.319 3      2654.255          30.000  
E26  21959458.786 8 115397770.126 2      1072.599          30.000  
E21  23619432.269 8 124120998.321 5       186.021          26.000  
J 3  37619006.707 8 197689210.91623      -659.814          30.000  
> 2021  5 17  2 35 36.9970000  0 12                     
G 8  20070912.851 9                     -1779.650          26.000  
G 7  19969874.742 4 104942380.89323      2331.252          30.000  
G21  19522862.823 8 102593310.78823       917.748          31.000  
G 1  20420327.229 9                      3211.105          23.000  
J 2  37461180.617 8 196859850.47323      1282.422          30.000  
G27  22244447.324 9                     -2868.932          16.000  
G16  23285395.256 9                     -1553.617          12.000  
E 1  24300684.721 8 127700965.034 5      1498.660          26.000  
E18  18721259.948 8  98380891.148 2      2652.333          30.000  
E26  21959258.126 8 115396697.511 3      1072.945          30.000  
E21  23619396.483 8 124120812.706 5       185.794          26.000  
J 3  37619129.155 4 197689871.19323      -660.203          29.000  
> 2021  5 17  2 35 37.9970000  0 13                     
G 8  20071250.116 9                     -1780.379          25.000  
G 7  19969432.362 4 104940051.00523      2329.630          30.000  
G21  19522686.969 8 102592393.35923       916.472          31.000  
G 9  22006852.083 9                     -1872.640          18.000  
G 1  20419712.245 9                      3209.728          24.000  
J 2  37460937.470 8 196858568.98123      1282.237          30.000  
G27  22244996.805 9                     -2868.932          15.000  
G16  23285691.155 9                     -1553.617          11.000  
E 1  24300401.151 8 127699467.518 4      1497.171          26.000  
E18  18720754.402 4  98378239.389 2      2650.735          31.000  
E26  21959052.340 8 115395626.025 3      1071.247          30.000  
E21  23619363.393 4 124120627.809 4       184.866          26.000  
J 3  37619254.356 4 197690532.13222      -661.153          29.000  
> 2021  5 17  2 35 38.9970000  0 12                     
G 8  20071586.783 9                     -1779.766          24.000  
G 7  19968989.092 4 104937721.81423      2328.759          29.000  
G21  19522510.386 8 102591476.90323       915.699          30.000  
G 9  22007203.491 9                     -1872.640          19.000  
G 1  20419100.859 9                      3210.070          25.000  
J 2  37460695.165 4 196857287.84723      1281.073          29.000  
G27  22245544.476 9                     -2868.932          15.000  
E 1  24300119.870 4 127697970.213 4      1497.287          26.000  
E18  18720247.822 4  98375588.694 2      2649.848          30.000  
E26  21958848.342 8 115394555.322 3      1070.880          30.000  
E21  23619328.331 4 124120443.337 4       184.460          26.000  
J 3  37619381.560 4 197691193.30723      -660.898          29.000  
> 2021  5 17  2 35 39.9970000  0 13                     
G 8  20071924.580 9                     -1778.497          24.000  
G 7  19968546.694 4 104935392.90322      2329.181          29.000  
G21  19522341.633 4 102590560.95922       915.544          31.000  
G 9  22007552.984 9                     -1872.640          18.000  
G 1  20418490.372 9                      3209.010          25.000  
J 2  37460449.287 8 196856006.52223      1282.117          30.000  
G27  22246092.814 9                     -2868.932          14.000  
G16  23286279.096 9                     -1553.617          11.000  
E 1  24299836.976 4 127696472.733 3      1497.647          27.000  
E18  18719744.789 4  98372938.627 2      2649.833          30.000  
E26  21958646.483 8 115393484.924 3      1071.489          31.000  
E21  23619289.613 4 124120258.782 4       184.489          26.000  
J 3  37619510.351 4 197691854.42322      -660.838          29.000  
> 2021  5 17  2 35 40.9970000  0 12                     
G 8  20072264.419 9                     -1780.321          25.000  
G 7  19968101.866 4 104933064.54723      2328.279          28.000  
G21  19522167.105 8 102589645.66522       914.933          32.000  
G 9  22007907.734 9                     -1872.640          19.000  
G 1  20417880.251 9                      3207.314          25.000  
J 2  37460205.228 4 196854725.18323      1281.380          30.000  
G27  22246641.846 9                     -2868.932          15.000  
E 1  24299556.351 4 127694975.237 3      1497.896          27.000  
E18  18719240.778 4  98370289.424 3      2648.482          30.000  
E26  21958441.333 8 115392415.064 3      1069.951          31.000  
E21  23619254.748 4 124120074.453 4       183.657          26.000  
J 3  37619639.574 4 197692515.51422      -661.031          29.000  
> 2021  5 17  2 35 41.9970000  0 12                     
G 8  20072604.475 9                     -1781.156          25.000  
G 7  19967658.203 4 104930736.45022      2328.506          29.000  
G21  19521989.833 4 102588730.87022       914.845          32.000  
G 9  22008255.626 9                     -1872.640          18.000  
G 1  20417269.786 9                      3208.514          26.000  
J 2  37459960.310 4 196853443.63423      1281.719          29.000  
G27  22247190.717 9                     -2868.932          15.000  
E 1  24299274.835 4 127693477.641 3      1497.483          27.000  
E18  18718737.266 4  98367640.802 3      2647.648          30.000  
E26  21958241.118 8 115391345.505 2      1069.616          31.000  
E21  23619219.446 4 124119889.980 3       184.239          27.000  
J 3  37619764.666 4 197693176.48823      -660.888          29.000  
> 2021  5 17  2 35 42.9970000  0 11                     
G 8  20072943.956 9                     -1779.800          24.000  
G 7  19967220.865 8 104928408.394 3      2328.057          30.000  
G21  19521815.226 8 102587815.76212       914.870          32.000  
G 1  20416659.451 9                      3208.638          25.000  
J 2  37459715.479 8 196852161.51023      1284.963          29.000  
G27  22247739.770 9                     -2868.932          14.000  
E 1  24298992.695 4 127691979.468 4      1498.702          27.000  
E18  18718223.143 8  98364992.424 3      2649.189          30.000  
E26  21958038.028 8 115390275.916 2      1070.026          31.000  
E21  23619182.094 9                       183.813          26.000  
J 3  37619886.342 4 197693836.50213      -659.999          29.000  
> 2021  5 17  2 35 43.9970000  0 12                     
G 8  20073281.980 9                     -1780.824          22.000  
G 7  19966774.589 4 104926079.807 3      2327.808          30.000  
G21  19521642.783 4 102586900.856 2       914.687          31.000  
G 1  20416046.565 9                      3209.928          25.000  
J 2  37459472.341 4 196850878.66123      1282.072          29.000  
G27  22248289.871 9                     -2868.932          14.000  
G16  23287471.025 9                     -1553.617          10.000  
E 1  24298706.193 4 127690480.332 3      1499.364          27.000  
E18  18717722.003 8  98362343.983 4      2648.097          30.000  
E26  21957831.095 8 115389205.856 3      1070.602          31.000  
E21  23619146.574 9                       186.025          25.000  
J 3  37620012.341 4 197694496.056 3      -659.577          29.000  
> 2021  5 17  2 35 44.9970000  0 11                     
G 8  20073622.011 9                     -1784.099          21.000  
G 7  19966326.123 8 104923751.574 3      2327.277          30.000  
G21  19521464.921 8 102585986.515 3       913.924          31.000  
G 1  20415433.852 9                      3209.249          25.000  
J 2  37459231.157 8 196849595.52824      1282.534          29.000  
G27  22248842.873 9                     -2895.599          15.000  
E 1  24298418.623 4 127688981.084 3      1499.004          27.000  
E18  18717217.208 8  98359696.245 3      2647.341          29.000  
E26  21957629.728 8 115388136.196 3      1069.822          31.000  
E21  23619112.175 9                       186.520          25.000  
J 3  37620135.152 4 197695155.584 3      -660.062          29.000  
> 2021  5 17  2 35 45.9970000  0 11                     
G 8  20073962.800 9                     -1779.651          21.000  
G 7  19965884.017 8 104921424.194 3      2325.885          30.000  
G21  19521290.515 8 102585073.205 2       913.119          31.000  
G 1  20414823.802 9                      3208.321          26.000  
J 2  37458990.348 8 196848312.77223      1281.995          30.000  
G27  22249394.334 9                     -2882.796          14.000  
E 1  24298131.610 4 127687482.202 4      1498.834          27.000  
E18  18716720.361 8  98357049.664 3      2645.768          29.000  
E26  21957428.039 8 115387067.376 3      1067.903          31.000  
E21  23619077.384 9                       185.553          25.000  
J 3  37620265.143 4 197695815.402 2      -659.902          29.000  
> 2021  5 17  2 35 46.9970000  0 11                     
G 8  20074302.421 9                     -1788.984          21.000  
G 7  19965440.825 8 104919097.767 4      2325.924          29.000  
G21  19521116.698 8 102584161.122 3       911.585          31.000  
G 1  20414215.587 9                      3206.407          26.000  
J 2  37458745.347 8 196847030.54524      1281.110          30.000  
G27  22249943.755 9                     -2882.796          12.000  
E 1  24297845.815 4 127685983.886 4      1497.835          26.000  
E18  18716208.956 8  98354404.400 3      2645.116          29.000  
E26  21957224.019 8 115385999.521 3      1068.077          31.000  
E21  23619046.383 9                       183.888          26.000  
J 3  37620389.567 4 197696475.846 3      -660.523          29.000  
> 2021  5 17  2 35 47.9970000  0 11                     
G 8  20074640.161 9                     -1784.363          21.000  
G 7  19965004.186 4 104916771.732 3      2326.143          29.000  
G21  19520943.518 8 102583249.560 3       911.119          31.000  
G 4  22707407.944 9                     -2703.935          12.000  
G 1  20413605.153 9                      3206.826          26.000  
J 2  37458494.282 8 196845748.13323      1282.913          30.000  
E 1  24297555.592 4 127684485.381 5      1499.011          26.000  
E18  18715712.187 8  98351759.855 2      2644.375          30.000  
E26  21957020.292 8 115384932.134 2      1066.939          31.000  
E21  23619013.241 9                       185.040          26.000  
J 3  37620516.618 4 197697136.199 3      -659.859          29.000  
> 2021  5 17  2 35 48.9970000  0 11                     
G 8  20074976.876 9                     -1777.486          20.000  
G 7  19964562.224 4 104914446.391 3      2325.225          29.000  
G21  19520767.995 4 102582338.902 2       910.419          31.000  
G 4  22707922.608 9                     -2685.015          13.000  
G 1  20412993.278 9                      3204.760          26.000  
J 2  37458253.434 8 196844465.52213      1281.232          29.000  
E 1  24297265.482 4 127682987.191 5      1497.849          25.000  
E18  18715205.874 8  98349116.301 2      2643.682          30.000  
E26  21956816.788 8 115383865.436 2      1066.056          31.000  
E21  23618978.873 9                       184.404          26.000  
J 3  37620639.319 4 197697796.873 3      -660.776          29.000  
> 2021  5 17  2 35 49.9970000  0 11                     
G 8  20075315.066 9                     -1790.122          20.000  
G 7  19964120.154 4 104912121.111 3      2325.075          29.000  
G21  19520594.701 4 102581428.448 2       909.856          31.000  
G 4  22708435.203 9                     -2685.015          13.000  
G 1  20412381.260 8 107267786.73135      3205.602          26.000  
J 2  37458010.566 8 196843182.910 3      1282.433          29.000  
E 1  24296977.501 4 127681488.462 4      1498.450          26.000  
E18  18714708.412 8  98346473.079 3      2643.467          30.000  
E26  21956616.241 8 115382798.717 2      1066.126          31.000  
E21  23618944.618 9                       184.099          26.000  
J 3  37620765.240 4 197698456.979 3      -659.883          29.000  
> 2021  5 17  2 35 50.9970000  0 11                     
G 8  20075653.840 9                     -1786.982          19.000  
G 7  19963676.700 4 104909796.676 2      2324.152          29.000  
G21  19520425.469 8 102580519.050 3       908.340          31.000  
G 4  22708959.731 9                     -2744.097          12.000  
G 1  20411769.385 8 107264581.24824      3205.803          26.000  
J 2  37457765.046 4 196841900.677 2      1281.905          29.000  
E 1  24296689.201 4 127679990.150 5      1497.864          25.000  
E18  18714205.950 8  98343831.124 2      2641.623          30.000  
E26  21956410.102 4 115381732.890 2      1065.498          31.000  
E21  23618912.580 9 124118233.70515       183.805          27.000  
J 3  37620891.326 4 197699117.656 3      -661.043          29.000  
> 2021  5 17  2 35 51.9970000  0 11                     
G 8  20075994.542 9                     -1786.897          19.000  
G 7  19963233.530 4 104907473.003 3      2323.455          29.000  
G21  19520245.064 8 102579610.611 3       907.691          31.000  
G 4  22709476.440 9                     -2744.097          11.000  
G 1  20411159.858 4 107261376.59224      3204.242          26.000  
J 2  37457518.963 4 196840618.723 3      1281.823          29.000  
E 1  24296401.299 4 127678492.103 4      1497.553          25.000  
E18  18713704.758 4  98341190.215 2      2640.373          30.000  
E26  21956206.406 4 115380667.879 2      1064.206          31.000  
E21  23618877.025 8 124118050.303 4       182.980          27.000  
J 3  37621016.863 4 197699778.498 3      -660.712          29.000  
> 2021  5 17  2 35 52.9970000  0 10                     
G 8  20076334.651 9                     -1783.931          19.000  
G 7  19962793.928 4 104905149.585 3      2323.411          28.000  
G21  19520071.495 8 102578702.591 3       907.719          30.000  
G 1  20410549.510 4 107258171.88824      3204.615          26.000  
J 2  37457273.539 4 196839336.509 3      1282.874          28.000  
E 1  24296115.089 9                      1498.609          25.000  
E18  18713201.441 4  98338549.844 2      2640.729          30.000  
E26  21956007.696 8 115379603.071 3      1065.009          30.000  
E21  23618842.081 4 124117866.733 4       183.837          27.000  
J 3  37621144.638 2 197700439.194 3      -660.105          28.000  
> 2021  5 17  2 35 53.9970000  0 10                     
G 8  20076674.647 9                     -1783.931          17.000  
G 7  19962351.578 4 104902825.250 3      2324.345          28.000  
G21  19519899.288 8 102577793.882 3       908.221          30.000  
G 1  20409940.917 4 107254966.34224      3205.501          26.000  
J 2  37457030.527 4 196838052.951 3      1283.913          28.000  
E 1  24295828.971 9                      1499.778          25.000  
E18  18712696.092 8  98335908.971 2      2640.807          31.000  
E26  21955796.818 8 115378537.416 2      1065.298          31.000  
E21  23618804.986 4 124117681.977 3       184.955          27.000  
J 3  37621270.620 2 197701098.582 2      -659.130          28.000  
> 2021  5 17  2 35 54.9970000  0 11                     
G 8  20077013.330 9                     -1783.931          15.000  
G 7  19961911.039 2 104900501.292 2      2322.973          29.000  
G21  19519730.248 8 102576885.706 4       907.470          31.000  
G 4  22711033.646 9                     -2713.213          10.000  
G 1  20409332.480 4 107251761.08225      3204.229          26.000  
J 2  37456785.439 4 196836769.276 3      1282.907          28.000  
E 1  24295544.153 9                      1499.231          26.000  
E18  18712194.812 4  98333268.816 2      2638.097          31.000  
E26  21955596.045 8 115377472.080 2      1064.769          31.000  
E21  23618771.006 4 124117497.233 4       184.022          27.000  
J 3  37621395.110 4 197701757.854 3      -659.676          29.000  
> 2021  5 17  2 35 55.9970000  0 11                     
G 8  20077350.333 9                     -1783.931          14.000  
G 7  19961468.152 2 104898179.216 3      2321.467          29.000  
G21  19519552.007 8 102575979.620 3       905.106          31.000  
G 4  22711547.890 9                     -2713.213          12.000  
G 1  20408724.414 4 107248557.57924      3203.247          26.000  
J 2  37456541.742 4 196835487.013 3      1281.607          28.000  
E 1  24295262.271 9                      1496.699          26.000  
E18  18711698.419 8  98330630.681 3      2638.298          30.000  
E26  21955398.155 8 115376408.730 3      1062.270          30.000  
E21  23618736.332 4 124117314.002 4       182.696          27.000  
J 3  37621519.883 4 197702418.572 3      -661.075          29.000  
> 2021  5 17  2 35 56.9970000  0 11                     
G 8  20077689.669 9                     -1783.931          12.000  
G 7  19961026.566 2 104895857.535 2      2321.525          29.000  
G21  19519384.646 8 102575074.157 2       905.327          31.000  
G 4  22712065.625 9                     -2713.213          12.000  
G 1  20408116.771 4 107245354.47424      3202.647          26.000  
J 2  37456299.066 2 196834204.619 2      1282.672          28.000  
E 1  24294978.042 8                      1498.985          26.000  
E18  18711199.448 8  98327993.520 2      2636.637          30.000  
E26  21955195.331 8 115375345.708 3      1062.754          31.000  
E21  23618702.134 4 124117130.790 3       183.290          27.000  
J 3  37621647.235 4 197703079.237 3      -660.759          29.000  
> 2021  5 17  2 35 57.9970000  0 11                     
G 8  20078027.370 9                     -1783.931          11.000  
G 7  19960583.645 4 104893536.667 3      2320.650          28.000  
G21  19519208.508 8 102574169.700 3       903.792          30.000  
G 4  22712581.506 9                     -2729.936          11.000  
G 1  20407508.186 4 107242179.10035      3201.403          26.000  
J 2  37456053.908 4 196832922.577 3      1281.918          28.000  
E 1  24294693.804 9                      1497.568          26.000  
E18  18710691.341 8  98325357.369 3      2635.443          30.000  
E26  21954990.562 8 115374283.554 3      1061.657          30.000  
E21  23618668.412 4 124116948.147 3       182.304          27.000  
J 3  37621768.575 4 197703740.284 3      -661.509          28.000  
> 2021  5 17  2 35 58.9970000  0 10                     
G 8  20078366.188 9                     -1784.292          13.000  
G 7  19960141.644 4 104891216.076 4      2320.105          27.000  
G21  19519037.116 4 102573265.607 3       903.888          29.000  
G 1  20406899.789 8                      3201.681          24.000  
J 2  37455811.228 4 196831615.80434      1281.938          27.000  
E 1  24294410.107 9                      1498.533          25.000  
E18  18710192.217 8  98322721.802 3      2635.150          29.000  
E26  21954785.722 8 115373221.554 3      1062.357          29.000  
E21  23618638.223 4 124116765.290 4       182.698          27.000  
J 3  37621897.785 4 197704400.998 3      -660.002          27.000  
> 2021  5 17  2 35 59.9970000  0 10                     
G 8  20078706.782 9                     -1784.292          14.000  
G 7  19959700.812 4 104888895.820 4      2320.400          26.000  
G21  19518866.187 4 102572362.175 3       903.067          29.000  
G 1  20406287.186 8                      3201.763          24.000  
J 2  37455566.816 4 196830333.40424      1282.414          27.000  
E 1  24294127.889 9                      1498.843          25.000  
E18  18709684.149 8  98320086.985 3      2634.806          29.000  
E26  21954589.948 8 115372160.169 3      1060.503          29.000  
E21  23618604.522 4 124116582.605 4       182.327          26.000  
J 3  37622023.187 4 197705061.874 4      -660.956          27.000  
> 2021  5 17  2 36  0.9970000  0 10                     
G 8  20079044.509 9                     -1786.241          15.000  
G 7  19959259.055 8                      2318.695          25.000  
G21  19518694.926 4 102571459.443 3       902.521          29.000  
G 1  20405677.008 8                      3201.689          23.000  
J 2  37455322.936 4 196829051.21425      1281.798          26.000  
E 1  24293845.762 9                      1498.135          24.000  
E18  18709189.296 4  98317453.098 3      2633.737          29.000  
E26  21954379.608 8 115371099.209 3      1060.395          28.000  
E21  23618570.071 4 124116400.138 4       181.960          26.000  
J 3  37622146.983 4 197705722.842 4      -662.079          26.000  
> 2021  5 17  2 36  1.9970000  0 10                     
G 8  20079383.270 9                     -1781.758          15.000  
G 7  19958817.102 8                      2318.315          25.000  
G21  19518520.974 4 102570557.316 3       901.935          28.000  
G 1  20405067.071 9                      3198.951          22.000  
J 2  37455077.748 8                      1282.651          25.000  
E 1  24293562.301 9                      1497.782          24.000  
E18  18708686.752 4  98314819.830 2      2633.449          28.000  
E26  21954179.436 4 115370038.605 3      1061.036          28.000  
E21  23618534.364 4 124116217.532 4       183.052          26.000  
J 3  37622269.492 4 197706383.466 4      -659.309          26.000  
> 2021  5 17  2 36  2.9970000  0 10                     
G 8  20079721.678 9                     -1781.758          15.000  
G 7  19958375.778 8                      2319.416          24.000  
G21  19518348.003 4 102569654.702 3       902.189          28.000  
G 1  20404456.396 9                      3198.795          22.000  
J 2  37454833.458 9                      1279.173          25.000  
E 1  24293278.002 9                      1498.685          24.000  
E18  18708188.365 4  98312186.305 2      2632.640          29.000  
E26  21953982.253 4 115368977.451 3      1060.880          28.000  
E21  23618498.852 4 124116034.079 4       183.371          26.000  
J 3  37622395.483 4 197707043.259 4      -659.532          26.000  
> 2021  5 17  2 36  3.9970000  0 10                     
G 8  20080061.416 9                     -1790.812          17.000  
G 7  19957932.542 8                      2319.040          24.000  
G21  19518174.617 4 102568753.531 3       900.797          28.000  
G 1  20403849.002 9                      3196.667          22.000  
J 2  37454587.117 9                      1283.049          25.000  
E 1  24292993.616 9                      1491.708          24.000  
E18  18707682.758 4  98309554.316 2      2631.023          29.000  
E26  21953777.597 4 115367917.526 3      1058.844          28.000  
E21  23618463.271 4 124115851.521 4       182.424          26.000  
J 3  37622522.206 4 197707703.802 4      -661.385          27.000  
> 2021  5 17  2 36  4.9970000  0 11                     
G 8  20080403.972 9                     -1797.831          17.000  
G 7  19957489.817 9                      2316.805          23.000  
G21  19518002.597 4 102567853.646 3       899.643          28.000  
G 9  22016491.055 9                     -1881.141          19.000  
G 1  20403240.408 9                      3201.205          21.000  
J 2  37454341.340 9                      1280.698          25.000  
E 1  24292708.824 9                      1498.410          23.000  
E18  18707180.126 4  98306923.753 3      2630.327          29.000  
E26  21953577.303 4 115366858.635 3      1058.653          28.000  
E21  23618427.516 4 124115669.677 4       181.073          26.000  
J 3  37622647.547 4 197708364.919 4      -661.417          26.000  
> 2021  5 17  2 36  5.9970000  0 12                     
G 8  20080742.921 9                     -1772.904          18.000  
G 7  19957048.601 9                      2318.435          23.000  
G21  19517833.383 4 102566953.572 3       899.701          28.000  
G 9  22016847.506 9                     -1881.141          18.000  
G 4  22716737.659 9                     -2729.936          10.000  
G 1  20402632.050 9                      3195.310          21.000  
J 2  37454095.649 9                      1282.849          25.000  
E 1  24292422.793 9                      1502.092          23.000  
E18  18706679.785 4  98304293.075 3      2630.864          28.000  
E26  21953376.168 4 115365799.404 3      1059.126          28.000  
E21  23618391.224 4 124115487.026 4       182.876          25.000  
J 3  37622770.907 4 197709025.163 4      -659.885          26.000  
> 2021  5 17  2 36  6.9970000  0 12                     
G 8  20081080.735 9                     -1784.476          18.000  
G 7  19956603.970 9                      2317.225          23.000  
G21  19517664.011 2 102566054.037 2       899.155          29.000  
G 9  22017204.769 9                     -1881.141          17.000  
G 4  22717258.531 9                     -2729.936          11.000  
G 1  20402023.474 9                      3202.888          21.000  
J 2  37453851.180 9                      1283.890          25.000  
E 1  24292134.066 9                      1495.926          22.000  
E18  18706180.207 4  98301663.186 3      2629.566          28.000  
E26  21953176.577 2 115364740.543 2      1058.728          28.000  
E21  23618357.968 8 124115304.432 5       183.135          25.000  
J 3  37622895.894 4 197709685.397 4      -660.381          26.000  
> 2021  5 17  2 36  7.9970000  0 12                     
G 8  20081421.372 9                     -1788.069          18.000  
G 7  19956161.685 9                      2317.063          22.000  
G21  19517496.611 2 102565155.280 3       898.094          29.000  
G 9  22017565.073 9                     -1881.141          17.000  
G 4  22717777.684 9                     -2729.936          10.000  
G 1  20401414.631 9                      3196.284          21.000  
J 2  37453608.182 9                      1281.411          25.000  
E 1  24291846.404 9                      1500.785          23.000  
E18  18705681.846 4  98299034.199 3      2628.378          29.000  
E26  21952973.325 4 115363682.326 3      1057.642          28.000  
E21  23618324.581 8 124115122.162 5       181.999          26.000  
J 3  37623022.966 4 197710345.781 4      -660.270          27.000  
> 2021  5 17  2 36  8.9970000  0 11                     
G 8  20081759.470 9                     -1786.271          19.000  
G 7  19955721.586 9                      2318.948          22.000  
G21  19517325.437 2 102564257.197 2       898.416          29.000  
G 9  22017925.699 9                     -1881.141          17.000  
G 1  20400807.695 9                      3191.513          20.000  
J 2  37453364.228 9                      1283.109          26.000  
E 1  24291557.001 9                      1505.862          24.000  
E18  18705180.811 4  98296405.997 2      2628.515          30.000  
E26  21952772.443 4 115362624.572 2      1057.807          29.000  
E21  23618290.405 4 124114940.018 4       182.557          26.000  
J 3  37623148.582 4 197711006.136 3      -659.557          27.000  
> 2021  5 17  2 36  9.9970000  0 11                     
G 8  20082099.985 9                     -1791.333          20.000  
G 7  19955279.476 9                      2314.188          23.000  
G21  19517157.374 8 102563358.894 3       897.743          30.000  
G 9  22018286.403 9                     -1881.141          19.000  
G 1  20400199.773 9                      3194.217          21.000  
J 2  37453120.457 9                      1283.765          27.000  
E 1  24291266.101 9                      1500.179          25.000  
E18  18704677.965 8  98293777.761 3      2627.662          31.000  
E26  21952573.065 8 115361566.409 3      1057.474          30.000  
E21  23618254.266 4 124114757.037 4       183.117          27.000  
J 3  37623274.040 4 197711665.685 3      -659.200          28.000  
> 2021  5 17  2 36 10.9970000  0 11                     
G 8  20082442.136 9                     -1800.036          20.000  
G 7  19954838.509 9                      2311.718          22.000  
G21  19516986.890 8 102562461.291 3       897.072          30.000  
G 9  22018647.195 9                     -1881.141          19.000  
G 1  20399591.925 9                      3188.003          19.000  
J 2  37452876.926 8 196816192.39035      1283.958          27.000  
E 1  24290979.268 9                      1499.641          25.000  
E18  18704181.454 8  98291150.300 3      2626.573          30.000  
E26  21952368.658 8 115360508.720 3      1057.672          30.000  
E21  23618222.628 4 124114574.262 4       182.670          26.000  
J 3  37623397.675 4 197712325.282 3      -659.711          28.000  
> 2021  5 17  2 36 11.9970000  0 11                     
G 8  20082782.014 9                     -1783.085          20.000  
G 7  19954395.269 9                      2313.782          22.000  
G21  19516819.905 8 102561565.111 3       894.449          31.000  
G 9  22019008.716 9                     -1881.141          19.000  
G 1  20398986.014 9                      3192.164          18.000  
J 2  37452632.344 8 196814909.13325      1283.448          27.000  
E 1  24290692.979 9                      1499.377          25.000  
E18  18703675.398 8  98288524.359 2      2625.766          30.000  
E26  21952168.805 8 115359452.293 3      1056.591          30.000  
E21  23618186.018 4 124114392.350 5       181.611          27.000  
J 3  37623521.776 4 197712985.685 3      -661.429          27.000  
> 2021  5 17  2 36 12.9970000  0 11                     
G 8  20083124.051 9                     -1789.461          20.000  
G 7  19953955.105 9                      2318.534          22.000  
G21  19516649.870 8 102560669.855 3       895.508          30.000  
G 9  22019370.228 9                     -1881.141          18.000  
G 1  20398375.532 9                      3205.731          17.000  
J 2  37452387.801 8 196813626.31925      1282.868          25.000  
E 1  24290411.115 9                      1498.010          25.000  
E18  18703180.235 8  98285899.636 3      2624.302          29.000  
E26  21951969.052 8 115358396.753 3      1055.297          30.000  
E21  23618150.651 4 124114210.938 4       181.141          27.000  
J 3  37623645.669 4 197713646.350 3      -660.785          27.000  
> 2021  5 17  2 36 13.9970000  0 11                     
G 8  20083464.893 9                     -1784.371          21.000  
G 7  19953512.664 9                      2315.482          22.000  
G21  19516474.944 8 102559775.359 3       893.952          30.000  
G 9  22019731.757 9                     -1881.141          17.000  
G 1  20397766.170 9                      3193.500          17.000  
J 2  37452143.921 4 196812343.42125      1282.548          26.000  
E 1  24290125.346 9                      1498.597          25.000  
E18  18702677.442 8  98283275.681 3      2623.665          30.000  
E26  21951763.240 8 115357341.664 3      1054.557          30.000  
E21  23618117.111 4 124114029.637 3       181.154          27.000  
J 3  37623772.981 4 197714307.075 4      -661.016          26.000  
> 2021  5 17  2 36 14.9970000  0 11                     
G 8  20083805.508 9                     -1786.035          23.000  
G 7  19953070.693 9                      2312.761          23.000  
G21  19516305.891 8 102558881.163 2       894.666          32.000  
G 9  22020090.080 9                     -1889.560          19.000  
G 1  20397155.967 9                      3186.862          16.000  
J 2  37451898.881 4 196811060.21124      1283.292          27.000  
E 1  24289841.723 9                      1497.727          26.000  
E18  18702176.625 8  98280652.255 2      2623.269          31.000  
E26  21951565.058 8 115356286.730 3      1054.427          31.000  
E21  23618079.484 4 124113848.173 3       181.491          28.000  
J 3  37623896.860 4 197714967.620 4      -660.700          27.000  
> 2021  5 17  2 36 15.9970000  0 11                     
G 8  20084145.779 9                     -1785.249          25.000  
G 7  19952631.009 9                      2322.105          24.000  
G21  19516139.394 8 102557986.962 2       894.073          32.000  
G 9  22020450.453 9                     -1884.875          21.000  
G 1  20396552.468 9                      3189.082          16.000  
J 2  37451654.822 4 196809776.25324      1283.955          27.000  
E 1  24289559.322 9                      1501.109          27.000  
E18  18701678.539 8  98278028.921 3      2622.672          31.000  
E26  21951367.539 8 115355231.511 3      1055.542          31.000  
E21  23618043.502 4 124113666.070 3       182.268          28.000  
J 3  37624021.306 4 197715627.321 3      -659.519          27.000  
> 2021  5 17  2 36 16.9970000  0 11                     
G 8  20084489.478 9                     -1786.453          25.000  
G 7  19952189.937 9                      2315.115          25.000  
G21  19515963.657 8 102557092.996 2       893.549          32.000  
G 9  22020809.622 9                     -1884.883          23.000  
G 1  20395947.508 9                      3189.082          15.000  
J 2  37451413.163 4 196808491.85923      1284.362          28.000  
E 1  24289278.443 9                      1502.086          27.000  
E18  18701181.618 8  98275405.881 2      2622.658          31.000  
E26  21951168.310 8 115354176.451 2      1055.021          31.000  
E21  23618009.884 4 124113483.758 3       182.059          28.000  
J 3  37624147.668 2 197716286.685 2      -658.538          29.000  
> 2021  5 17  2 36 17.9970000  0 10                     
G 8  20084832.475 9                     -1787.270          25.000  
G 7  19951748.359 9                      2324.512          24.000  
G21  19515795.171 8 102556199.639 2       893.624          32.000  
G 9  22021169.345 9                     -1890.106          23.000  
J 2  37451168.746 4 196807207.39824      1285.100          27.000  
E 1  24288994.737 9                      1500.525          27.000  
E18  18700685.753 8  98272783.701 2      2621.290          32.000  
E26  21950966.773 8 115353121.794 2      1054.205          31.000  
E21  23617973.322 4 124113301.489 3       181.971          27.000  
J 3  37624277.096 8 197716946.078 3      -659.418          30.000  
> 2021  5 17  2 36 18.9970000  0 11                     
G 8  20085176.498 9                     -1787.471          25.000  
G 7  19951307.606 9                      2313.636          24.000  
G21  19515626.659 4 102555307.072 2       893.066          32.000  
G 9  22021529.047 9                     -1885.658          23.000  
J 2  37450924.015 4 196805923.138 3      1284.685          28.000  
G27  22267561.669 9                     -2893.000          10.000  
E 1  24288712.541 9                      1500.300          27.000  
E18  18700184.957 4  98270162.417 2      2621.045          32.000  
E26  21950766.082 4 115352067.739 2      1053.787          31.000  
E21  23617940.738 4 124113119.512 3       181.968          28.000  
J 3  37624402.157 4 197717605.624 3      -659.731          29.000  
> 2021  5 17  2 36 19.9970000  0 11                     
G 8  20085516.646 9                     -1787.254          25.000  
G 7  19950866.369 9                      2311.018          24.000  
G21  19515454.883 4 102554415.042 2       890.888          32.000  
G 9  22021889.494 9                     -1879.221          23.000  
G 1  20394127.259 9                      3189.512          16.000  
J 2  37450681.662 4 196804638.649 3      1284.922          28.000  
E 1  24288430.585 9                      1500.738          27.000  
E18  18699687.657 4  98267541.744 1      2620.232          33.000  
E26  21950565.269 4 115351014.061 3      1052.354          31.000  
E21  23617906.086 4 124112937.416 3       181.841          28.000  
J 3  37624525.133 4 197718264.946 3      -659.315          29.000  
> 2021  5 17  2 36 20.9970000  0 11                     
G 8  20085858.627 9                     -1788.518          25.000  
G 7  19950426.963 9                      2305.794          24.000  
G21  19515284.399 8 102553523.561 2       891.747          32.000  
G 9  22022250.918 9                     -1883.788          23.000  
G 1  20393519.856 9                      3193.694          17.000  
J 2  37450438.036 4 196803354.160 3      1284.685          28.000  
E 1  24288148.485 9                      1501.016          27.000  
E18  18699186.552 4  98264921.887 2      2619.698          32.000  
E26  21950364.714 4 115349960.732 3      1053.698          31.000  
E21  23617870.226 4 124112755.473 3       181.637          27.000  
J 3  37624654.880 8 197718924.320 3      -659.924          30.000  
> 2021  5 17  2 36 21.9970000  0 12                     
G 8  20086200.280 9                     -1781.236          25.000  
G 7  19949988.679 9                      2308.318          24.000  
G21  19515115.930 8 102552632.633 3       889.730          31.000  
G 9  22022611.361 9                     -1891.757          23.000  
G 1  20392910.446 9                      3193.694          16.000  
J 2  37450189.994 8 196802076.36135      1284.580          28.000  
G27  22269214.191 9                     -2893.000          11.000  
E 1  24287861.568 9                      1500.494          27.000  
E18  18698687.842 4  98262302.617 2      2618.712          32.000  
E26  21950161.284 8 115348907.746 3      1052.516          31.000  
E21  23617833.973 4 124112573.367 3       182.433          27.000  
J 3  37624782.114 8 197719583.466 4      -659.535          31.000  
> 2021  5 17  2 36 22.9970000  0 12                     
G 8  20086544.106 9                     -1789.940          25.000  
G 7  19949551.866 9                      2310.364          25.000  
G21  19514948.186 8 102551743.447 3       888.760          32.000  
G 9  22022970.862 9                     -1886.419          23.000  
G 1  20392301.416 9                      3194.965          16.000  
J 2  37449944.225 4 196800792.72224      1283.817          28.000  
G27  22269763.786 9                     -2893.000          13.000  
E 1  24287575.097 9                      1499.725          26.000  
E18  18698190.463 4  98259685.311 2      2616.318          32.000  
E26  21949962.630 8 115347856.421 3      1049.974          31.000  
E21  23617798.427 9                       179.796          27.000  
J 3  37624907.533 8 197720243.808 3      -660.549          30.000  
> 2021  5 17  2 36 23.9970000  0 12                     
G 8  20086886.689 9                     -1789.887          25.000  
G 7  19949111.496 9                      2309.257          26.000  
G21  19514779.913 4 102550855.323 2       887.942          32.000  
G 9  22023330.624 9                     -1891.726          22.000  
G 1  20391692.277 9                      3194.965          16.000  
J 2  37449700.703 4 196799509.54823      1282.730          29.000  
G27  22270314.428 9                     -2882.256          14.000  
E 1  24287288.411 9                      1499.449          25.000  
E18  18697692.944 4  98257068.918 2      2616.281          33.000  
E26  21949760.740 8 115346805.784 2      1050.364          31.000  
E21  23617764.826 8 124112201.37615       180.726          27.000  
J 3  37625037.001 8 197720904.505 3      -660.440          31.000  
> 2021  5 17  2 36 24.9970000  0 12                     
G 8  20087228.390 9                     -1790.624          24.000  
G 7  19948674.905 8                      2311.010          26.000  
G21  19514612.731 4 102549967.552 2       887.984          32.000  
G 9  22023690.321 9                     -1886.048          21.000  
G 1  20391082.619 9                      3194.943          19.000  
J 2  37449461.356 8 196798226.01023      1282.341          30.000  
G27  22270863.656 9                     -2882.256          14.000  
E 1  24287002.075 9                      1502.594          25.000  
E18  18697195.548 4  98254452.566 2      2617.111          33.000  
E26  21949563.391 8 115345755.343 2      1050.037          30.000  
E21  23617731.147 8 124112021.165 5       180.324          27.000  
J 3  37625162.476 8 197721565.010 3      -661.461          31.000  
> 2021  5 17  2 36 25.9970000  0 12                     
G 8  20087561.480 9 105560847.50435     -1790.177          30.000  
G 7  19948240.460 8 104828683.18933      2311.737          36.000  
G21  19514445.475 4 102549081.337 2       884.617          32.000  
G 9  22024048.736 9                     -1885.372          21.000  
G 1  20390474.789 9                      3191.956          23.000  
J 2  37449217.829 8 196796943.29723      1281.430          30.000  
G27  22271418.241 9                     -2882.256          14.000  
E 1  24286714.212 9 127627554.30615      1502.248          27.000  
E18  18696698.343 2  98251836.562 2      2616.146          33.000  
E26  21949365.069 4 115344705.878 2      1048.083          31.000  
E21  23617698.175 8 124111841.904 4       179.438          28.000  
J 3  37625292.123 8 197722226.118 3      -662.131          30.000  
> 2021  5 17  2 36 26.9970000  0 12                     
G 8  20087892.410 8 105562637.90824     -1790.363          29.000  
G 7  19947799.070 4 104826371.56322      2309.937          36.000  
G21  19514278.093 4 102548197.088 2       884.101          34.000  
G 9  22024407.608 9                     -1882.256          20.000  
G 1  20389866.740 9                      3192.540          25.000  
J 2  37448975.184 8 196795662.07023      1282.712          30.000  
G27  22271969.232 9                     -2882.256          14.000  
E 1  24286427.396 8 127626051.387 5      1502.296          25.000  
E18  18696201.330 2  98249220.750 2      2614.857          34.000  
E26  21949163.711 8 115343657.810 2      1047.055          32.000  
E21  23617664.789 9                       176.771          19.000  
J 3  37625418.964 8 197722888.500 3      -661.205          30.000  
> 2021  5 17  2 36 27.9970000  0 12                     
G 8  20088233.479 8 105564428.81325     -1788.743          24.000  
G 7  19947361.632 4 104824062.21422      2308.582          35.000  
G21  19514106.535 4 102547312.555 2       883.054          34.000  
G 9  22024765.277 9                     -1894.633          21.000  
G 1  20389256.654 9                      3192.774          25.000  
J 2  37448728.721 8 196794379.66623      1283.669          31.000  
G27  22272524.022 9                     -2902.718          15.000  
E 1  24286149.484 8 127624550.383 5      1501.143          27.000  
E18  18695704.034 2  98246606.732 1      2613.585          34.000  
E26  21948967.837 8 115342609.746 2      1047.138          32.000  
E21  23617634.259 9                       175.442          22.000  
J 3  37625543.973 8 197723550.193 3      -660.290          30.000  
> 2021  5 17  2 36 28.9970000  0 12                     
G 8  20088577.371 8                     -1791.435          30.000  
G 7  19946923.431 4 104821752.67722      2310.535          32.000  
G21  19513938.468 4 102546429.131 2       882.041          34.000  
G 9  22025121.562 9                     -1880.265          21.000  
G 1  20388648.204 9                      3190.788          30.000  
J 2  37448492.267 8 196793098.03324      1280.340          27.000  
G27  22273081.299 9                     -2899.426          17.000  
E 1  24285853.209 8 127623048.633 3      1501.001          31.000  
E18  18695207.409 2  98243993.242 1      2613.304          36.000  
E26  21948767.360 8 115341562.344 2      1046.980          32.000  
E21  23617596.340 9                       177.410          25.000  
J 3  37625668.494 8 197724212.271 4      -662.130          33.000  
> 2021  5 17  2 36 29.9970000  0 12                     
G 8  20088918.226 9                     -1792.279          30.000  
G 7  19946485.291 8 104819441.11423      2312.225          31.000  
G21  19513770.972 4 102545548.975 2       878.684          33.000  
G 9  22025480.400 9                     -1896.861          20.000  
G 1  20388037.499 9                      3189.434          24.000  
J 2  37448247.562 8 196791818.96824      1278.109          28.000  
G27  22273635.566 9                     -2899.426          15.000  
E 1  24285570.660 9                      1503.066          29.000  
E18  18694710.030 2  98241379.430 1      2614.244          34.000  
E26  21948571.578 8 115340517.287 3      1043.301          31.000  
E21  23617563.429 9                       166.622          24.000  
J 3  37625796.033 8 197724876.662 4      -666.281          30.000  
> 2021  5 17  2 36 30.9970000  0 12                     
G 8  20089257.218 9 105569769.89134     -1792.527          31.000  
G 7  19946043.246 9                      2315.972          31.000  
G21  19513607.071 4 102544672.331 2       875.099          34.000  
G 9  22025840.755 9                     -1885.202          20.000  
G 1  20387427.697 9 107136654.83934      3187.535          32.000  
J 2  37447999.459 9                      1274.628          28.000  
G27  22274188.258 9                     -2891.969          15.000  
E 1  24285293.498 9                      1507.498          22.000  
E18  18694216.137 4  98238765.536 3      2612.972          31.000  
E26  21948368.675 8 115339474.636 3      1041.760          31.000  
E21  23617532.773 9                       169.063          25.000  
J 3  37625920.876 8 197725543.871 3      -668.136          31.000  
> 2021  5 17  2 36 31.9970000  0 12                     
G 8  20089602.746 9                     -1793.917          30.000  
G 7  19945604.517 9 104814858.99135      2318.121          32.000  
G21  19513436.434 4 102543798.329 2       871.968          35.000  
G 9  22026199.296 9                     -1896.882          19.000  
G 1  20386820.521 8 107133468.14824      3185.587          32.000  
J 2  37447761.111 8 196789312.33235      1271.984          30.000  
G27  22274739.524 9                     -2891.206          16.000  
E 1  24285007.027 9                      1510.970          28.000  
E18  18693711.503 8  98236150.085 3      2616.277          35.000  
E26  21948171.195 4 115338433.392 2      1040.379          32.000  
E21  23617497.982 9                       165.869          26.000  
J 3  37626051.316 8 197726213.637 4      -670.567          30.000  
> 2021  5 17  2 36 32.9970000  0 12                     
G 8  20089937.986 9                     -1795.856          29.000  
G 7  19945162.080 8 104812540.19725      2318.365          29.000  
G21  19513271.481 4 102542925.652 2       873.456          35.000  
G 9  22026560.315 9                     -1896.882          18.000  
G 1  20386212.852 8 107130281.72723      3185.654          32.000  
J 2  37447519.434 8                      1273.342          30.000  
G27  22275294.702 9                     -2902.224          19.000  
E 1  24284716.707 9                      1506.479          27.000  
E18  18693218.564 8  98233534.418 2      2615.228          34.000  
E26  21947970.326 8 115337392.930 2      1041.073          32.000  
E21  23617468.098 9                       165.609          26.000  
J 3  37626174.528 9                      -670.658          30.000  
> 2021  5 17  2 36 33.9970000  0 12                     
G 8  20090282.737 9                     -1786.731          28.000  
G 7  19944717.326 8 104810221.92023      2317.694          35.000  
G21  19513106.367 4 102542053.634 2       871.283          35.000  
G 9  22026920.466 9                     -1898.817          16.000  
G 1  20385608.041 8 107127095.74523      3185.148          32.000  
J 2  37447273.417 8 196786768.21124      1271.677          30.000  
G27  22275850.029 9                     -2908.142          22.000  
E 1  24284415.242 9                      1511.843          27.000  
E18  18692716.849 8  98230919.328 2      2614.108          36.000  
E26  21947775.551 8 115336352.899 3      1039.538          32.000  
E21  23617436.008 9                       163.520          25.000  
J 3  37626302.198 8 197727551.91433      -671.551          30.000  
> 2021  5 17  2 36 34.9970000  0 12                     
G 8  20090622.318 9                     -1795.440          33.000  
G 7  19944278.388 4 104807905.54222      2316.046          36.000  
G21  19512942.013 4 102541183.733 2       868.562          34.000  
G 9  22027282.200 9                     -1898.817          14.000  
G 1  20385001.689 4 107123912.12222      3181.761          33.000  
J 2  37447034.244 8 196785497.19424      1269.878          31.000  
G27  22276403.895 9                     -2910.446          24.000  
E 1  24284130.777 9 127613962.78713      1511.069          33.000  
E18  18692223.745 4  98228306.530 2      2611.558          36.000  
E26  21947571.671 8 115335314.861 2      1036.256          32.000  
E21  23617404.658 9                       161.156          25.000  
J 3  37626432.713 8 197728223.25023      -672.535          32.000  
> 2021  5 17  2 36 35.9970000  0 12                     
G 8  20090962.554 8 105578727.52333     -1794.639          37.000  
G 7  19943837.949 4 104805589.06021      2315.961          39.000  
G21  19512777.095 4 102540315.759 2       867.888          35.000  
G 9  22027634.088 9                     -1855.373          17.000  
G 1  20384398.073 8 107120730.65723      3181.028          34.000  
J 2  37446795.242 8 196784226.64823      1271.966          33.000  
G27  22276959.684 9                     -2904.760          27.000  
E 1  24283835.441 8 127612451.155 2      1512.787          36.000  
E18  18691729.084 4  98225694.307 1      2612.910          38.000  
E26  21947377.258 8 115334278.287 2      1036.448          36.000  
E21  23617376.140 9 124110159.77315       163.912          33.000  
J 3  37626561.748 8 197728895.05522      -671.106          36.000  
> 2021  5 17  2 36 36.9970000  0 13                     
G 8  20091305.991 4 105580519.64122     -1790.359          38.000  
G 7  19943396.589 4 104803270.53021      2320.074          39.000  
G21  19512612.007 4 102539448.710 2       865.460          35.000  
G 9  22027982.442 9                     -1864.301          18.000  
G 1  20383791.813 8 107117551.30823      3177.750          30.000  
J 2  37446550.158 4 196782954.87722      1271.962          35.000  
G27  22277516.281 9                     -2905.566          31.000  
E 1  24283554.418 8                      1516.980          28.000  
E13  24328921.032 9                     -1706.172          31.000  
E18  18691228.838 2  98223081.111 1      2613.556          38.000  
E26  21947183.976 4 115333242.181 2      1035.910          36.000  
E21  23617343.343 9 124109994.001 3       166.718          33.000  
J 3  37626688.062 8 197729565.46522      -670.112          35.000  
> 2021  5 17  2 36 37.9970000  0 14                     
G 8  20091643.610 4 105582305.75922     -1783.083          38.000  
G 7  19942956.486 8 104800949.19123      2321.164          31.000  
G21  19512446.950 4 102538583.475 2       864.042          38.000  
G 9  22028335.247 9                     -1860.773          18.000  
G 4  22732994.740 9                     -2703.688          29.000  
G 1  20383184.986 9                      3181.390          30.000  
J 2  37446307.499 8 196781679.80722      1276.314          35.000  
G27  22278068.249 9                     -2886.833          23.000  
E 1  24283284.005 9                      1520.631          24.000  
E13  24329261.381 9                     -1695.608          30.000  
E18  18690731.690 4  98220465.916 1      2615.660          38.000  
E26  21946988.031 4 115332207.408 2      1034.295          35.000  
E21  23617316.168 8 124109823.017 4       173.696          34.000  
J 3  37626817.132 4 197730232.45022      -664.615          36.000  
> 2021  5 17  2 36 38.9970000  0 13                     
G 8  20091984.486 4 105584087.19622     -1780.040          37.000  
G 7  19942516.457 9                      2321.233          24.000  
G21  19512283.001 2 102537720.723 1       861.132          38.000  
G 9  22028687.937 9                     -1866.647          18.000  
G 1  20382585.017 9 107111206.22335      3162.441          38.000  
J 2  37446065.543 4 196780402.25222      1279.203          35.000  
G27  22278623.087 9                     -2868.180          30.000  
E 1  24283006.272 9                      1518.399          22.000  
E13  24329601.403 9                     -1691.607          30.000  
E18  18690233.862 2  98217850.696 2      2614.267          38.000  
E26  21946790.333 8 115331174.778 4      1031.661          30.000  
E21  23617277.791 8 124109647.216 4       178.595          34.000  
J 3  37626942.848 4 197730896.86622      -663.915          35.000  
> 2021  5 17  2 36 39.9970000  0 14                     
G 8  20092323.501 4 105585863.71522     -1773.521          34.000  
G 7  19942077.261 9                      2315.328          20.000  
G21  19512119.025 8 102536858.769 4       862.526          32.000  
G 9  22029042.875 9                     -1877.430          17.000  
G 4  22734030.537 9                     -2721.567          30.000  
G 1  20381982.200 9 107108044.44424      3159.114          28.000  
J 2  37445820.699 8 196779120.62023      1284.115          32.000  
G27  22279168.651 9                     -2866.478          24.000  
E 1  24282717.968 9                      1518.399          18.000  
E13  24329899.191 9                     -1681.066          29.000  
E18  18689736.504 4  98215235.724 2      2614.766          33.000  
E26  21946593.757 8 115330143.329 4      1031.173          30.000  
E21  23617240.657 8 124109465.088 4       185.313          29.000  
J 3  37627067.669 4 197731557.27323      -657.000          34.000  
> 2021  5 17  2 36 40.9970000  0 12                     
G 8  20092659.500 4 105587635.64122     -1771.787          33.000  
G 7  19941638.746 9                      2315.328          17.000  
G21  19511954.470 8 102535994.310 3       865.287          32.000  
G 9  22029399.505 9                     -1877.430          16.000  
G 1  20381384.211 8 107104884.05425      3159.681          28.000  
J 2  37445576.287 8 196777832.87623      1289.823          33.000  
E 1  24282429.839 9                      1518.399          14.000  
E13  24330226.640 9                     -1672.627          29.000  
E18  18689238.715 4  98212621.201 3      2612.877          30.000  
E26  21946395.230 8 115329110.067 3      1032.775          31.000  
E21  23617204.919 8 124109274.812 4       194.506          31.000  
J 3  37627192.055 8 197732212.16424      -653.596          33.000  
> 2021  5 17  2 36 41.9970000  0 11                     
G 8  20092995.670 4 105589406.35622     -1770.380          34.000  
G 7  19941201.513 9                      2315.328          16.000  
G21  19511789.177 8 102535128.942 4       865.558          33.000  
G 9  22029755.973 9                     -1877.430          13.000  
G 1  20380780.338 8 107101725.16825      3157.951          29.000  
J 2  37445329.332 8 196776541.99323      1290.697          32.000  
E13  24330533.925 9                     -1668.442          28.000  
E18  18688741.851 9                      2610.694          24.000  
E26  21946199.316 8 115328076.623 4      1031.243          30.000  
E21  23617165.219 8 124109080.624 5       194.733          30.000  
J 3  37627315.990 8 197732864.16223      -651.898          36.000  
> 2021  5 17  2 36 42.9970000  0  9                     
G 8  20093332.607 4 105591176.191 2     -1768.209          33.000  
G21  19511622.619 8 102534268.43133       865.253          32.000  
G 1  20380181.586 8 107098567.90523      3155.775          31.000  
J 2  37445083.947 4 196775249.538 2      1293.281          33.000  
E13  24330856.911 9                     -1668.838          29.000  
E18  18688244.157 9                      2610.743          23.000  
E26  21946005.431 8 115327043.466 3      1032.377          29.000  
E21  23617130.123 8 124108884.419 4       196.638          33.000  
J 3  37627437.911 4 197733514.49312      -649.946          35.000  
> 2021  5 17  2 36 43.9970000  0 10                     
G 8  20093668.790 4 105592942.993 2     -1765.306          36.000  
G 7  19940315.797 9                      2315.328          11.000  
G21  19511459.124 8 102533403.41422       864.539          37.000  
G 1  20379576.578 8 107095412.04323      3153.795          34.000  
J 2  37444837.737 4 196773954.727 2      1295.808          37.000  
G27  22281344.322 9                     -2865.671          22.000  
E18  18687744.073 9                      2614.297          23.000  
E26  21945809.243 8 115326010.121 3      1033.330          34.000  
E21  23617088.722 8 124108685.101 4       200.561          33.000  
J 3  37627562.091 4 197734162.817 2      -647.273          35.000  
> 2021  5 17  2 36 44.9970000  0  9                     
G 8  20094004.546 4 105594707.772 2     -1764.199          34.000  
G21  19511295.768 4 102532539.91322       862.448          35.000  
G 9  22030826.985 9                     -1877.430          11.000  
J 2  37444590.533 8 196772659.055 3      1297.552          33.000  
G27  22281889.327 9                     -2865.671          23.000  
E18  18687248.710 9                      2618.256          22.000  
E26  21945611.445 8 115324977.968 3      1031.975          31.000  
E21  23617061.277 8 124108484.188 5       201.040          30.000  
J 3  37627685.276 4 197734810.323 2      -646.840          35.000  
> 2021  5 17  2 36 45.9970000  0  9                     
G 8  20094340.139 4 105596471.042 2     -1762.656          35.000  
G21  19511130.056 4 102531677.60722       861.945          37.000  
G 1  20378368.364 9                      3150.439          33.000  
J 2  37444347.011 4 196771362.718 2      1297.697          37.000  
G27  22282434.503 9                     -2865.671          21.000  
E18  18686752.186 9                      2610.001          22.000  
E26  21945412.547 8 115323946.863 2      1030.899          32.000  
E21  23617020.575 9                       202.340          30.000  
J 3  37627807.938 4 197735456.942 2      -645.350          36.000  
> 2021  5 17  2 36 46.9970000  0  8                     
G 8  20094675.515 8 105598233.432 4     -1763.280          34.000  
G21  19510968.384 8 102530815.60423       864.217          32.000  
J 2  37444097.516 8 196770065.372 3      1297.654          38.000  
G27  22282974.382 9                     -2865.671          29.000  
E18  18686255.155 9                      2606.991          23.000  
E26  21945214.138 8 115322915.739 2      1031.646          33.000  
E21  23616977.333 9                       207.721          31.000  
J 3  37627930.940 4 197736102.621 2      -645.264          38.000  
> 2021  5 17  2 36 47.9970000  0 10                     
G 8  20095011.244 8 105599997.033 4     -1765.004          34.000  
G21  19510801.194 9                       860.645          32.000  
G 1  20377174.638 9                      3156.396          30.000  
J 2  37443852.982 8 196768774.90034      1297.385          33.000  
G27  22283518.174 9                     -2865.671          21.000  
E13  24332441.884 9                     -1661.205          30.000  
E18  18685758.644 9                      2609.034          31.000  
E26  21945024.681 8 115321884.617 2      1031.397          33.000  
E21  23616940.596 9                       203.143          34.000  
J 3  37628055.116 8 197736748.343 3      -645.580          36.000  
> 2021  5 17  2 36 48.9970000  0 11                     
G 8  20095348.827 8 105601762.111 3     -1765.983          35.000  
G 7  19938115.124 9                      2313.864          13.000  
G21  19510640.381 9 102529106.35435       861.260          33.000  
G 1  20376582.177 9                      3167.920          31.000  
J 2  37443603.523 8 196767464.48624      1296.686          36.000  
G27  22284064.868 9                     -2865.671          20.000  
E13  24332752.310 9                     -1670.988          22.000  
E18  18685267.512 9                      2607.096          27.000  
E26  21944821.853 8 115320853.764 3      1030.156          32.000  
E21  23616898.044 9 124107667.52115       202.583          33.000  
J 3  37628178.044 4 197737394.328 3      -644.548          36.000  
> 2021  5 17  2 36 49.9970000  0 10                     
G 8  20095680.207 8 105603525.687 3     -1762.111          35.000  
G 7  19937675.553 9                      2313.864          15.000  
G21  19510475.603 8 102528245.12824       861.557          32.000  
J 2  37443360.319 9                      1292.021          28.000  
G27  22284608.756 9                     -2865.671          21.000  
E13  24333074.886 9                     -1667.521          24.000  
E18  18684767.882 9                      2611.715          25.000  
E26  21944624.744 9                      1024.960          32.000  
E21  23616859.636 9                       192.037          27.000  
J 3  37628302.582 9                      -643.708          28.000  
> 2021  5 17  2 36 50.9970000  0 11                     
G 8  20096016.809 8 105605287.108 3     -1760.155          35.000  
G 7  19937234.708 9                      2325.331          15.000  
G21  19510310.917 9                       849.833          33.000  
G 9  22032973.562 9                     -1877.430          10.000  
J 2  37443112.569 9                      1297.808          29.000  
G27  22285152.889 9                     -2865.671          21.000  
E13  24333384.636 9                     -1657.202          24.000  
E18  18684276.453 9                      2596.011          21.000  
E26  21944430.785 9                      1028.989          29.000  
E21  23616827.326 9                       203.836          32.000  
J 3  37628424.585 9                      -643.748          33.000  
> 2021  5 17  2 36 51.9970000  0  9                     
G 8  20096351.220 8 105607047.625 5     -1761.021          31.000  
G 7  19936792.183 9                      2325.331          14.000  
G21  19510151.391 9                       853.125          28.000  
G 9  22033331.270 9                     -1877.430          10.000  
J 2  37442863.978 9                      1298.502          34.000  
E18  18683773.263 9                      2605.453          18.000  
E26  21944234.941 9                      1030.325          30.000  
E21  23616787.885 9                       205.190          27.000  
J 3  37628545.397 8 197739340.41434      -644.551          35.000  
> 2021  5 17  2 36 52.9970000  0 11                     
G 8  20096685.876 8                     -1760.145          32.000  
G 7  19936350.034 9                      2325.331          11.000  
G21  19509986.356 9                       855.371          32.000  
G 1  20374189.342 9                      3147.107          29.000  
J 2  37442615.120 9                      1296.526          24.000  
G27  22286225.109 9                     -2848.841          33.000  
E13  24334021.115 9                     -1665.260          26.000  
E18  18683276.512 9                      2604.785          18.000  
E26  21944044.424 9                      1018.958          25.000  
E21  23616751.457 9                       205.996          27.000  
J 3  37628668.862 9 197739989.06535      -648.431          32.000  
> 2021  5 17  2 36 53.9970000  0 10                     
G 8  20097023.193 9                     -1765.530          26.000  
G 7  19935908.535 9                      2325.331          12.000  
G21  19509823.240 9                       856.196          26.000  
J 2  37442364.989 9                      1292.648          23.000  
G27  22286766.214 9                     -2851.725          27.000  
E13  24334334.957 9                     -1666.688          25.000  
E18  18682782.723 9                      2600.424          17.000  
E26  21943845.457 9                      1026.279          31.000  
E21  23616710.903 9                       197.490          26.000  
J 3  37628794.155 9                      -647.934          27.000  
> 2021  5 17  2 36 54.9970000  0 10                     
G 8  20097360.275 9                     -1771.208          32.000  
G 7  19935465.753 9                      2308.426          17.000  
G21  19509660.774 9                       860.331          26.000  
G 4  22741838.410 9                     -2683.604          13.000  
J 2  37442121.807 9                      1290.556          31.000  
G27  22287308.715 9                     -2859.663          27.000  
E18  18682288.106 9                      2602.361          33.000  
E26  21943654.097 9                      1027.198          26.000  
E21  23616671.099 9                       200.469          25.000  
J 3  37628916.367 9                      -654.472          25.000  
> 2021  5 17  2 36 55.9970000  0  9                     
G 8  20097696.126 9                     -1774.219          31.000  
G 7  19935020.053 9                      2307.432          28.000  
G21  19509495.638 9                       858.923          30.000  
G 4  22742360.979 9                     -2683.604          14.000  
J 2  37441877.360 9 196758393.16435      1290.575          31.000  
G27  22287855.291 9                     -2858.870          26.000  
E18  18681791.368 9  98173495.62513      2600.760          33.000  
E21  23616632.748 9                       196.209          26.000  
J 3  37629039.047 9                      -653.465          32.000  
> 2021  5 17  2 36 56.9970000  0  8                     
G 8  20098034.682 9                     -1775.540          31.000  
G 7  19934582.109 9                      2297.769          25.000  
G21  19509333.172 9                       860.612          34.000  
G 4  22742880.546 9                     -2683.604          12.000  
J 2  37441629.851 9                      1291.170          24.000  
E18  18681295.825 8  98170896.642 3      2597.596          33.000  
E21  23616597.215 9                       188.775          25.000  
J 3  37629161.744 9                      -652.737          28.000  
> 2021  5 17  2 36 57.9970000  0  9                     
G 8  20098374.163 8 105617662.12334     -1777.785          33.000  
G 7  19934142.263 9                      2306.057          21.000  
G21  19509174.183 9                       861.207          26.000  
G 1  20371187.966 9                      3167.770          30.000  
J 2  37441387.502 9                      1293.081          34.000  
E13  24335612.257 9                     -1676.680          25.000  
E18  18680798.464 8  98168298.283 3      2597.641          35.000  
E21  23616560.395 9                       195.283          26.000  
J 3  37629287.276 9                      -655.127          33.000  
> 2021  5 17  2 36 58.9970000  0  9                     
G 8  20098712.675 8 105619439.52225     -1783.114          28.000  
G 7  19933706.710 9                      2292.919          18.000  
G21  19509007.028 9                       856.603          31.000  
G 1  20370582.007 9                      3156.430          25.000  
J 2  37441144.085 9                      1289.291          26.000  
E13  24335931.129 9                     -1679.033          25.000  
E18  18680309.194 4  98165700.205 2      2598.309          32.000  
E21  23616522.201 9                       191.957          26.000  
J 3  37629410.723 9                      -646.566          29.000  
> 2021  5 17  2 36 59.9970000  0 11                     
G 8  20099050.983 9 105621225.38634     -1773.940          34.000  
G 7  19933269.464 9                      2284.202          19.000  
G21  19508843.000 9                       863.930          26.000  
G 4  22744418.900 9                     -2683.604          10.000  
G 1  20369989.585 9                      3153.220          30.000  
J 2  37440896.030 9                      1295.049          32.000  
G27  22290030.752 9                     -2860.219          31.000  
E26  21942673.474 9                      1027.473          29.000  
E18  18679813.661 4  98163101.014 2      2598.709          35.000  
E21  23616485.948 9                       186.377          26.000  
J 3  37629537.181 9                      -656.092          25.000  
> 2021  5 17  2 37  0.9970000  0 10                     
G 8  20099387.453 8 105622998.15423     -1773.565          34.000  
G 7  19932838.200 9                      2276.648          19.000  
G21  19508682.314 9                       857.391          28.000  
J 2  37440650.784 9 196751947.64835      1293.881          35.000  
G27  22290579.043 9                     -2870.437          30.000  
E26  21942478.393 9                      1027.603          23.000  
E13  24336565.824 9                     -1673.928          30.000  
E18  18679318.951 4  98160502.374 2      2597.482          35.000  
E21  23616448.072 9                       197.300          30.000  
J 3  37629657.421 9 197745183.91634      -649.138          34.000  
> 2021  5 17  2 37  1.9970000  0  8                     
G 8  20099723.942 8 105624761.64734     -1774.198          36.000  
G21  19508517.379 9 102517949.88634       855.392          36.000  
J 2  37440400.862 9                      1277.636          27.000  
G27  22291126.321 9                     -2861.251          25.000  
E26  21942274.815 9                      1022.999          31.000  
E18  18678826.550 4  98157906.149 2      2595.750          36.000  
E21  23616413.988 9                       195.533          29.000  
J 3  37629782.038 9                      -653.719          30.000  
> 2021  5 17  2 37  2.9970000  0 10                     
G 8  20100065.399 9                     -1773.374          28.000  
G21  19508354.359 9                       852.559          33.000  
G 1  20368181.075 9                      3154.251          27.000  
J 2  37440158.693 9                      1291.230          29.000  
G27  22291676.461 9                     -2861.974          25.000  
E26  21942078.543 9                      1026.315          26.000  
E13  24337209.462 9                     -1683.467          24.000  
E18  18678331.797 4  98155310.580 2      2595.649          33.000  
E21  23616379.523 9                       189.612          22.000  
J 3  37629904.887 9                      -654.157          28.000  
> 2021  5 17  2 37  3.9970000  0  8                     
G 8  20100399.981 9                     -1776.043          28.000  
G 7  19931523.561 9                      2307.898          12.000  
G21  19508193.608 9                       854.816          21.000  
J 2  37439910.852 9                      1296.033          27.000  
G27  22292216.802 9                     -2856.388          27.000  
E18  18677838.069 4  98152715.251 2      2595.520          33.000  
E21  23616337.385 9                       195.554          29.000  
J 3  37630029.120 9 197747136.84935      -648.520          35.000  
> 2021  5 17  2 37  4.9970000  0  9                     
G 8  20100738.449 8 105630089.49634     -1776.891          34.000  
G 7  19931083.436 9                      2307.898          11.000  
G21  19508030.793 9                       851.740          34.000  
J 2  37439663.678 9                      1295.672          32.000  
G27  22292761.847 9                     -2860.989          26.000  
E26  21941695.651 9                      1025.211          27.000  
E18  18677344.289 4  98150121.085 2      2592.575          34.000  
E21  23616302.882 9                       194.742          29.000  
J 3  37630152.510 9                      -648.898          32.000  
> 2021  5 17  2 37  5.9970000  0  9                     
G 8  20101079.291 8 105631864.90124     -1775.497          30.000  
G21  19507861.652 9                       845.528          29.000  
J 2  37439416.500 9                      1292.802          30.000  
G27  22293302.708 9                     -2859.751          31.000  
E26  21941497.203 9                      1021.363          26.000  
E13  24338162.937 9                     -1675.140          25.000  
E18  18676851.290 4  98147527.877 3      2594.645          34.000  
E21  23616269.269 9                       192.058          28.000  
J 3  37630272.733 9                      -640.680          27.000  
> 2021  5 17  2 37  6.9970000  0 11                     
G 8  20101413.332 8 105633640.13423     -1776.671          33.000  
G 7  19930205.276 9                      2298.660          26.000  
G21  19507701.991 9                       850.321          20.000  
G 1  20365774.695 9                      3158.938          24.000  
J 2  37439169.187 9 196744161.56335      1294.443          34.000  
G27  22293842.779 9 117154957.59735     -2862.464          30.000  
E26  21941303.597 9                      1024.624          26.000  
E13  24338474.149 9                     -1678.239          30.000  
E18  18676355.651 8  98144935.378 2      2591.663          34.000  
E21  23616223.108 9 124104099.74914       193.878          33.000  
J 3  37630398.009 9 197749076.21235      -649.461          33.000  
> 2021  5 17  2 37  7.9970000  0 11                     
G 8  20101747.547 8 105635415.64023     -1774.195          33.000  
G 7  19929765.487 9                      2306.196          17.000  
G21  19507542.182 9 102512825.71734       851.169          33.000  
G 1  20365177.308 9                      3158.938          25.000  
J 2  37438922.724 8 196742867.46223      1293.991          34.000  
G27  22294391.374 8 117157816.85134     -2861.032          33.000  
E26  21941106.549 9 115301302.79315      1023.001          28.000  
E13  24338799.124 9 127901232.40815     -1676.815          30.000  
E18  18675860.715 8  98142343.497 2      2591.353          34.000  
E21  23616193.125 8 124103905.710 4       193.512          33.000  
J 3  37630521.338 8 197749726.16323      -649.800          35.000  
> 2021  5 17  2 37  8.9970000  0 11                     
G 8  20102089.284 8 105637190.06524     -1774.114          31.000  
G 7  19929326.522 9                      2306.196          14.000  
G21  19507375.629 8 102511975.46224       850.056          29.000  
G 1  20364587.801 9                      3153.271          30.000  
J 2  37438676.388 8 196741572.63524      1293.920          31.000  
G27  22294935.603 8                     -2857.657          32.000  
E26  21940920.120 8 115300280.025 4      1022.421          28.000  
E13  24339113.377 9                     -1675.958          28.000  
E18  18675364.104 8  98139751.632 2      2592.218          32.000  
E21  23616147.497 8 124103710.417 4       196.446          27.000  
J 3  37630648.149 8 197750375.14123      -648.320          31.000  
> 2021  5 17  2 37  9.9970000  0  9                     
G 8  20102425.912 8 105638962.80023     -1772.080          31.000  
G 7  19928888.312 9                      2306.196          14.000  
J 2  37438424.416 8 196740275.85123      1297.408          32.000  
G27  22295477.581 9                     -2854.318          31.000  
E26  21940717.989 8 115299256.945 5      1023.427          29.000  
E13  24339434.125 9 127904587.48815     -1672.844          29.000  
E18  18674875.136 4  98137159.598 2      2591.903          32.000  
E21  23616119.157 8 124103513.247 5       199.630          29.000  
J 3  37630770.004 8 197751022.53223      -645.965          34.000  
> 2021  5 17  2 37 10.9970000  0 10                     
G 8  20102760.354 8 105640734.62624     -1771.458          30.000  
G 7  19928450.757 9                      2300.747          14.000  
G21  19507050.841 9                       852.393          31.000  
J 2  37438181.160 8 196738969.29134      1297.061          31.000  
G27  22296019.859 8 117166375.00735     -2853.729          29.000  
E26  21940520.322 8 115298234.473 5      1022.501          29.000  
E13  24339751.409 8 127906259.815 5     -1671.215          28.000  
E18  18674383.550 8  98134568.336 3      2590.678          31.000  
E21  23616078.272 8 124103314.747 5       198.302          28.000  
J 3  37630893.682 8 197751669.20524      -645.828          32.000  
> 2021  5 17  2 37 11.9970000  0 10                     
G 8  20103100.930 8 105642505.78224     -1770.511          29.000  
G 7  19928011.797 9                      2300.747          12.000  
G21  19506886.879 9                       849.372          29.000  
J 2  37437939.060 8 196737696.91723      1299.199          32.000  
G27  22296562.373 8 117169227.13225     -2851.002          28.000  
E26  21940333.670 8 115297213.072 4      1020.440          28.000  
E13  24340071.075 8 127907930.404 5     -1670.528          29.000  
E18  18673889.425 8  98131978.271 3      2589.477          31.000  
E21  23616037.857 8 124103114.941 5       199.291          28.000  
J 3  37631017.033 8 197752315.09424      -646.488          31.000  
> 2021  5 17  2 37 12.9970000  0 11                     
G 8  20103440.672 8 105644275.092 4     -1767.059          32.000  
G 7  19927573.796 9                      2300.747          13.000  
G21  19506735.175 9                       848.991          29.000  
G 1  20362181.206 9                      3149.877          26.000  
J 2  37437687.559 8 196736397.00323      1301.375          28.000  
G27  22297104.525 8                     -2847.747          27.000  
E26  21940140.631 8 115296191.842 4      1020.221          32.000  
E13  24340390.209 8 127909598.589 5     -1666.387          30.000  
E18  18673394.650 8  98129388.250 2      2590.740          32.000  
E21  23615995.544 8 124102912.840 4       203.084          29.000  
J 3  37631139.224 8 197752959.31423      -642.272          30.000  
> 2021  5 17  2 37 13.9970000  0 11                     
G 8  20103775.756 8 105646042.888 4     -1768.063          31.000  
G 7  19927136.350 9                      2300.747          12.000  
G21  19506570.859 9                       846.494          28.000  
G 1  20361587.519 9                      3142.105          27.000  
J 2  37437442.466 8 196735095.53823      1301.889          30.000  
G27  22297646.791 9                     -2846.553          25.000  
E26  21939941.869 8 115295170.274 4      1021.405          30.000  
E13  24340696.836 8 127911264.907 5     -1667.392          29.000  
E18  18672902.458 8  98126797.909 3      2588.716          27.000  
E21  23615958.249 8 124102709.137 5       202.700          29.000  
J 3  37631261.127 8 197753602.16723      -643.344          30.000  
> 2021  5 17  2 37 14.9970000  0 10                     
G 8  20104115.223 9                     -1771.888          30.000  
G21  19506409.672 9 102506874.19435       847.921          32.000  
G 1  20360995.682 9 106997722.17835      3142.439          28.000  
J 2  37437191.392 8 196733768.15235      1298.974          34.000  
G27  22298194.148 9                     -2850.067          31.000  
E26  21939748.311 8                      1019.344          30.000  
E13  24341023.744 8 127912933.538 5     -1670.646          29.000  
E18  18672410.628 8  98124209.627 4      2587.057          31.000  
E21  23615924.404 8 124102507.165 5       199.184          27.000  
J 3  37631382.131 8 197754246.60823      -646.158          31.000  
> 2021  5 17  2 37 15.9970000  0  9                     
G 8  20104451.559 9                     -1772.129          30.000  
G21  19506251.538 9                       845.747          28.000  
G 4  22752719.528 9                     -2792.634          10.000  
J 2  37436945.209 9                      1297.375          30.000  
G27  22298731.667 9 117180652.30335     -2852.132          29.000  
E13  24341340.277 8 127914604.647 5     -1670.482          30.000  
E18  18671917.598 8  98121623.303 4      2585.319          29.000  
E21  23615885.342 8 124102307.020 5       202.504          28.000  
J 3  37631500.356 8 197754868.21235      -646.432          30.000  
> 2021  5 17  2 37 16.9970000  0  8                     
G 8  20104786.437 9 105651377.46134     -1771.663          29.000  
G21  19506093.286 9                       846.996          29.000  
J 2  37436693.891 8 196731174.89334      1299.298          30.000  
G27  22299274.975 9 117183503.65025     -2850.947          29.000  
E13  24341660.088 8 127916276.189 4     -1671.803          29.000  
E18  18671426.104 8  98119036.842 3      2586.698          29.000  
E21  23615844.260 9                       200.748          27.000  
J 3  37631627.970 8 197755513.00725      -641.684          31.000  
> 2021  5 17  2 37 17.9970000  0  9                     
G 8  20105121.543 8 105653150.81523     -1774.084          29.000  
G21  19505930.572 9 102504364.18135       847.169          30.000  
J 2  37436447.520 8 196729875.54124      1299.194          31.000  
G27  22299818.662 8 117186356.90325     -2855.102          29.000  
E26  21939168.288 9 115291117.01915      1021.766          27.000  
E13  24341977.114 8 127917949.492 4     -1675.154          29.000  
E18  18670934.069 8  98116451.458 3      2584.237          30.000  
E21  23615807.497 9 124101909.61815       198.676          28.000  
J 3  37631750.409 8 197756158.46124      -647.940          31.000  
> 2021  5 17  2 37 18.9970000  0 10                     
G 8  20105461.774 8 105654927.93924     -1779.631          29.000  
G 7  19924947.373 9                      2300.747          12.000  
G21  19505766.212 9                       848.964          29.000  
J 2  37436206.179 8 196728577.42425      1295.543          30.000  
G27  22300362.782 8                     -2863.059          27.000  
E26  21938971.419 9 115290095.861 5      1020.746          27.000  
E13  24342297.165 9                     -1679.238          28.000  
E18  18670440.608 8  98113868.485 4      2582.076          30.000  
E21  23615769.778 9                       195.285          27.000  
J 3  37631871.077 8 197756805.02725      -648.688          29.000  
> 2021  5 17  2 37 19.9970000  0  9                     
G 8  20105797.320 8 105656710.98723     -1785.737          30.000  
G 7  19924504.399 9 104703976.42835      2292.163          32.000  
G21  19505606.670 9                       848.556          29.000  
J 2  37435955.747 8 196727282.32224      1294.731          31.000  
E26  21938770.903 9 115289074.216 5      1022.862          27.000  
E13  24342618.161 9 127921331.36415     -1688.925          28.000  
E18  18669950.483 8  98111288.397 3      2578.197          34.000  
E21  23615735.510 8 124101521.523 4       188.360          28.000  
J 3  37631999.921 8 197757455.04224      -652.116          34.000  
> 2021  5 17  2 37 20.9970000  0  8                     
G 8  20106141.970 4 105658500.29122     -1791.793          33.000  
G 7  19924063.209 8 104701685.62822      2289.899          34.000  
G21  19505448.605 8 102501804.89133       850.269          38.000  
J 2  37435710.414 8 196725990.02722      1291.863          34.000  
E13  24342946.758 9                     -1701.151          26.000  
E18  18669462.488 8  98108710.776 2      2576.355          34.000  
E21  23615698.764 8 124101335.572 3       184.809          31.000  
J 3  37632123.229 4 197758107.98522      -653.895          34.000  
> 2021  5 17  2 37 21.9970000  0  9                     
G 8  20106484.723 8 105660290.15034     -1798.816          28.000  
G 7  19923625.056 8 104699397.58822      2286.206          30.000  
G21  19505280.442 8 102500954.03922       850.308          33.000  
J 2  37435462.826 4 196724699.89522      1289.095          34.000  
E26  21938392.455 9                      1024.519          33.000  
E13  24343274.939 9                     -1710.076          23.000  
E18  18668967.251 8  98106135.653 2      2573.519          30.000  
E21  23615664.409 8 124101154.243 4       178.618          26.000  
J 3  37632246.078 8 197758763.43023      -657.426          34.000  
> 2021  5 17  2 37 22.9970000  0  9                     
G 8  20106827.249 9                     -1795.106          11.000  
G 7  19923191.427 8 104697112.67823      2283.956          29.000  
G 1  20356158.107 9                      3169.482          31.000  
J 2  37435221.249 4 196723412.13122      1287.005          32.000  
G27  22302559.346 9                     -2890.564          25.000  
E13  24343600.312 9                     -1701.897          20.000  
E18  18668480.098 4  98103563.326 2      2571.685          30.000  
E21  23615639.926 9                       173.240          25.000  
J 3  37632373.068 4 197759421.38522      -658.687          31.000  
> 2021  5 17  2 37 23.9970000  0  9                     
G 7  19922755.970 4 104694829.20323      2283.175          29.000  
G21  19504951.780 9                       852.583          34.000  
J 2  37434974.700 4 196722125.34922      1286.812          33.000  
G27  22303105.476 9 117203609.34035     -2892.781          26.000  
E26  21937997.871 9 115284966.68514      1024.674          32.000  
E13  24343924.777 9                     -1710.231          20.000  
E18  18667991.670 4  98100992.662 2      2569.942          30.000  
E21  23615610.069 9                       176.307          22.000  
J 3  37632496.162 4 197760080.54022      -659.439          33.000  
> 2021  5 17  2 37 24.9970000  0 10                     
G 7  19922318.877 4 104692545.91723      2283.315          29.000  
G21  19504794.310 9 102498361.90532       851.087          34.000  
G 1  20354975.523 9                      3170.187          34.000  
J 2  37434726.981 4 196720838.245 1      1286.462          34.000  
G27  22303655.691 9 117206501.64624     -2891.943          25.000  
E26  21937804.213 9 115283942.231 2      1024.457          32.000  
E13  24344247.431 9                     -1708.203          19.000  
E18  18667505.708 4  98098422.300 2      2570.015          29.000  
E21  23615575.369 9                       177.702          20.000  
J 3  37632621.991 4 197760738.85512      -658.809          34.000  
> 2021  5 17  2 37 25.9970000  0 10                     
G 7  19921884.602 4 104690262.86222      2282.831          29.000  
G21  19504633.292 8 102497511.34422       849.903          35.000  
G 1  20354381.430 9 106962995.87734      3171.581          34.000  
J 2  37434484.370 4 196719550.861 1      1287.439          35.000  
G27  22304202.702 8 117209393.76424     -2892.468          27.000  
E26  21937611.009 8 115282918.020 2      1024.145          33.000  
E13  24344570.797 9                     -1722.974          20.000  
E18  18667024.047 8  98095852.570 2      2568.945          30.000  
E21  23615544.818 9                       176.561          18.000  
J 3  37632749.425 4 197761397.464 1      -658.832          35.000  
> 2021  5 17  2 37 26.9970000  0 10                     
G 7  19921452.984 4 104687980.93722      2281.067          30.000  
G21  19504472.331 4 102496661.98022       848.329          36.000  
G 1  20353782.779 8 106959825.05022      3170.156          35.000  
J 2  37434240.800 4 196718264.096 1      1285.987          35.000  
G27  22304752.480 4 117212286.41724     -2893.162          28.000  
E26  21937418.236 4 115281894.882 1      1022.458          34.000  
E13  24344893.622 9                     -1715.683          20.000  
E18  18666528.862 8  98093284.232 3      2567.761          31.000  
E21  23615509.813 9                       170.440          18.000  
J 3  37632873.396 4 197762056.683 1      -660.231          35.000  
> 2021  5 17  2 37 27.9970000  0 10                     
G 7  19921022.631 8 104685699.62123      2281.689          30.000  
G21  19504313.111 4 102495813.48521       848.742          36.000  
G 1  20353181.239 4 106956654.80922      3170.235          35.000  
J 2  37433998.469 4 196716977.486 1      1286.818          35.000  
G27  22305301.857 4 117215179.33623     -2892.590          27.000  
E26  21937224.578 4 115280872.445 2      1021.942          34.000  
E13  24345221.546 9                     -1715.185          20.000  
E18  18666034.960 8  98090716.920 2      2566.854          31.000  
E21  23615477.679 9                       176.414          18.000  
J 3  37632998.824 2 197762716.114 1      -659.276          35.000  
> 2021  5 17  2 37 28.9970000  0 11                     
G 8  20108888.997 9                     -1801.667          17.000  
G 7  19920585.010 8 104683418.17823      2280.542          30.000  
G21  19504150.183 2 102494965.02021       848.155          36.000  
G 1  20352577.754 4 106953484.33321      3169.595          35.000  
J 2  37433753.023 4 196715690.206 1      1287.164          35.000  
G27  22305851.102 4 117218071.49223     -2891.465          27.000  
E26  21937030.222 4 115279849.782 2      1022.467          34.000  
E13  24345545.806 9                     -1706.582          20.000  
E18  18665553.849 8  98088149.749 3      2566.929          31.000  
E21  23615444.846 9                       174.809          17.000  
J 3  37633124.204 2 197763374.913 1      -658.919          36.000  
> 2021  5 17  2 37 29.9970000  0 11                     
G 8  20109235.706 9                     -1800.221          18.000  
G 7  19920156.311 8 104681137.41923      2280.743          31.000  
G21  19503988.690 2 102494117.42821       847.904          36.000  
G 1  20351977.143 4 106950314.43822      3170.200          35.000  
J 2  37433506.835 4 196714403.121 1      1287.385          36.000  
G27  22306401.783 4 117220964.02923     -2892.507          28.000  
E26  21936834.779 2 115278827.879 1      1021.640          34.000  
E13  24345872.173 9                     -1703.417          20.000  
E18  18665065.247 8  98085583.619 2      2566.052          31.000  
E21  23615411.089 9                       175.509          18.000  
J 3  37633249.780 2 197764033.984 1      -658.893          36.000  
> 2021  5 17  2 37 30.9970000  0 11                     
G 8  20109579.497 9                     -1801.982          18.000  
G 7  19919720.736 8 104678856.40413      2280.023          31.000  
G21  19503828.174 2 102493270.29721       846.570          36.000  
G 1  20351373.008 2 106947144.73821      3169.635          35.000  
J 2  37433261.983 2 196713115.839 1      1287.213          36.000  
G27  22306950.191 4 117223856.27623     -2892.107          28.000  
E26  21936640.654 2 115277806.173 1      1021.728          35.000  
E13  24346196.407 9                     -1707.347          19.000  
E18  18664577.409 4  98083018.054 2      2565.335          32.000  
E21  23615376.533 9                       178.799          17.000  
J 3  37633375.199 2 197764692.836 1      -659.000          36.000  
> 2021  5 17  2 37 31.9970000  0 11                     
G 8  20109924.196 9                     -1805.243          19.000  
G 7  19919286.265 8 104676575.869 3      2280.676          31.000  
G21  19503666.864 2 102492423.30521       847.111          36.000  
G 1  20350769.785 2 106943974.96721      3169.628          35.000  
J 2  37433017.034 2 196711828.013 1      1288.565          36.000  
G27  22307500.558 4 117226748.06723     -2891.429          28.000  
E26  21936446.167 2 115276784.485 1      1022.015          35.000  
E13  24346519.725 9                     -1711.198          18.000  
E18  18664086.752 8  98080452.823 2      2564.986          31.000  
E21  23615342.605 9                       176.217          17.000  
J 3  37633500.553 2 197765351.186 1      -657.793          36.000  
> 2021  5 17  2 37 32.9970000  0 11                     
G 8  20110267.956 9                     -1804.923          19.000  
G 7  19918852.640 8 104674295.930 3      2278.156          30.000  
G21  19503505.860 2 102491577.06921       845.304          36.000  
G 1  20350166.723 2 106940805.67221      3167.883          35.000  
J 2  37432772.037 2 196710540.262 1      1287.093          35.000  
G27  22308051.357 2 117229639.91623     -2892.756          29.000  
E26  21936252.003 2 115275763.378 1      1019.841          35.000  
E13  24346844.347 9                     -1710.470          17.000  
E18  18663600.480 8  98077888.465 3      2563.505          31.000  
E21  23615307.177 9                       175.563          17.000  
J 3  37633626.124 2 197766009.657 2      -659.138          36.000  
> 2021  5 17  2 37 33.9970000  0 11                     
G 8  20110612.943 9                     -1807.963          19.000  
G 7  19918420.760 8 104672017.106 4      2278.448          30.000  
G21  19503345.130 2 102490732.19221       844.661          36.000  
G 1  20349563.857 2 106937637.40721      3168.635          35.000  
J 2  37432527.211 2 196709253.173 1      1287.620          35.000  
G27  22308603.141 4 117232532.47122     -2892.443          29.000  
E26  21936058.000 2 115274743.391 1      1020.435          35.000  
E13  24347169.885 9                     -1710.470          16.000  
E18  18663113.458 8  98075325.611 3      2563.180          31.000  
E21  23615272.490 9                       175.563          16.000  
J 3  37633751.600 2 197766668.817 1      -658.723          35.000  
> 2021  5 17  2 37 34.9970000  0 12                     
G 8  20110956.298 9                     -1801.727          20.000  
G 7  19917986.145 4 104669738.023 3      2278.757          30.000  
G21  19503184.592 2 102489887.19921       845.424          36.000  
G 9  22049145.037 9                     -1898.297          15.000  
G 1  20348961.052 2 106934468.84921      3168.192          35.000  
J 2  37432282.245 2 196707965.348 1      1287.529          35.000  
G27  22309158.137 8 117235424.25223     -2891.493          30.000  
E26  21935864.133 2 115273723.163 1      1020.329          35.000  
E13  24347495.659 9                     -1710.470          15.000  
E18  18662625.515 4  98072762.831 2      2562.864          31.000  
E21  23615237.476 9                       176.725          17.000  
J 3  37633876.744 2 197767327.267 1      -658.684          36.000  
> 2021  5 17  2 37 35.9970000  0 12                     
G 8  20111300.687 9                     -1820.645          20.000  
G 7  19917553.768 8 104667460.015 3      2276.062          30.000  
G21  19503024.090 2 102489043.50821       842.473          36.000  
G 9  22049501.082 9                     -1898.297          15.000  
G 1  20348358.361 2 106931301.28121      3166.560          36.000  
J 2  37432037.156 2 196706678.061 1      1287.280          35.000  
G27  22309707.788 9                     -2884.033          30.000  
E26  21935669.968 2 115272703.993 1      1018.744          35.000  
E13  24347822.026 9                     -1710.470          13.000  
E18  18662135.678 4  98070201.451 2      2560.272          31.000  
E21  23615204.783 9                       174.199          17.000  
J 3  37634002.163 2 197767986.317 1      -659.562          36.000  
> 2021  5 17  2 37 36.9970000  0 12                     
G 8  20111642.388 9                     -1804.394          20.000  
G 7  19917118.428 8 104665182.024 4      2278.516          30.000  
G21  19502863.561 2 102488199.99222       844.319          36.000  
G 9  22049863.641 9                     -1898.297          16.000  
G 1  20347755.478 2 106928133.67421      3167.641          36.000  
J 2  37431792.160 2 196705390.349 1      1288.253          35.000  
G27  22310261.017 9 117241212.67834     -2890.960          30.000  
E26  21935476.319 2 115271684.922 1      1018.804          35.000  
E13  24348149.143 9                     -1710.470          12.000  
E18  18661649.232 8  98067640.495 2      2560.378          31.000  
E21  23615171.436 9                       180.630          18.000  
J 3  37634127.242 2 197768644.948 1      -657.585          36.000  
> 2021  5 17  2 37 37.9970000  0 12                     
G 8  20111987.017 9                     -1808.633          21.000  
G 7  19916683.460 8 104662903.839 4      2278.467          30.000  
G21  19502703.237 2 102487356.51821       842.286          36.000  
G 9  22050221.061 9                     -1898.297          15.000  
G 1  20347152.529 2 106924965.78321      3167.061          36.000  
J 2  37431547.163 2 196704101.946 1      1287.969          36.000  
G27  22310805.913 8 117244104.02923     -2893.077          31.000  
E26  21935282.753 2 115270665.598 1      1018.818          35.000  
E13  24348476.989 9                     -1710.470          11.000  
E18  18661159.784 4  98065079.577 2      2559.889          31.000  
E21  23615139.445 9                       172.059          18.000  
J 3  37634252.640 2 197769302.953 1      -658.792          36.000  
> 2021  5 17  2 37 38.9970000  0 12                     
G 8  20112330.358 9                     -1809.573          21.000  
G 7  19916248.718 8 104660592.82335      2275.905          30.000  
G21  19502543.149 2 102486514.94121       841.017          36.000  
G 9  22050582.459 9                     -1898.297          14.000  
G 1  20346549.659 4 106921799.96022      3164.097          32.000  
J 2  37431302.166 2 196702814.677 1      1286.508          35.000  
G27  22311361.698 8 117246996.17623     -2891.889          30.000  
E26  21935089.055 2 115269648.070 1      1016.625          35.000  
E13  24348805.454 9                     -1712.602          12.000  
E18  18660666.802 8  98062520.676 3      2557.966          30.000  
E21  23615106.700 9                       173.655          19.000  
J 3  37634377.862 4 197769962.058 2      -659.382          35.000  
> 2021  5 17  2 37 39.9970000  0 12                     
G 8  20112674.150 9                     -1803.823          20.000  
G 7  19915818.985 8 104658316.44525      2276.222          29.000  
G21  19502383.859 2 102485675.47921       838.774          38.000  
G 4  22765089.120 9                     -2693.550          20.000  
G 1  20345944.607 4 106918637.25822      3160.782          35.000  
J 2  37431057.087 4 196701527.016 2      1289.211          33.000  
G27  22311907.759 8 117249885.87823     -2887.112          34.000  
E26  21934895.829 2 115268632.208 1      1015.219          35.000  
E13  24349129.413 9                     -1711.368          21.000  
E18  18660183.248 8  98059962.486 3      2558.685          30.000  
E21  23615076.982 9                       177.584          21.000  
J 3  37634503.011 2 197770620.696 1      -657.525          34.000  
> 2021  5 17  2 37 40.9970000  0 12                     
G 8  20113014.756 9                     -1786.274          21.000  
G 7  19915385.007 9                      2303.985          15.000  
G21  19502224.124 4 102484836.79023       840.605          35.000  
G 4  22765600.939 9                     -2693.550          20.000  
G 1  20345344.311 8 106915478.75223      3156.731          32.000  
J 2  37430812.862 9                      1276.304          26.000  
G27  22312453.772 8 117252768.27224     -2878.604          28.000  
E26  21934702.389 4 115267616.976 3      1014.704          33.000  
E13  24349448.992 9 127957228.57115     -1703.627          34.000  
E18  18659696.705 9                      2553.173          20.000  
E21  23615041.942 9                       184.922          22.000  
J 3  37634629.289 9                      -662.896          26.000  
> 2021  5 17  2 37 41.9970000  0 12                     
G 8  20113351.070 9                     -1792.412          29.000  
G 7  19914948.882 9                      2303.985          13.000  
G21  19502065.741 9                       831.061          23.000  
G 9  22051666.179 9                     -1898.297          11.000  
G 4  22766112.195 9                     -2693.550          17.000  
G 1  20344745.865 8 106912324.44125      3152.584          30.000  
G27  22312998.258 8 117255644.75925     -2873.904          28.000  
E26  21934508.190 9                      1007.092          19.000  
E13  24349774.404 9                     -1700.640          29.000  
E18  18659203.536 9                      2553.173          17.000  
E21  23615001.017 9                       190.679          29.000  
J 3  37634753.932 9                      -649.935          24.000  
> 2021  5 17  2 37 42.9970000  0 13                     
G 8  20113691.305 9                     -1792.747          27.000  
G 7  19914516.339 9                      2280.960          11.000  
G21  19501907.145 9                       829.152          22.000  
G 9  22052027.883 9                     -1898.297          12.000  
G 4  22766622.693 9                     -2693.550          16.000  
G 1  20344143.797 9                      3146.905          21.000  
J 2  37430309.388 9                      1295.000          29.000  
G27  22313549.776 9                     -2873.764          26.000  
E26  21934316.455 9                      1015.625          20.000  
E13  24350093.333 9                     -1696.305          27.000  
E18  18658716.679 9                      2567.577          15.000  
E21  23614965.209 9                       184.709          27.000  
J 3  37634876.201 9                      -651.095          26.000  
> 2021  5 17  2 37 43.9970000  0 10                     
G 8  20114032.348 9                     -1787.990          25.000  
G21  19501751.327 9                       834.802          23.000  
G 9  22052391.092 9                     -1898.297          12.000  
G 1  20343543.815 9                      3146.905          19.000  
G27  22314095.663 9                     -2873.048          22.000  
E26  21934122.322 9                      1011.290          21.000  
E13  24350417.244 9                     -1694.251          25.000  
E18  18658234.001 9                      2560.733          19.000  
E21  23614929.135 9                       188.478          25.000  
J 3  37635000.342 9                      -649.774          25.000  
> 2021  5 17  2 37 44.9970000  0 11                     
G 8  20114371.650 9                     -1782.618          25.000  
G 7  19913652.689 9                      2280.960          11.000  
G21  19501587.941 9                       832.012          25.000  
G 1  20342947.301 9                      3146.299          21.000  
J 2  37429827.880 9                      1296.196          27.000  
G27  22314642.439 9                     -2852.820          20.000  
E26  21933931.272 9                      1016.688          22.000  
E13  24350744.435 9                     -1696.841          23.000  
E18  18657748.131 9                      2563.217          28.000  
E21  23614891.334 9                       191.100          25.000  
J 3  37635124.566 8                      -647.407          26.000  
> 2021  5 17  2 37 45.9970000  0 11                     
G 8  20114709.643 9                     -1782.564          25.000  
G 7  19913218.143 9                      2280.960          13.000  
G21  19501427.752 9                       831.974          26.000  
G 1  20342343.964 9                      3142.168          23.000  
J 2  37429576.628 9                      1298.238          26.000  
G27  22315190.930 9                     -2860.769          16.000  
E26  21933736.812 9                      1010.062          24.000  
E13  24351066.139 9                     -1686.463          21.000  
E18  18657258.940 9  98044567.41815      2560.808          28.000  
E21  23614853.467 9                       187.013          23.000  
J 3  37635248.493 9                      -645.778          26.000  
> 2021  5 17  2 37 46.9970000  0 12                     
G 8  20115046.655 9                     -1782.379          26.000  
G 7  19912782.638 9                      2282.966          28.000  
G21  19501271.438 9                       831.760          26.000  
G 1  20341748.746 9                      3138.493          25.000  
J 2  37429335.322 9                      1297.618          25.000  
G27  22315740.119 9                     -2872.164          16.000  
G16  23323816.992 9                     -1548.811          19.000  
E26  21933545.374 9                      1004.929          23.000  
E13  24351387.018 9                     -1686.940          19.000  
E18  18656775.338 9  98042026.465 5      2561.796          29.000  
E21  23614817.995 9                       202.191          22.000  
J 3  37635374.549 9                      -645.341          24.000  
> 2021  5 17  2 37 47.9970000  0 11                     
G 8  20115388.387 9                     -1776.589          25.000  
G 7  19912346.771 9                      2284.862          14.000  
G21  19501114.726 9                       831.727          25.000  
G 1  20341153.144 9                      3148.916          23.000  
G27  22316281.926 9                     -2854.232          16.000  
G16  23324114.567 9                     -1548.811          21.000  
E26  21933355.694 9                      1009.858          22.000  
E13  24351705.192 9                     -1689.421          20.000  
E18  18656287.089 8                      2564.014          29.000  
E21  23614781.781 9                       201.643          20.000  
J 3  37635496.652 9                      -657.274          24.000  
> 2021  5 17  2 37 48.9970000  0 11                     
G 8  20115726.799 9                     -1783.011          24.000  
G 7  19911911.606 9                      2266.205          11.000  
G21  19500955.654 9                       835.750          25.000  
G 1  20340557.376 9                      3135.813          21.000  
G27  22316824.619 9                     -2846.761          17.000  
G16  23324409.789 9                     -1548.811          18.000  
E26  21933163.991 9                      1005.243          22.000  
E13  24352027.986 9                     -1689.421          18.000  
E18  18655794.335 9                      2567.072          20.000  
E21  23614741.960 9                       201.230          21.000  
J 3  37635619.572 9                      -677.289          22.000  
> 2021  5 17  2 37 49.9970000  0 11                     
G 8  20116064.561 9                     -1777.048          26.000  
G 7  19911481.245 9                      2263.120          16.000  
G21  19500794.877 9                       824.740          23.000  
G 1  20339960.941 9                      3130.032          28.000  
G27  22317363.465 9                     -2847.616          18.000  
G16  23324704.467 9                     -1548.811          17.000  
E26  21932971.537 9                      1011.288          20.000  
E13  24352350.449 9                     -1688.951          17.000  
E18  18655311.081 9                      2551.639          19.000  
E21  23614703.142 9                       196.438          20.000  
J 3  37635743.416 9                      -651.468          23.000  
> 2021  5 17  2 37 50.9970000  0 11                     
G 8  20116401.328 9 105712401.60035     -1776.812          27.000  
G 7  19911048.881 9                      2263.120          16.000  
G21  19500638.008 9                       836.022          23.000  
G 1  20339367.132 9                      3122.492          22.000  
G27  22317903.383 9                     -2846.431          18.000  
G16  23324999.402 9                     -1548.811          18.000  
E26  21932781.281 9                      1003.483          22.000  
E13  24352668.614 9                     -1683.198          18.000  
E18  18654818.758 9                      2560.502          24.000  
E21  23614666.475 9                       208.321          22.000  
J 3  37635862.946 9                      -638.372          23.000  
> 2021  5 17  2 37 51.9970000  0 11                     
G 8  20116741.150 9                     -1772.434          27.000  
G 7  19910618.052 9                      2263.120          15.000  
G21  19500479.905 9                       827.100          23.000  
G 1  20338772.276 9                      3139.940          23.000  
G27  22318443.236 9                     -2842.974          29.000  
G16  23325294.825 9                     -1548.811          18.000  
E26  21932588.120 9                      1010.157          22.000  
E13  24352986.474 9                     -1666.722          21.000  
E18  18654334.222 9  98029198.20915      2561.761          31.000  
E21  23614628.769 9                       207.627          23.000  
J 3  37635985.730 9                      -642.912          23.000  
> 2021  5 17  2 37 52.9970000  0 12                     
G 8  20117074.078 8                     -1773.240          29.000  
G 7  19910185.836 9                      2263.120          13.000  
G21  19500322.111 9                       823.726          29.000  
G 1  20338176.608 9                      3133.342          23.000  
J 2  37427843.895 9                      1305.706          31.000  
G27  22318987.906 9                     -2852.878          15.000  
G16  23325590.528 9                     -1548.811          15.000  
E26  21932395.487 9                      1008.565          23.000  
E13  24353302.925 9                     -1676.462          26.000  
E18  18653847.536 9                      2562.970          25.000  
E21  23614589.183 9                       201.932          31.000  
J 3  37636107.467 9                      -639.832          31.000  
> 2021  5 17  2 37 53.9970000  0 12                     
G 8  20117413.808 8 105717711.03733     -1773.903          34.000  
G 7  19909754.293 9                      2263.120          13.000  
G21  19500167.528 9 102474071.73634       823.418          31.000  
G 1  20337578.982 9 106874698.05535      3127.057          34.000  
J 2  37427597.053 9 196683349.76133      1302.605          31.000  
G27  22319529.329 9                     -2845.870          16.000  
G16  23325884.869 9                     -1548.811          11.000  
E26  21932204.072 9 115254520.44615      1004.295          30.000  
E13  24353620.720 9                     -1683.930          25.000  
E18  18653360.819 9  98024082.28014      2560.797          34.000  
E21  23614554.318 9                       197.739          25.000  
J 3  37636223.698 9 197779719.77234      -640.753          31.000  
> 2021  5 17  2 37 54.9970000  0 11                     
G 8  20117748.882 8 105719486.55823     -1776.681          35.000  
G 7  19909323.320 9                      2269.362          13.000  
G21  19500014.477 9                       822.830          32.000  
G 1  20336983.746 9                      3126.807          31.000  
J 2  37427349.085 9                      1300.964          27.000  
G27  22320071.730 9                     -2848.989          20.000  
E26  21932015.326 9                      1005.099          24.000  
E13  24353941.939 9                     -1683.215          25.000  
E18  18652877.308 8  98021523.690 2      2557.735          35.000  
E21  23614517.328 9                       206.525          26.000  
J 3  37636349.855 9                      -639.423          26.000  
> 2021  5 17  2 37 55.9970000  0 13                     
G 8  20118086.208 8 105721263.43723     -1777.933          35.000  
G 7  19908877.943 9                      2282.668          38.000  
G21  19499861.482 9                       822.581          25.000  
G 4  22773361.705 9                     -2737.851          27.000  
G 1  20336387.267 9                      3129.421          25.000  
J 2  37427100.620 9                      1301.797          32.000  
G27  22320612.673 9                     -2847.418          29.000  
G16  23326475.411 9                     -1548.811          10.000  
E26  21931823.024 9                      1000.302          25.000  
E13  24354255.698 9                     -1680.918          28.000  
E18  18652386.412 8  98018966.797 2      2556.379          37.000  
E21  23614476.616 9                       197.393          28.000  
J 3  37636471.566 9 197780992.34835      -642.400          33.000  
> 2021  5 17  2 37 56.9970000  0 11                     
G 8  20118423.953 8                     -1776.950          35.000  
G 7  19908438.577 9                      2242.632          20.000  
G21  19499697.642 9                       820.184          37.000  
J 2  37426852.657 9                      1317.895          30.000  
G27  22321149.508 9                     -2844.040          29.000  
G16  23326769.966 9                     -1548.811          11.000  
E26  21931632.917 9 115251518.39314      1000.719          35.000  
E13  24354578.209 9                     -1679.568          35.000  
E18  18651904.917 4  98016410.471 2      2557.286          39.000  
E21  23614434.561 9                       198.453          29.000  
J 3  37636591.667 9                      -644.686          33.000  
> 2021  5 17  2 37 57.9970000  0  9                     
G 8  20118766.125 8 105724829.12635     -1776.329          38.000  
G 7  19908004.934 9                      2271.012          21.000  
G21  19499542.985 9                       820.438          38.000  
J 2  37426601.104 9 196678115.83434      1303.900          37.000  
G27  22321688.427 9                     -2846.337          28.000  
E13  24354902.076 9                     -1682.027          29.000  
E18  18651418.631 4  98013854.028 1      2555.804          39.000  
E21  23614398.889 9                       200.950          32.000  
J 3  37636714.695 8 197782270.53734      -643.506          36.000  
> 2021  5 17  2 37 58.9970000  0 11                     
G 8  20119102.129 8 105726607.27023     -1780.380          36.000  
G 7  19907565.154 9                      2277.736          28.000  
G21  19499393.092 9                       822.992          32.000  
G 1  20334617.702 9                      3127.508          27.000  
J 2  37426355.932 9                      1304.327          34.000  
G27  22322232.302 9                     -2848.542          28.000  
E26  21931252.790 9                      1002.894          30.000  
E13  24355223.090 9                     -1679.920          23.000  
E18  18650931.461 4  98011298.943 2      2553.529          38.000  
E21  23614357.632 9                       198.812          28.000  
J 3  37636836.581 9                      -642.957          33.000  
> 2021  5 17  2 37 59.9970000  0 12                     
G 8  20119440.703 9                     -1782.542          29.000  
G 7  19907125.509 9                      2278.498          27.000  
G21  19499235.207 9                       819.080          35.000  
G 1  20334013.898 9                      3129.004          28.000  
G 4  22775454.963 9                     -2737.152          21.000  
J 2  37426111.817 9 196675525.43335      1299.993          34.000  
G27  22322774.415 9                     -2855.320          32.000  
E26  21931060.092 9                      1001.359          33.000  
E13  24355535.663 9                     -1686.932          25.000  
E18  18650446.253 4  98008745.588 1      2551.283          37.000  
E21  23614331.387 9                       194.918          28.000  
J 3  37636961.206 9                      -637.985          27.000  
> 2021  5 17  2 38  0.9970000  0 12                     
G 8  20119776.781 9 105730139.79535     -1783.657          35.000  
G 7  19906691.618 9 104610369.58235      2277.972          35.000  
G21  19499078.635 9 102468349.15835       822.000          37.000  
G 1  20333418.950 9                      3132.963          31.000  
G 4  22775971.656 9                     -2737.152          21.000  
J 2  37425859.142 9                      1301.151          27.000  
G27  22323317.444 9                     -2858.577          27.000  
E26  21930869.414 9                      1003.412          29.000  
E13  24355859.081 9                     -1690.390          31.000  
E18  18649959.893 4  98006193.665 2      2551.678          37.000  
E21  23614288.848 9                       194.011          25.000  
J 3  37637086.254 9                      -646.106          29.000  
> 2021  5 17  2 38  1.9970000  0 12                     
G 8  20120117.134 9 105731928.70335     -1786.933          37.000  
G 7  19906258.983 9                      2263.993          26.000  
G21  19498924.331 9                       820.827          38.000  
G 1  20332819.282 9                      3133.189          32.000  
G 4  22776496.301 9                     -2737.152          23.000  
J 2  37425611.258 9                      1301.567          35.000  
G27  22323860.006 9                     -2855.628          32.000  
E26  21930673.718 9                      1006.305          28.000  
E13  24356183.546 9                     -1693.156          33.000  
E18  18649472.156 9                      2550.333          30.000  
E21  23614248.987 9                       193.083          37.000  
J 3  37637205.552 9                      -644.516          37.000  
> 2021  5 17  2 38  2.9970000  0 12                     
G 8  20120459.913 9 105733716.82925     -1792.401          32.000  
G 7  19905833.146 9                      2251.442          24.000  
G21  19498765.268 8 102466717.32133       820.110          38.000  
G 1  20332221.800 9                      3134.580          35.000  
G 4  22777012.046 9                     -2730.927          22.000  
J 2  37425365.912 8 196671615.88133      1296.102          32.000  
G27  22324403.751 9                     -2868.777          27.000  
E26  21930487.424 9 115245475.64614      1002.308          36.000  
E13  24356506.598 9                     -1696.791          27.000  
E18  18648989.238 8  98001099.15614      2548.284          31.000  
E21  23614217.393 9                       182.315          29.000  
J 3  37637326.962 9 197785497.07734      -645.648          33.000  
> 2021  5 17  2 38  3.9970000  0 13                     
G 8  20120800.162 9                     -1792.982          33.000  
G 7  19905406.920 9                      2284.670          21.000  
G21  19498609.276 9 102465896.71525       823.632          29.000  
G 1  20331624.091 9 106843409.11733      3137.633          33.000  
G 4  22777530.767 9                     -2709.198          21.000  
J 2  37425115.396 9                      1300.171          27.000  
G27  22324946.784 9                     -2873.430          26.000  
E26  21930295.786 9                      1003.550          28.000  
E 1  24258325.120 9                      1517.921          20.000  
E13  24356829.462 9                     -1699.215          27.000  
E18  18648505.064 9                      2545.547          24.000  
E21  23614181.538 9                       179.834          24.000  
J 3  37637449.389 9                      -648.197          33.000  
> 2021  5 17  2 38  4.9970000  0 14                     
G 8  20121142.653 9                     -1795.691          32.000  
G 7  19904968.845 9                      2278.123          21.000  
G21  19498457.983 9                       820.093          30.000  
G 1  20331026.098 9                      3145.001          25.000  
G 4  22778046.596 9                     -2694.061          20.000  
J 2  37424874.138 9                      1298.877          32.000  
G27  22325503.965 9                     -2870.678          26.000  
G16  23329129.934 9                     -1557.586          20.000  
E26  21930112.205 9                      1002.972          33.000  
E 1  24258049.040 9 127476918.52214      1517.278          38.000  
E13  24357154.332 9                     -1702.787          27.000  
E18  18648018.151 9  97996006.55915      2542.854          40.000  
E21  23614142.309 9                       183.488          26.000  
J 3  37637579.537 9                      -649.182          29.000  
> 2021  5 17  2 38  5.9970000  0 14                     
G 8  20121483.046 9 105739106.17635     -1800.022          37.000  
G 7  19904524.733 9 104598982.90633      2269.708          41.000  
G21  19498294.077 9 102464226.55335       822.633          33.000  
G 1  20330425.130 9                      3152.476          26.000  
G 4  22778558.493 9                     -2704.560          22.000  
J 2  37424623.274 9                      1307.941          25.000  
G27  22326043.731 9                     -2875.588          32.000  
G16  23329425.505 9                     -1557.586          19.000  
E26  21929915.707 9 115242524.02315      1007.109          32.000  
E 1  24257760.243 9 127475402.134 2      1514.404          37.000  
E13  24357479.142 9                     -1710.470          32.000  
E18  18647532.965 8  97993463.426 2      2542.924          35.000  
E21  23614109.407 9                       173.960          28.000  
J 3  37637699.703 9                      -646.533          30.000  
> 2021  5 17  2 38  6.9970000  0 13                     
G 8  20121829.956 8 105740908.39922     -1803.221          37.000  
G 7  19904094.869 8 104596714.21822      2269.330          36.000  
G21  19498138.801 9                       822.146          29.000  
G 1  20329830.012 9                      3160.462          25.000  
J 2  37424381.174 9                      1294.463          28.000  
G27  22326593.042 9                     -2880.146          27.000  
G16  23329722.779 9                     -1557.586          18.000  
E26  21929728.191 9 115241519.861 5      1004.038          29.000  
E 1  24257473.379 8 127473889.086 2      1512.794          37.000  
E13  24357804.017 9                     -1712.860          26.000  
E18  18647052.220 8  97990922.154 3      2541.001          37.000  
E21  23614070.371 9                       176.316          27.000  
J 3  37637825.676 9 197788108.68935      -653.625          31.000  
> 2021  5 17  2 38  7.9970000  0 13                     
G 8  20122172.704 4 105742713.58222     -1805.853          38.000  
G 7  19903663.661 4 104594447.80122      2265.820          40.000  
G21  19497985.435 9                       820.191          29.000  
G 1  20329229.210 9 106830820.49034      3150.335          37.000  
J 2  37424131.257 9                      1293.230          30.000  
G27  22327141.258 9                     -2895.441          32.000  
G16  23330018.778 9                     -1557.586          18.000  
E26  21929535.536 8 115240516.402 5      1000.968          29.000  
E 1  24257190.092 8 127472378.666 2      1510.047          38.000  
E13  24358127.217 9 128002832.74915     -1717.091          31.000  
E18  18646564.910 8  97988383.209 2      2536.724          39.000  
E21  23614050.094 9                       172.070          26.000  
J 3  37637954.184 9 197788763.73225      -657.391          37.000  
> 2021  5 17  2 38  8.9970000  0 13                     
G 8  20122513.834 4 105744520.47522     -1807.641          35.000  
G 7  19903233.814 4 104592182.30721      2265.771          35.000  
G21  19497827.149 9                       822.361          29.000  
G 1  20328629.664 9                      3151.063          26.000  
J 2  37423891.251 8 196663846.02633      1291.327          31.000  
G27  22327695.394 9                     -2881.335          24.000  
G16  23330317.081 9                     -1557.586          16.000  
E26  21929345.975 9                      1004.029          27.000  
E 1  24256902.064 4 127470869.526 1      1508.979          33.000  
E13  24358459.360 9                     -1717.536          28.000  
E18  18646082.097 8  97985845.556 2      2536.583          37.000  
E21  23614007.249 9                       173.343          25.000  
J 3  37638077.662 8 197789419.70323      -655.490          33.000  
> 2021  5 17  2 38  9.9970000  0 13                     
G 8  20122859.794 8 105746328.66523     -1809.905          35.000  
G 7  19902802.283 4 104589917.52021      2264.099          38.000  
G21  19497671.200 9                       823.044          28.000  
G 1  20328033.425 8 106824517.01734      3153.138          35.000  
J 2  37423644.356 8 196662555.01522      1289.175          31.000  
G27  22328240.945 9                     -2889.190          25.000  
G16  23330612.391 9                     -1557.586          14.000  
E26  21929154.864 8 115238496.53614      1005.578          32.000  
E 1  24256615.108 2 127469361.305 1      1507.111          37.000  
E13  24358784.239 9 128006297.918 3     -1720.921          35.000  
E18  18645607.185 4  97983308.605 1      2536.000          37.000  
E21  23613980.760 9                       173.259          26.000  
J 3  37638201.938 8 197790075.95323      -657.518          33.000  
> 2021  5 17  2 38 10.9970000  0 14                     
G 8  20123205.544 4 105748138.79222     -1811.099          35.000  
G 7  19902368.828 2 104587653.97721      2263.098          36.000  
G21  19497513.625 9 102460125.62134       821.928          33.000  
G 1  20327430.529 8 106821363.22022      3153.628          32.000  
G 4  22781132.610 9                     -2693.085          19.000  
J 2  37423395.346 9                      1289.828          31.000  
G27  22328787.786 9                     -2889.339          26.000  
G16  23330908.844 9                     -1557.586          12.000  
E26  21928964.570 8 115237492.690 3      1003.463          27.000  
E 1  24256328.710 2 127467854.594 1      1506.242          34.000  
E13  24359111.758 8 128008019.856 2     -1723.167          33.000  
E18  18645121.550 4  97980773.183 1      2534.734          36.000  
E21  23613940.275 9                       172.422          27.000  
J 3  37638322.091 8 197790733.09323      -657.014          29.000  
> 2021  5 17  2 38 11.9970000  0 13                     
G 8  20123547.930 4 105749950.34622     -1812.177          35.000  
G 7  19901938.392 4 104585391.41621      2261.810          36.000  
G21  19497356.486 8 102459303.83523       821.138          32.000  
G 1  20326831.249 4 106818208.34622      3154.525          36.000  
G 4  22781648.163 9                     -2693.085          20.000  
J 2  37423156.204 8 196659980.15933      1289.322          32.000  
G27  22329339.458 9 117341470.63835     -2892.002          27.000  
E26  21928773.333 8 115236488.824 4      1003.345          26.000  
E 1  24256042.453 2 127466348.969 1      1505.225          37.000  
E13  24359437.593 8 128009743.638 2     -1724.992          33.000  
E18  18644641.639 2  97978238.970 1      2533.288          38.000  
E21  23613905.305 9                       176.301          25.000  
J 3  37638443.728 4 197791390.89023      -658.082          28.000  
> 2021  5 17  2 38 12.9970000  0 13                     
G 8  20123892.118 4 105751762.30511     -1813.101          34.000  
G 7  19901507.987 2 104583129.46211      2261.060          35.000  
G21  19497202.601 8 102458483.19322       820.282          31.000  
G 1  20326231.424 4 106815054.29622      3153.203          33.000  
G 4  22782163.913 9                     -2693.085          20.000  
J 2  37422910.727 8 196658691.07023      1288.922          31.000  
G27  22329888.079 8 117344362.02224     -2892.001          28.000  
E26  21928587.239 8 115235485.982 5      1002.750          25.000  
E 1  24255755.811 2 127464844.068 1      1504.675          35.000  
E13  24359770.953 4 128011468.467 2     -1725.463          32.000  
E18  18644158.381 2  97975706.155 1      2531.872          36.000  
E21  23613875.801 9                       176.482          22.000  
J 3  37638571.595 8 197792049.28724      -658.622          26.000  
> 2021  5 17  2 38 13.9970000  0 13                     
G 8  20124239.146 4 105753575.540 2     -1813.699          34.000  
G 7  19901077.608 2 104580869.009 1      2260.272          35.000  
G21  19497047.002 8 102457663.75022       818.502          31.000  
G 1  20325632.785 4 106811901.18521      3152.681          34.000  
G 4  22782679.694 9                     -2693.085          21.000  
J 2  37422663.562 8 196657402.55622      1287.388          31.000  
G27  22330438.786 8 117347253.88424     -2892.069          28.000  
E26  21928390.929 8 115234484.218 5      1001.648          25.000  
E 1  24255469.697 1 127463339.679 1      1504.328          36.000  
E13  24360098.712 4 128013194.191 2     -1725.112          32.000  
E18  18643675.887 1  97973174.679 1      2531.007          37.000  
E21  23613842.201 9                       164.378          20.000  
J 3  37638699.134 9                      -658.331          25.000  
> 2021  5 17  2 38 14.9970000  0 13                     
G 8  20124584.538 4 105755389.079 2     -1812.608          35.000  
G 7  19900647.574 2 104578609.125 1      2260.114          38.000  
G21  19496887.913 8 102456845.00622       819.648          31.000  
G 1  20325032.240 4 106808748.52721      3153.583          37.000  
G 4  22783196.652 9                     -2693.085          22.000  
J 2  37422418.025 8 196656114.00522      1289.352          31.000  
G27  22330986.649 8 117350145.93424     -2892.335          27.000  
E26  21928197.222 8 115233482.977 5      1001.538          25.000  
E 1  24255183.784 2 127461835.358 1      1504.845          38.000  
E13  24360427.020 4 128014920.378 2     -1725.375          33.000  
E18  18643194.296 1  97970644.082 1      2530.751          39.000  
E21  23613807.549 9                       178.229          20.000  
J 3  37638822.481 9                      -657.602          25.000  
> 2021  5 17  2 38 15.9970000  0 12                     
G 8  20124930.812 4 105757202.101 2     -1813.440          35.000  
G 7  19900217.461 2 104576348.922 1      2259.784          36.000  
G21  19496733.208 8 102456026.13722       819.229          31.000  
G 1  20324431.159 4 106805595.48422      3153.300          35.000  
J 2  37422172.443 8 196654824.63123      1289.670          31.000  
G27  22331531.536 8 117353037.06224     -2891.456          27.000  
E26  21928007.412 8 115232481.404 4      1001.492          26.000  
E 1  24254897.662 2 127460330.205 1      1505.167          37.000  
E13  24360754.919 4 128016646.137 2     -1725.926          33.000  
E18  18642712.561 1  97968113.482 1      2530.267          38.000  
E21  23613775.859 9                       177.667          20.000  
J 3  37638950.029 9                      -657.645          26.000  
> 2021  5 17  2 38 16.9970000  0 13                     
G 8  20125275.240 2 105759015.414 1     -1813.272          35.000  
G 7  19899787.727 2 104574089.270 1      2259.552          37.000  
G21  19496577.006 8 102455208.08423       817.490          31.000  
G 1  20323830.701 4 106802442.95622      3152.593          34.000  
G 4  22784223.850 9                     -2687.985          24.000  
J 2  37421927.626 8 196653535.39923      1288.900          31.000  
G27  22332075.961 4 117355928.32023     -2891.093          27.000  
E26  21927819.369 4 115231480.438 4      1000.822          25.000  
E 1  24254611.138 2 127458825.126 1      1505.279          36.000  
E13  24361083.179 4 128018372.371 2     -1726.220          33.000  
E18  18642231.463 1  97965583.811 1      2529.540          38.000  
E21  23613742.460 9                       170.553          19.000  
J 3  37639074.759 9                      -659.228          26.000  
> 2021  5 17  2 38 17.9970000  0 13                     
G 8  20125620.902 4 105760828.361 2     -1812.524          35.000  
G 7  19899357.706 2 104571829.508 1      2260.138          37.000  
G21  19496416.853 8 102454390.02623       818.828          31.000  
G 1  20323231.007 4 106799290.27622      3152.849          34.000  
G 4  22784738.296 9                     -2685.249          24.000  
J 2  37421682.542 4 196652245.49022      1291.201          31.000  
G27  22332625.150 8 117358819.02024     -2889.985          27.000  
E26  21927625.514 4 115230479.322 4      1001.300          26.000  
E 1  24254325.020 2 127457319.445 1      1506.428          36.000  
E13  24361411.422 4 128020098.336 2     -1725.393          33.000  
E18  18641750.517 1  97963054.360 1      2529.498          38.000  
E21  23613710.098 9                       170.610          19.000  
J 3  37639200.679 9                      -656.622          26.000  
> 2021  5 17  2 38 18.9970000  0 13                     
G 8  20125965.754 2 105762641.211 1     -1812.994          35.000  
G 7  19898927.593 2 104569569.850 1      2259.613          37.000  
G21  19496263.688 8 102453571.72913       819.182          30.000  
G 1  20322630.968 4 106796137.52622      3152.644          34.000  
G 4  22785250.983 9                     -2684.769          24.000  
J 2  37421436.376 4 196650955.28722      1290.259          31.000  
G27  22333178.239 8 117361708.81315     -2890.567          27.000  
E26  21927432.846 4 115229478.325 4      1000.286          25.000  
E 1  24254038.461 1 127455813.410 1      1505.773          36.000  
E13  24361739.551 4 128021824.317 2     -1726.165          33.000  
E18  18641269.022 1  97960525.360 1      2528.254          38.000  
E21  23613677.793 9                       169.592          19.000  
J 3  37639325.780 9                      -657.342          26.000  
> 2021  5 17  2 38 19.9970000  0 13                     
G 8  20126310.749 2 105764454.949 1     -1814.109          35.000  
G 7  19898497.367 2 104567311.374 1      2257.751          37.000  
G21  19496108.839 9                       816.128          30.000  
G 1  20322030.991 4 106792985.96622      3150.736          34.000  
G 4  22785763.767 9                     -2685.291          23.000  
J 2  37421190.690 8                      1289.191          31.000  
G27  22333727.769 4 117364599.862 4     -2892.199          26.000  
E26  21927241.622 4 115228478.507 4       999.051          25.000  
E 1  24253752.011 1 127454308.013 1      1504.869          36.000  
E13  24362068.261 2 128023551.358 2     -1727.768          33.000  
E18  18640787.976 1  97957997.816 1      2526.966          38.000  
E21  23613649.044 9                       168.150          19.000  
J 3  37639452.599 9                      -657.147          26.000  
> 2021  5 17  2 38 20.9970000  0 13                     
G 8  20126655.923 2 105766269.060 1     -1814.210          34.000  
G 7  19898067.882 2 104565053.455 1      2258.472          37.000  
G21  19495951.512 9 102451927.19034       816.553          30.000  
G 1  20321431.397 4 106789834.83022      3151.601          33.000  
G 4  22786276.716 9                     -2690.801          23.000  
J 2  37420945.274 8 196648394.16933      1289.669          31.000  
G27  22334280.513 4 117367490.931 4     -2891.117          27.000  
E26  21927049.705 4 115227479.253 5       998.189          25.000  
E 1  24253465.330 1 127452802.710 1      1505.515          36.000  
E13  24362396.936 4 128025278.845 2     -1727.500          33.000  
E18  18640307.066 1  97955471.205 1      2526.299          38.000  
E21  23613617.363 9                       172.217          19.000  
J 3  37639578.298 9                      -657.927          26.000  
> 2021  5 17  2 38 21.9970000  0 12                     
G 8  20127001.341 4 105768083.546 2     -1814.389          33.000  
G 7  19897638.175 2 104562796.214 1      2257.001          35.000  
G21  19495801.562 8 102451112.49024       814.008          29.000  
G 1  20320831.838 4 106786684.32922      3150.251          32.000  
J 2  37420700.378 8 196647104.83324      1288.606          30.000  
G27  22334830.142 4 117370382.199 4     -2891.459          26.000  
E26  21926858.747 8 115226480.598 5       998.073          24.000  
E 1  24253178.776 1 127451297.545 1      1505.375          35.000  
E13  24362726.217 4 128027006.858 2     -1728.351          32.000  
E18  18639826.308 1  97952945.575 1      2525.302          36.000  
E21  23613585.997 9                       174.019          18.000  
J 3  37639703.145 9                      -658.023          25.000  
> 2021  5 17  2 38 22.9970000  0 12                     
G 8  20127346.236 4 105769897.526 2     -1812.431          32.000  
G 7  19897208.533 2 104560538.787 1      2257.477          34.000  
G21  19495639.873 8 102450297.88323       813.930          30.000  
G 1  20320232.501 4 106783533.82422      3149.925          32.000  
J 2  37420452.279 8 196645814.79224      1291.006          28.000  
G27  22335384.619 4 117373272.722 3     -2889.724          27.000  
E26  21926669.940 8 115225481.881 5       999.198          24.000  
E 1  24252892.121 2 127449791.723 1      1506.322          35.000  
E13  24363054.761 4 128028734.508 2     -1727.600          31.000  
E18  18639345.929 1  97950420.133 1      2525.295          36.000  
E21  23613552.907 9                       174.019          15.000  
J 3  37639827.958 9                      -656.348          24.000  
> 2021  5 17  2 38 23.9970000  0 12                     
G 8  20127691.192 4 105771711.081 2     -1814.434          33.000  
G 7  19896781.783 4 104558281.420 1      2257.269          35.000  
G21  19495491.777 8 102449483.74622       813.953          31.000  
G 1  20319633.370 8                      3150.272          26.000  
J 2  37420203.326 9                      1291.387          13.000  
G27  22335935.688 4 117376162.415 3     -2890.794          27.000  
E26  21926478.241 4 115224483.704 5       997.808          26.000  
E 1  24252605.030 2 127448285.110 1      1506.366          34.000  
E13  24363383.650 4 128030461.580 3     -1728.027          30.000  
E18  18638865.896 1  97947895.157 1      2524.372          36.000  
E21  23613521.008 9                       174.019          10.000  
J 3  37639953.717 9                      -657.880          24.000  
> 2021  5 17  2 38 24.9970000  0 11                     
G 8  20128034.124 4 105773525.235 2     -1814.789          32.000  
G 7  19896351.230 4 104556024.944 1      2256.018          35.000  
G21  19495338.778 4 102448670.71422       812.019          31.000  
G 1  20319034.614 9                      3148.853          26.000  
G27  22336487.987 4 117379036.07234     -2889.668          26.000  
E26  21926288.164 9                       994.425          23.000  
E 1  24252318.315 2 127446778.975 2      1505.506          34.000  
E13  24363711.814 4 128032189.453 3     -1728.454          29.000  
E18  18638385.461 1  97945371.348 1      2523.412          36.000  
E21  23613489.632 9                       172.211          17.000  
J 3  37640075.987 9 197799948.77334      -657.960          24.000  
> 2021  5 17  2 38 25.9970000  0 12                     
G 8  20128378.791 4 105775339.059 2     -1813.924          35.000  
G 7  19895921.409 2 104553768.318 1      2256.982          39.000  
G21  19495186.878 8 102447857.71923       813.021          30.000  
G 1  20318439.976 8 106774098.14134      3148.692          33.000  
J 2  37419710.754 9                      1290.125          31.000  
G27  22337037.905 9                     -2884.455          24.000  
E26  21926102.232 9                      1003.958          23.000  
E 1  24252031.446 2 127445272.150 1      1507.210          36.000  
E13  24364035.765 4 128033917.213 2     -1726.803          30.000  
E18  18637905.458 1  97942847.783 1      2523.519          38.000  
E21  23613460.451 9                       169.421          21.000  
J 3  37640203.761 8 197800605.36435      -657.152          31.000  
> 2021  5 17  2 38 26.9970000  0 12                     
G 8  20128730.618 4 105777152.218 2     -1813.546          36.000  
G 7  19895493.133 2 104551511.439 1      2256.543          40.000  
G21  19495031.663 8 102447044.77724       813.319          29.000  
G 1  20317837.180 8 106770949.07523      3148.633          33.000  
J 2  37419467.206 9 196640615.61135      1292.200          30.000  
G27  22337589.105 9                     -2887.416          22.000  
E26  21925912.369 9                       997.521          26.000  
E 1  24251744.316 2 127443764.463 2      1507.646          36.000  
E13  24364369.984 4 128035644.432 2     -1727.224          34.000  
E18  18637424.791 1  97940324.285 1      2523.199          37.000  
E21  23613426.449 9                       181.740          21.000  
J 3  37640324.783 8 197801261.66825      -655.610          29.000  
> 2021  5 17  2 38 27.9970000  0 12                     
G 8  20129069.441 4 105778964.264 2     -1811.325          35.000  
G 7  19895064.970 4 104549254.466 1      2257.910          36.000  
G21  19494870.449 9                       812.136          34.000  
G 1  20317238.489 8 106767801.11024      3152.394          31.000  
J 2  37419225.324 9                      1291.461          30.000  
G27  22338139.742 9                     -2884.693          21.000  
E26  21925729.077 8 115220460.47813       995.298          34.000  
E 1  24251457.164 2 127442255.597 2      1509.779          35.000  
E13  24364700.587 8 128037370.510 4     -1726.060          28.000  
E18  18636944.662 2  97937801.108 1      2522.647          37.000  
E21  23613393.311 9                       173.285          30.000  
J 3  37640457.488 8 197801917.46024      -655.969          29.000  
> 2021  5 17  2 38 28.9970000  0 12                     
G 8  20129415.470 4 105780775.422 2     -1810.502          36.000  
G 7  19894632.340 2 104546997.624 1      2256.702          36.000  
G21  19494716.870 8 102445424.12533       808.718          29.000  
G 1  20316640.025 9                      3145.754          32.000  
J 2  37418980.690 9                      1292.568          32.000  
G27  22338689.415 9                     -2887.786          22.000  
E26  21925542.730 8 115219464.723 3       994.737          31.000  
E 1  24251170.496 2 127440745.721 1      1510.485          36.000  
E13  24365018.596 8 128039095.232 4     -1722.673          29.000  
E18  18636464.532 2  97935278.567 1      2522.840          35.000  
E21  23613355.326 9 124089030.20414       174.375          33.000  
J 3  37640578.186 8 197802572.84825      -656.454          27.000  
> 2021  5 17  2 38 29.9970000  0 12                     
G 8  20129759.060 4 105782584.422 2     -1807.177          35.000  
G 7  19894203.169 8 104544740.389 3      2258.362          35.000  
G21  19494564.830 8 102444615.56724       805.659          28.000  
G 1  20316039.114 9                      3142.740          26.000  
J 2  37418731.636 8 196636777.11034      1294.238          32.000  
G27  22339239.437 9                     -2875.357          22.000  
E26  21925346.428 8 115218470.612 5       993.950          26.000  
E 1  24250882.729 4 127439233.620 2      1512.802          33.000  
E13  24365355.459 9                     -1720.781          20.000  
E18  18635984.280 2  97932756.246 2      2522.021          35.000  
E21  23613321.525 8 124088855.353 3       175.466          33.000  
J 3  37640701.145 8 197803227.01624      -653.925          32.000  
> 2021  5 17  2 38 30.9970000  0 12                     
G 8  20130102.284 4 105784390.586 3     -1803.754          33.000  
G 7  19893774.308 4 104542482.538 2      2258.356          34.000  
G21  19494410.605 9                       805.976          27.000  
G 1  20315442.670 9                      3137.079          26.000  
J 2  37418486.294 8 196635482.20223      1296.167          34.000  
G27  22339786.938 9                     -2869.015          23.000  
E26  21925152.491 9                       991.526          25.000  
E 1  24250594.652 4 127437718.651 3      1516.699          33.000  
E13  24365679.370 9                     -1722.827          20.000  
E18  18635504.076 2  97930233.731 2      2522.996          33.000  
E21  23613288.449 8 124088678.173 4       178.610          27.000  
J 3  37640823.131 8 197803879.79923      -652.375          33.000  
> 2021  5 17  2 38 31.9970000  0 12                     
G 8  20130445.194 4 105786193.340 2     -1802.458          33.000  
G 7  19893344.444 4 104540223.435 2      2259.106          34.000  
G21  19494258.226 8 102443012.78635       804.349          32.000  
G 1  20314846.378 9                      3134.494          24.000  
J 2  37418240.203 9                      1290.592          28.000  
G27  22340333.596 9                     -2874.244          21.000  
E26  21924968.313 9 115216495.91615       990.883          32.000  
E 1  24250305.702 4 127436200.375 2      1519.461          33.000  
E13  24366004.856 9                     -1713.495          30.000  
E18  18635023.689 2  97927710.650 1      2522.981          34.000  
E21  23613258.290 9                       187.820          26.000  
J 3  37640947.564 8 197804530.72424      -650.702          28.000  
> 2021  5 17  2 38 32.9970000  0 12                     
G 8  20130787.009 8 105787992.865 5     -1801.179          32.000  
G 7  19892914.082 4 104537963.295 2      2260.498          33.000  
G21  19494106.282 9                       807.720          25.000  
G 1  20314251.862 9                      3129.668          24.000  
J 2  37417990.459 9                      1300.266          32.000  
G27  22340878.628 9                     -2864.562          21.000  
E26  21924781.417 9 115215505.464 5       989.791          26.000  
E 1  24250015.894 4 127434678.960 3      1522.400          32.000  
E13  24366327.371 9                     -1711.712          21.000  
E18  18634543.630 4  97925187.114 2      2523.854          34.000  
E21  23613220.702 9 124088322.26415       184.771          28.000  
J 3  37641071.125 8 197805163.03435      -648.268          33.000  
> 2021  5 17  2 38 33.9970000  0 12                     
G 8  20131129.945 8 105789790.079 4     -1796.767          32.000  
G 7  19892484.043 4 104535703.124 2      2260.278          34.000  
G21  19493952.633 9                       799.423          32.000  
G 1  20313651.597 9                      3127.179          24.000  
J 2  37417744.115 9                      1301.818          27.000  
G27  22341422.560 9                     -2860.883          29.000  
E26  21924593.840 8 115214516.332 4       989.017          32.000  
E 1  24249726.290 4 127433155.592 3      1524.081          32.000  
E13  24366656.473 9                     -1696.359          21.000  
E18  18634063.461 4  97922663.999 2      2522.837          32.000  
E21  23613190.370 9                       185.062          27.000  
J 3  37641197.595 9                      -645.421          22.000  
> 2021  5 17  2 38 34.9970000  0 13                     
G 8  20131468.645 8 105791585.235 3     -1794.013          32.000  
G 7  19892053.743 4 104533442.609 2      2260.016          34.000  
G21  19493795.311 9                       798.575          26.000  
G 1  20313060.876 9                      3124.568          27.000  
G 4  22793433.857 9                     -2696.267          15.000  
J 2  37417500.401 9                      1301.212          32.000  
G27  22341963.800 9                     -2856.119          29.000  
E26  21924404.008 9                       986.607          26.000  
E 1  24249434.409 8 127431630.272 2      1526.075          32.000  
E13  24366981.832 9                     -1703.910          30.000  
E18  18633583.357 4  97920140.853 2      2523.264          34.000  
E21  23613151.342 9                       188.467          32.000  
J 3  37641316.296 9                      -646.564          31.000  
> 2021  5 17  2 38 35.9970000  0 13                     
G 8  20131814.050 4 105793378.752 2     -1793.542          33.000  
G 7  19891623.817 4 104531182.128 2      2260.797          34.000  
G21  19493644.964 9 102439794.82534       799.895          32.000  
G 1  20312469.235 9                      3122.682          27.000  
G 4  22793946.619 9                     -2696.267          16.000  
J 2  37417249.641 9 196628973.25133      1302.484          33.000  
G27  22342503.060 8 117410682.00534     -2854.730          29.000  
E26  21924215.881 9 115212541.58914       987.789          31.000  
E 1  24249143.828 8 127430103.544 2      1527.996          32.000  
E13  24367306.804 9 128051066.64714     -1701.611          30.000  
E18  18633101.639 4  97917618.068 2      2522.786          34.000  
E21  23613110.565 8 124087768.30814       189.039          31.000  
J 3  37641440.463 8 197807097.19733      -644.299          33.000  
> 2021  5 17  2 38 36.9970000  0 13                     
G 8  20132150.735 4 105795170.191 2     -1791.072          33.000  
G 7  19891193.547 4 104528920.934 2      2260.651          34.000  
G21  19493489.190 8 102438994.24923       800.430          32.000  
G 1  20311871.229 9 106739603.60435      3119.639          30.000  
G 4  22794460.083 9                     -2696.267          15.000  
J 2  37417001.298 8 196627669.66323      1303.699          32.000  
G27  22343047.786 8 117413507.71034     -2852.274          29.000  
E26  21924026.372 8 115211553.998 3       986.152          31.000  
E 1  24248854.411 4 127428574.959 2      1528.735          33.000  
E13  24367627.355 8 128052766.996 4     -1699.943          29.000  
E18  18632618.268 8  97915094.844 2      2522.972          34.000  
E21  23613076.455 8 124087576.887 4       191.873          31.000  
J 3  37641562.156 8 197807740.76622      -642.980          33.000  
> 2021  5 17  2 38 37.9970000  0 12                     
G 8  20132494.325 4 105796961.105 2     -1790.225          34.000  
G 7  19890763.365 4 104526660.219 2      2260.687          35.000  
G21  19493339.498 8 102438194.75322       799.016          33.000  
G 4  22794973.320 9                     -2696.267          15.000  
J 2  37416753.065 8 196626365.54822      1304.517          34.000  
G27  22343589.628 8 117416359.00624     -2850.808          29.000  
E26  21923837.259 8 115210567.003 3       987.296          32.000  
E 1  24248559.743 4 127427045.860 2      1529.657          33.000  
E13  24367949.286 8 128054466.487 3     -1699.187          30.000  
E18  18632141.616 4  97912572.383 1      2522.301          35.000  
E21  23613042.771 8 124087384.825 3       192.033          32.000  
J 3  37641684.295 4 197808383.90822      -642.688          34.000  
> 2021  5 17  2 38 38.9970000  0 13                     
G 8  20132837.034 4 105798751.722 2     -1790.743          35.000  
G 7  19890333.243 2 104524399.747 1      2259.937          35.000  
G21  19493190.264 4 102437395.01822       800.703          34.000  
G 1  20310684.178 9                      3121.094          33.000  
J 2  37416503.723 4 196625060.68722      1306.467          34.000  
G27  22344129.800 8 117419209.44424     -2848.728          30.000  
G16  23339201.855 9                     -1539.393          29.000  
E26  21923649.499 8 115209579.920 2       987.391          32.000  
E 1  24248271.478 4 127425516.444 1      1529.756          34.000  
E13  24368275.980 8 128056165.374 3     -1697.794          30.000  
E18  18631663.567 4  97910050.290 1      2522.009          35.000  
E21  23613006.575 8 124087191.967 2       193.317          32.000  
J 3  37641806.459 4 197809026.32021      -641.728          35.000  
> 2021  5 17  2 38 39.9970000  0 12                     
G 8  20133176.786 4 105800542.699 2     -1791.941          35.000  
G 7  19889903.208 2 104522140.254 1      2258.661          36.000  
G21  19493037.491 4 102436595.44522       799.114          34.000  
G 1  20310096.568 9 106730277.68034      3118.345          32.000  
J 2  37416256.130 4 196623755.43722      1305.395          34.000  
G27  22344673.370 8 117422059.79623     -2851.197          31.000  
E26  21923461.499 4 115208592.930 2       985.983          32.000  
E 1  24247981.547 4 127423987.685 2      1527.519          34.000  
E13  24368599.795 8 128057864.520 3     -1700.440          30.000  
E18  18631185.213 2  97907529.244 1      2519.845          35.000  
E21  23612968.691 8 124086998.951 3       192.606          32.000  
J 3  37641933.889 4 197809668.49922      -643.210          35.000  
> 2021  5 17  2 38 40.9970000  0 13                     
G 8  20133516.646 4 105802335.470 2     -1794.461          35.000  
G 7  19889473.628 4 104519883.195 2      2255.261          36.000  
G21  19492884.318 4 102435795.97622       800.094          35.000  
G 4  22796515.771 9                     -2696.267          18.000  
J 2  37416007.866 4 196622450.42622      1304.554          34.000  
G27  22345217.446 8 117424911.15323     -2852.054          31.000  
G16  23339775.500 9                     -1535.614          26.000  
E26  21923278.124 8 115207606.119 2       987.040          32.000  
E 1  24247690.094 4 127422461.209 2      1525.246          33.000  
E13  24368914.797 8 128059564.679 3     -1700.795          30.000  
E18  18630704.673 4  97905010.328 1      2517.899          35.000  
E21  23612933.127 4 124086806.480 2       191.844          33.000  
J 3  37642054.793 4 197810311.07221      -643.602          35.000  
> 2021  5 17  2 38 41.9970000  0 14                     
G 8  20133857.693 4 105804130.369 2     -1796.771          35.000  
G 7  19889044.771 2 104517628.674 1      2253.845          36.000  
G21  19492732.470 4 102434995.60022       801.035          35.000  
G 1  20308916.476 9                      3116.250          30.000  
G 4  22797032.550 9                     -2696.267          19.000  
J 2  37415761.399 4 196621145.14022      1305.519          34.000  
G27  22345760.954 8 117427764.21823     -2854.650          31.000  
G16  23340064.545 9                     -1535.614          27.000  
E26  21923090.818 8 115206618.689 2       987.753          32.000  
E 1  24247400.568 4 127420937.770 2      1521.765          32.000  
E13  24369247.067 8 128061266.436 3     -1703.691          31.000  
E18  18630225.102 2  97902493.514 1      2515.785          35.000  
E21  23612895.836 4 124086614.624 2       191.071          33.000  
J 3  37642176.290 2 197810953.74421      -643.279          36.000  
> 2021  5 17  2 38 42.9970000  0 14                     
G 8  20134199.857 4 105805929.194 2     -1801.723          33.000  
G 7  19888616.333 4 104515377.502 2      2247.583          36.000  
G21  19492580.592 2 102434193.73611       803.170          36.000  
G 1  20308310.674 9                      3129.150          34.000  
G 4  22797547.205 9                     -2696.267          19.000  
J 2  37415511.652 4 196619840.31412      1304.661          34.000  
G27  22346304.363 8 117430621.52323     -2859.152          33.000  
G16  23340351.558 9                     -1535.614          27.000  
E26  21922898.878 8 115205630.607 3       988.938          32.000  
E 1  24247111.545 4 127419418.829 2      1514.756          33.000  
E13  24369569.992 8 128062971.758 2     -1706.122          32.000  
E18  18629746.713 2  97899979.478 1      2512.157          35.000  
E21  23612861.494 4 124086425.012 2       189.035          33.000  
J 3  37642298.826 2 197811597.705 1      -644.748          35.000  
> 2021  5 17  2 38 43.9970000  0 14                     
G 8  20134543.561 4 105807733.745 2     -1809.220          36.000  
G 7  19888189.266 4 104513133.052 2      2240.796          35.000  
G21  19492427.144 4 102433388.281 2       808.733          35.000  
G 1  20307714.640 9 106717760.67934      3138.493          32.000  
G 4  22798062.571 9                     -2696.267          19.000  
J 2  37415263.353 4 196618535.218 2      1305.678          34.000  
G27  22346848.125 8 117433483.26323     -2865.054          32.000  
G16  23340650.646 9                     -1535.614          24.000  
E26  21922712.379 8 115204639.548 2       992.957          33.000  
E 1  24246818.372 8 127417908.620 3      1505.165          32.000  
E13  24369893.131 8 128064680.376 3     -1711.206          32.000  
E18  18629269.384 2  97897470.089 2      2507.183          35.000  
E21  23612824.600 4 124086236.462 2       187.117          32.000  
J 3  37642421.374 4 197812241.813 2      -644.624          33.000  
> 2021  5 17  2 38 44.9970000  0 15                     
G 8  20134888.277 4 105809545.019 2     -1814.990          33.000  
G 7  19887763.035 4 104510895.314 3      2234.454          32.000  
G21  19492273.150 4 102432578.226 2       811.911          34.000  
G 1  20307114.104 9 106714618.76324      3145.293          31.000  
G 4  22798581.693 9                     -2693.942          24.000  
G 9  22074714.937 9                     -1942.190          25.000  
J 2  37415015.372 4 196617229.980 3      1304.480          30.000  
G27  22347393.754 8 117436351.30824     -2872.866          29.000  
G16  23340946.876 9                     -1535.614          22.000  
E26  21922523.267 8 115203645.050 3       996.110          31.000  
E 1  24246540.041 8 127416407.885 4      1495.817          30.000  
E13  24370222.159 8 128066393.742 3     -1716.499          30.000  
E18  18628792.631 4  97894965.288 2      2501.963          33.000  
E21  23612783.191 8 124086050.081 4       184.035          27.000  
J 3  37642543.260 8                      -645.709          31.000  
> 2021  5 17  2 38 45.9970000  0 14                     
G 8  20135234.703 8 105811362.451 4     -1819.556          31.000  
G 7  19887339.388 8 104508663.196 4      2227.943          26.000  
G21  19492117.778 8 102431764.409 4       814.577          32.000  
G 1  20306514.418 8 106711468.51824      3154.165          31.000  
G 4  22799096.405 9                     -2684.162          25.000  
J 2  37414769.010 4 196615924.796 3      1305.183          29.000  
G27  22347943.261 8 117439225.74025     -2876.748          28.000  
G16  23341238.548 9                     -1535.614          20.000  
E26  21922333.644 8 115202647.607 3       999.147          29.000  
E 1  24246250.420 8 127414915.261 5      1488.625          29.000  
E13  24370546.463 8 128068112.129 4     -1720.160          28.000  
E18  18628316.716 8                      2497.873          31.000  
E21  23612753.141 8 124085866.103 4       183.054          28.000  
J 3  37642664.107 8 197813545.40635      -645.546          30.000  
> 2021  5 17  2 38 46.9970000  0 13                     
G 8  20135578.917 8 105813183.640 5     -1821.837          28.000  
G 7  19886914.514 9                      2225.982          25.000  
G21  19491964.290 8 102430947.055 5       818.771          29.000  
G 4  22799606.213 9                     -2664.511          22.000  
J 2  37414522.312 9                      1306.348          25.000  
G27  22348484.122 9                     -2874.640          24.000  
G16  23341533.178 9                     -1535.614          17.000  
E26  21922142.677 9                      1001.029          26.000  
E 1  24245965.288 9                      1474.603          25.000  
E13  24370868.646 9                     -1695.089          25.000  
E18  18627840.796 9                      2498.469          28.000  
E21  23612721.809 9                       179.138          26.000  
J 3  37642785.704 9                      -644.611          27.000  
> 2021  5 17  2 38 47.9970000  0 14                     
G 8  20135931.045 8                     -1823.391          27.000  
G 7  19886493.497 9                      2224.093          24.000  
G21  19491808.460 8 102430127.396 5       821.894          23.000  
G 1  20305309.948 9                      3160.647          22.000  
G 4  22800113.033 9                     -2666.269          19.000  
J 2  37414267.674 9                      1309.459          23.000  
G27  22349033.424 9                     -2880.624          22.000  
G16  23341825.787 9                     -1535.614          13.000  
E26  21921951.009 9                      1002.374          24.000  
E 1  24245685.133 9                      1480.579          23.000  
E13  24371196.963 9                     -1729.117          23.000  
E18  18627362.346 9                      2496.934          26.000  
E21  23612679.292 9                       182.739          25.000  
J 3  37642910.879 9                      -644.398          26.000  
> 2021  5 17  2 38 48.9970000  0 14                     
G 8  20136273.684 8 105816856.01835     -1825.694          27.000  
G 7  19886070.870 9                      2218.440          25.000  
G21  19491648.995 9                       823.706          25.000  
G 1  20304706.253 9 106701951.38835      3163.256          25.000  
G 4  22800621.349 9                     -2666.269          15.000  
J 2  37414016.364 9                      1304.461          23.000  
G27  22349576.401 9                     -2882.771          20.000  
G16  23342118.584 9                     -1535.614          13.000  
E26  21921760.147 9                      1005.028          25.000  
E 1  24245409.211 9                      1478.743          22.000  
E13  24371527.156 9                     -1719.079          22.000  
E18  18626887.098 9                      2492.974          27.000  
E21  23612647.751 9                       184.135          25.000  
J 3  37643032.136 9                      -644.281          26.000  
> 2021  5 17  2 38 49.9970000  0 14                     
G 8  20136624.355 8                     -1822.189          26.000  
G 7  19885642.965 9                      2219.639          24.000  
G21  19491492.964 9                       823.570          26.000  
G 1  20304104.971 9 106698787.46125      3163.278          25.000  
G 4  22801129.661 9                     -2666.269          13.000  
J 2  37413763.746 9                      1313.392          22.000  
G27  22350122.484 9                     -2882.771          17.000  
G16  23342411.321 9                     -1535.614          10.000  
E26  21921569.926 9                      1005.233          23.000  
E 1  24245127.424 9                      1470.396          22.000  
E13  24371853.741 9                     -1713.653          19.000  
E18  18626413.512 9                      2491.701          26.000  
E21  23612607.148 9                       190.733          22.000  
J 3  37643153.346 9                      -641.277          25.000  
> 2021  5 17  2 38 50.9970000  0 12                     
G 8  20136971.248 9                     -1821.358          24.000  
G 7  19885221.114 9                      2218.420          25.000  
G21  19491334.756 8 102427662.20334       824.678          27.000  
G 1  20303502.393 9                      3166.373          24.000  
J 2  37413516.712 9                      1310.736          22.000  
G27  22350671.895 9                     -2882.771          14.000  
E26  21921377.324 9                      1004.882          25.000  
E 1  24244846.598 9                      1475.957          21.000  
E13  24372181.893 9                     -1713.653          17.000  
E18  18625939.883 8  97879984.92815      2490.618          27.000  
E21  23612577.191 9                       185.586          20.000  
J 3  37643276.876 9                      -638.928          25.000  
