     3.03           OBSERVATION DATA    M: Mixed            RINEX VERSION / TYPE
RTKCONV demo5 b33c                      20210520 090207 UTC PGM / RUN BY / DATE 
log: C:\Users\Ivan_PolyU_Dktp\Dropbox\HUAWEI Exp\20210517_  COMMENT             
format: RINEX                                               COMMENT             
Geo++                                                       MARKER NAME         
                                                            MARKER NUMBER       
                                                            MARKER TYPE         
                                                            OBSERVER / AGENCY   
unknown             HUAWEI              ELS-AN00            REC # / TYPE / VERS 
unknown             ELS-AN00                                ANT # / TYPE        
 -2419228.7295  5385470.1789  2405343.7143                  APPROX POSITION XYZ 
        0.0000        0.0000        0.0000                  ANTENNA: DELTA H/E/N
G    8 C1C L1C D1C S1C C5Q L5Q D5Q S5Q                      SYS / # / OBS TYPES 
R    4 C1C L1C D1C S1C                                      SYS / # / OBS TYPES 
E    4 C5Q L5Q D5Q S5Q                                      SYS / # / OBS TYPES 
J    8 C1C L1C D1C S1C C5Q L5Q D5Q S5Q                      SYS / # / OBS TYPES 
C    4 C2I L2I D2I S2I                                      SYS / # / OBS TYPES 
  2021     5    17     2    33   12.9992448     GPS         TIME OF FIRST OBS   
  2021     5    17     2    46   18.9987748     GPS         TIME OF LAST OBS    
G                                                           SYS / PHASE SHIFT   
R                                                           SYS / PHASE SHIFT   
E                                                           SYS / PHASE SHIFT   
J                                                           SYS / PHASE SHIFT   
C                                                           SYS / PHASE SHIFT   
  3 R01  1 R09 -2 R17  4                                    GLONASS SLOT / FRQ #
 C1C    0.000 C1P    0.000 C2C    0.000 C2P    0.000        GLONASS COD/PHS/BIS 
                                                            END OF HEADER       
> 2021  5 17  2 33 12.9992448  0  5                     
C 7  36822290.759 1 191743267.320 1      -799.275          25.000  
C27  21620283.189 1 112582476.570 1     -2082.614          33.000  
G 8  21048938.423 1 110612951.824 1     -2910.752          27.000                                                                  
G21  20575912.992 1 108127109.600 1      -156.431          26.000                                                                  
G27  23191278.112 1 121871070.398 1     -4036.570          12.000                                                                  
> 2021  5 17  2 33 13.9992440  0  7                     
C 7  36822205.018 1 191742818.718 1      -799.616          25.000  
C27  21620442.379 1 112583310.698 1     -2082.715          32.000  
C37  22953684.495 1 119525830.05511     -2112.456          22.000  
G 8  21049254.704 1 110614601.787 1     -2910.172          27.000                                                                  
G16  24269237.956 1 127535624.32411     -2715.986          21.000                                                                  
G21  20575708.234 1 108126005.853 1      -156.862          26.000                                                                  
G27  23191804.848 1 121873845.796 1     -4037.151          11.000                                                                  
> 2021  5 17  2 33 14.9992433  0  4                     
C 7  36822148.957 1 191742525.631 1      -798.612          25.000  
C27  21620628.550 1 112584300.778 1     -2082.993          33.000  
G16  24269543.744 1 127537236.864 1     -2714.968          21.000                                                                  
G21  20575528.658 1 108125059.919 1      -157.131          27.000                                                                  
> 2021  5 17  2 33 15.9992428  0  4                     
C 7  36822151.955 1 191742543.216 1      -797.775          26.000  
C27  21620877.678 1 112585603.265 1     -2082.621          33.000  
G 8  21049999.089 1 110618532.44311     -2910.920          27.000                                                                  
G21  20575407.842 1 108124429.261 1      -157.055          27.000                                                                  
> 2021  5 17  2 33 16.9992420  0  4                     
C 7  36822065.015 1 191742092.808 1      -798.657          25.000  
C27  21621041.664 1 112586437.609 1     -2082.937          33.000  
G 8  21050312.672 1 110620182.217 1     -2909.906          27.000                                                                  
G21  20575198.586 1 108123326.159 1      -157.487          26.000                                                                  
> 2021  5 17  2 33 17.9992415  0  6                     
C 7  36822067.713 1 191742109.851 1      -797.108          26.000  
C27  21621295.289 1 112587740.312 1     -2082.533          33.000  
C37  22954552.394 1 119530382.05611     -2114.104          20.000  
G 1  21532894.287 1 113156118.22611      2102.346          17.000                                                                  
G 8  21050715.593 1 110622304.498 1     -2910.323          26.000                                                                  
G21  20575078.969 1 108122696.199 1      -158.073          26.000                                                                  
> 2021  5 17  2 33 18.9992410  0  5                     
C 7  36822072.210 1 191742126.518 1      -797.104          26.000  
C27  21621545.016 1 112589043.206 1     -2082.654          33.000  
G 1  21532343.569 1 113153226.956 1      2103.351          16.000                                                                  
G 8  21051118.814 1 110624426.833 1     -2909.995          25.000                                                                  
G21  20574956.354 1 108122066.894 1      -158.122          25.000                                                                  
> 2021  5 17  2 33 19.9992402  0  5                     
C 7  36821986.769 1 191741675.051 1      -798.885          25.000  
C27  21621703.606 1 112589877.956 1     -2083.889          32.000  
C37  22954970.305 1 119532576.44911     -2109.745          20.000  
G 8  21051430.298 1 110626076.543 1     -2909.413          25.000                                                                  
G21  20574745.600 1 108120965.106 1      -158.932          26.000                                                                  
> 2021  5 17  2 33 20.9992394  0  7                     
C 7  36821901.028 1 191741225.597 1      -798.836          24.000  
C27  21621865.794 1 112590713.096 1     -2083.624          32.000  
C37  22955133.092 1 119533437.559 1     -2109.283          20.000  
G 1  21531066.453 1 113146497.84211      2107.011          13.000                                                                  
G 8  21051742.982 1 110627725.960 1     -2909.767          25.000                                                                  
G16  24271465.414 1 127547383.52011     -2714.026          16.000                                                                  
G21  20574535.745 1 108119864.253 1      -159.130          26.000                                                                  
> 2021  5 17  2 33 21.9992389  0  6                     
C 7  36821903.127 1 191741243.630 1      -797.965          23.000  
C27  21622116.720 1 112592017.767 1     -2087.765          33.000  
G 1  21530519.631 1 113143605.766 1      2101.874          16.000                                                                  
G 8  21052149.200 1 110629849.906 1     -2913.213          25.000                                                                  
G16  24271829.662 1 127549311.539 1     -2717.293          17.000                                                                  
G21  20574416.428 1 108119235.765 1      -158.670          29.000                                                                  
> 2021  5 17  2 33 22.9992381  0  5                     
C27  21622281.006 1 112592856.026 1     -2087.001          32.000  
G 1  21529884.371 1 113140244.991 1      2099.272          29.000                                                                  
G 8  21052464.582 1 110631502.992 1     -2913.473          24.000                                                                  
G16  24272105.771 1 127550768.977 1     -2721.018          18.000                                                                  
G21  20574208.072 1 108118134.011 1      -158.637          27.000                                                                  
> 2021  5 17  2 33 23.9992376  0  5                     
C 7  36821817.686 1 191740810.87911      -799.789          21.000  
C27  21622528.335 1 112594164.609 1     -2089.497          34.000  
G 1  21529336.051 1 113137357.784 1      2099.229          31.000                                                                  
G16  24272474.216 1 127552703.447 1     -2725.406          19.000                                                                  
G21  20574087.855 1 108117505.329 1      -159.626          29.000                                                                  
> 2021  5 17  2 33 24.9992371  0  6                     
C27  21622779.861 1 112595474.526 1     -2089.676          38.000  
C37  22956070.843 1 119538310.00511     -2122.644          20.000  
G 1  21528790.429 1 113134470.786 1      2099.537          25.000                                                                  
G 8  21053283.315 1 110635756.25511     -2912.342          17.000                                                                  
G16  24272843.860 1 127554644.097 1     -2732.228          24.000                                                                  
G21  20573967.938 1 108116877.231 1      -159.755          26.000                                                                  
> 2021  5 17  2 33 25.9992364  0  5                     
C 7  36821772.118 1 191740541.00011      -801.566          16.000  
C27  21622972.328 1 112596472.287 1     -2089.979          38.000  
G 1  21528182.749 1 113131267.850 1      2100.695          20.000                                                                  
G16  24273155.044 1 127556275.166 1     -2735.410          29.000                                                                  
G21  20573788.363 1 108115935.235 1      -160.919          25.000                                                                  
> 2021  5 17  2 33 26.9992356  0  6                     
C 7  36821684.878 1 191740091.872 1      -797.951          15.000  
C27  21623131.518 1 112597314.039 1     -2089.640          37.000  
C37  22956438.688 1 119540215.11111     -2120.681          19.000  
G 1  21527545.690 1 113127906.264 1      2101.224          22.000                                                                  
G16  24273436.550 1 127557750.484 1     -2736.211          29.000                                                                  
G21  20573581.506 1 108114835.230 1      -160.451          21.000                                                                  
> 2021  5 17  2 33 27.9992351  0  6                     
C 7  36821687.276 1 191740110.065 1      -798.460          14.000  
C27  21623384.842 1 112598625.989 1     -2095.049          32.000  
C30  22527089.421 1 117304469.91911       769.723          24.000  
G 1  21526997.969 1 113125016.988 1      2101.957          21.000                                                                  
G 8  21054360.170 1 110641325.45411     -2901.702          19.000                                                                  
G21  20573467.285 1 108114207.094 1      -159.826          20.000                                                                  
> 2021  5 17  2 33 28.9992346  0  3                     
C27  21623633.970 1 112599935.363 1     -2088.691          15.000  
G 1  21526450.249 1 113122126.346 1      2104.328          25.000                                                                  
G 8  21054768.787 1 110643437.119 1     -2898.161          20.000                                                                  
> 2021  5 17  2 33 29.9992340  0  4                     
C37  22957181.574 1 119544051.37311     -2103.094          18.000  
G 1  21525873.148 1 113119073.734 1      2109.625          25.000                                                                  
G 8  21055142.628 1 110645386.299 1     -2894.077          23.000                                                                  
G16  24274508.008 1 127563412.98611     -2711.422          20.000                                                                  
> 2021  5 17  2 33 30.9992333  0  7                     
C 7  36821607.232 1 191739681.72911      -788.952          24.000  
C27  21624044.985 1 112602079.20211     -2086.407          29.000  
C37  22957374.640 1 119545059.780 1     -2100.821          20.000  
G 1  21525263.070 1 113115860.718 1      2110.646          30.000                                                                  
G 8  21055485.591 1 110647177.830 1     -2894.981          26.000                                                                  
G16  24274814.995 1 127565021.169 1     -2710.893          19.000                                                                  
G21  20573007.703 1 108111831.17311      -148.968          28.000                                                                  
> 2021  5 17  2 33 31.9992325  0  7                     
C 7  36821520.592 1 191739223.377 1      -793.395          26.000  
C27  21624205.074 1 112602916.746 1     -2086.639          28.000  
C37  22957541.025 1 119545914.107 1     -2106.621          25.000  
G 1  21524621.515 1 113112489.051 1      2111.343          26.000                                                                  
G 8  21055802.771 1 110648814.167 1     -2897.197          26.000                                                                  
G21  20572795.150 1 108110718.222 1      -146.705          30.000                                                                  
J 3  38630336.974 1 203003790.10711     -1815.837          33.000                                                                  
> 2021  5 17  2 33 32.9992320  0  7                     
C 7  36821524.789 1 191739238.275 1      -796.222          28.000  
C27  21624456.300 1 112604222.772 1     -2086.902          23.000  
G 1  21524064.800 1 113109587.396 1      2116.494          25.000                                                                  
G 8  21056209.889 1 110650923.987 1     -2902.799          28.000                                                                  
G16  24275454.453 1 127568381.77711     -2695.676          18.000                                                                  
G21  20572671.936 1 108110076.140 1      -145.222          31.000                                                                  
J 3  38630529.741 1 203004818.261 1     -1816.534          35.000                                                                  
> 2021  5 17  2 33 33.9992312  0  6                     
C 7  36821440.847 1 191738786.093 1      -797.427          27.000  
G 1  21523417.248 1 113106208.938 1      2120.303          24.000                                                                  
G 8  21056526.170 1 110652569.004 1     -2913.601          31.000                                                                  
G16  24275730.861 1 127569816.430 1     -2694.256          17.000                                                                  
G21  20572455.485 1 108108960.461 1      -144.616          28.000                                                                  
J 3  38630634.668 1 203005375.157 1     -1817.958          34.000                                                                  
> 2021  5 17  2 33 34.9992307  0  7                     
C 7  36821448.342 1 191738805.636 1      -802.127          26.000  
C27  21624873.312 1 112606368.97111     -2090.324          20.000  
G 1  21522864.131 1 113103300.881 1      2120.995          28.000                                                                  
G 8  21056938.685 1 110654700.472 1     -2924.274          31.000                                                                  
G16  24276093.011 1 127571722.214 1     -2693.625          14.000                                                                  
G21  20572331.671 1 108108316.751 1      -143.365          25.000                                                                  
J 3  38630833.730 1 203006405.215 1     -1818.318          32.000                                                                  
> 2021  5 17  2 33 35.9992302  0  7                     
C 7  36821455.237 1 191738829.532 1      -805.191          27.000  
C27  21625126.037 1 112607679.156 1     -2091.364          22.000  
C30  22524478.528 1 117290731.98511       765.149          16.000  
G 1  21522310.115 1 113100391.872 1      2121.953          25.000                                                                  
G 8  21057345.803 1 110656839.133 1     -2928.038          29.000                                                                  
G16  24276463.254 1 127573624.158 1     -2686.303          11.000                                                                  
G21  20572207.857 1 108107671.894 1      -142.364          27.000                                                                  
> 2021  5 17  2 33 36.9992294  0  6                     
C 7  36821370.695 1 191738386.017 1      -804.750          29.000  
C27  21625290.023 1 112608522.209 1     -2093.156          25.000  
C30  22524092.395 1 117288718.855 1       761.807          28.000  
G 8  21057665.082 1 110658776.067 1     -2927.774          21.000                                                                  
G16  24276741.162 1 127575049.667 1     -2685.336          10.000                                                                  
G21  20571992.606 1 108106553.112 1      -140.952          29.000                                                                  
> 2021  5 17  2 33 37.9992287  0  5                     
C 7  36821314.634 1 191738098.364 1      -804.954          30.000  
C27  21625481.890 1 112609521.768 1     -2091.884          27.000  
G 1  21521051.886 1 113093783.02811      2124.184          22.000                                                                  
G 7  21050488.650 1 110621063.73511      1196.824          25.000                                                                  
G21  20571809.433 1 108105590.943 1      -140.477          30.000                                                                  
> 2021  5 17  2 33 38.9992282  0  6                     
C 7  36821320.031 1 191738123.960 1      -806.597          17.000  
C27  21625728.620 1 112610831.222 1     -2087.479          18.000  
G 1  21520495.771 1 113090869.724 1      2126.786          26.000                                                                  
G 7  21050116.907 1 110619079.746 1      1195.078          25.000                                                                  
G 8  21058411.565 1 110662738.44411     -2923.066          17.000                                                                  
G21  20571686.818 1 108104943.360 1      -139.945          28.000                                                                  
> 2021  5 17  2 33 39.9992276  0  4                     
C 7  36821295.747 1 191737993.143 1      -803.182          25.000  
G 1  21519906.679 1 113087796.309 1      2128.290          26.000                                                                  
G 7  21049710.089 1 110616939.802 1      1194.113          27.000                                                                  
G21  20571533.624 1 108104137.980 1      -139.858          29.000                                                                  
> 2021  5 17  2 33 40.9992269  0  6                     
C 7  36821242.384 1 191737703.517 1      -804.662          25.000  
C27  21626146.530 1 112612976.26811     -2087.693          20.000  
G 1  21519290.605 1 113084566.019 1      2120.053          26.000                                                                  
G 7  21049274.790 1 110614643.156 1      1193.549          26.000                                                                  
G 8  21059129.868 1 110666542.72911     -2927.337          30.000                                                                  
G21  20571348.652 1 108103174.879 1      -140.007          28.000                                                                  
> 2021  5 17  2 33 41.9992264  0  6                     
C 7  36821248.680 1 191737728.322 1      -805.599          31.000  
C27  21626399.855 1 112614283.454 1     -2088.369          20.000  
C30  22522502.296 1 117280579.05611       756.875          24.000  
G 7  21048897.352 1 110612661.527 1      1193.951          24.000                                                                  
G 8  21059538.185 1 110668682.517 1     -2927.896          32.000                                                                  
G21  20571223.638 1 108102527.828 1      -141.691          30.000                                                                  
> 2021  5 17  2 33 42.9992256  0  6                     
C 7  36821165.038 1 191737284.813 1      -806.174          32.000  
C27  21626563.841 1 112615124.471 1     -2091.336          26.000  
C30  22522118.562 1 117278570.260 1       758.826          21.000  
G 7  21048431.774 1 110610206.887 1      1194.561          28.000                                                                  
G 8  21059855.066 1 110670349.754 1     -2927.615          24.000                                                                  
G21  20571008.987 1 108101409.428 1      -142.693          28.000                                                                  
> 2021  5 17  2 33 43.9992251  0  8                     
C 7  36821170.434 1 191737309.798 1      -805.134          31.000  
C27  21626815.067 1 112616435.895 1     -2091.286          21.000  
G 1  21517562.302 1 113075400.13311      2108.340          21.000                                                                  
G 7  21048055.534 1 110608224.562 1      1194.617          24.000                                                                  
G 8  21060263.983 1 110672489.500 1     -2927.324          23.000                                                                  
G21  20570888.170 1 108100764.843 1      -143.981          31.000                                                                  
J 2  38516032.705 1 202403117.85411       128.258          31.000                                                                  
J 3  38632263.441 1 203013901.91211     -1813.996          33.000                                                                  
> 2021  5 17  2 33 44.9992243  0  6                     
C 7  36821084.394 1 191736864.708 1      -802.153          31.000  
C27  21626979.054 1 112617276.431 1     -2089.657          23.000  
G 7  21047588.758 1 110605768.448 1      1196.764          28.000                                                                  
G 8  21060582.662 1 110674155.725 1     -2925.438          22.000                                                                  
G21  20570674.718 1 108099649.217 1      -146.496          29.000                                                                  
J 3  38632368.967 1                     -1816.267          36.000                                                                  
> 2021  5 17  2 33 45.9992238  0  5                     
C 7  36821088.291 1 191736883.646 1      -796.739          25.000  
C10  37348894.498 1 194485494.61111      -921.142          24.000  
G 7  21047211.918 1 110603780.823 1      1203.890          29.000                                                                  
G 8  21060989.480 1 110676284.495 1     -2914.070          24.000                                                                  
G21  20570553.302 1 108099010.507 1      -151.878          26.000                                                                  
> 2021  5 17  2 33 46.9992233  0  7                     
C 7  36821092.488 1 191736898.409 1      -793.898          29.000  
C10  37348920.880 1 194485631.441 1      -913.423          25.000  
G 7  21046833.281 1 110601786.709 1      1210.572          26.000                                                                  
G 8  21061393.601 1 110678410.987 1     -2914.005          30.000                                                                  
G21  20570433.985 1 108098377.981 1      -158.493          30.000                                                                  
J 2  38515428.024 1 202399901.59911       125.924          25.000                                                                  
J 3  38632761.696 1 203016526.74211     -1819.655          26.000                                                                  
> 2021  5 17  2 33 47.9992225  0  5                     
C 7  36821004.649 1 191736441.674 1      -789.996          32.000  
C10  37348853.127 1 194485289.712 1      -902.588          24.000  
G 7  21046359.608 1 110599312.493 1      1218.201          24.000                                                                  
G21  20570227.128 1 108097280.712 1      -166.616          31.000                                                                  
J 2  38515166.305 1 202398516.716 1       121.738          19.000                                                                  
> 2021  5 17  2 33 48.9992218  0  7                     
C 7  36820947.089 1 191736137.420 1      -787.460          35.000  
C10  37348815.953 1 194485093.483 1      -892.987          24.000  
G 1  21514535.597 1 113059659.48011      2090.027          28.000                                                                  
G 7  21045919.513 1 110596988.392 1      1224.680          27.000                                                                  
G 8  21062048.647 1 110681869.66411     -2908.041          36.000                                                                  
G21  20570051.450 1 108096348.053 1      -172.032          32.000                                                                  
J 2  38514934.865 1 202397292.258 1       121.412          19.000                                                                  
> 2021  5 17  2 33 49.9992212  0  7                     
C 7  36820917.709 1                      -788.075          34.000  
C10  37348808.158 1 194485045.941 1      -887.917          24.000  
G 1  21513957.297 1 113056624.937 1      2087.709          30.000                                                                  
G 7  21045507.598 1 110594817.035 1      1227.660          27.000                                                                  
G 8  21062420.989 1 110683832.952 1     -2909.647          36.000                                                                  
G21  20569906.950 1 108095576.412 1      -174.549          32.000                                                                  
J 2  38514736.403 1 202396226.155 1       119.980          20.000                                                                  
> 2021  5 17  2 33 50.9992207  0  7                     
C 7  36820920.407 1                      -788.967          34.000  
C10  37348832.142 1 194485154.067 1      -890.920          24.000  
G 1  21513408.677 1 113053749.277 1      2087.940          28.000                                                                  
G 7  21045126.262 1 110592802.210 1      1226.854          22.000                                                                  
G 8  21062826.009 1                     -2910.048          35.000                                                                  
G21  20569789.431 1 108094959.119 1      -169.493          32.000                                                                  
J 2  38514566.720 1 202395319.656 1       117.983          21.000                                                                  
> 2021  5 17  2 33 51.9992200  0 11                     
C 7  36820862.547 1 191735883.66211      -787.765          35.000  
C 8  38526964.338 1 200620013.44411       757.596          26.000  
C10  37348791.969 1 194484953.238 1      -893.046          24.000  
C16  38100494.576 1 198399273.40511     -2589.110          30.000  
C27  21628505.597 1                     -2090.046          35.000  
C30  22519102.350 1 117263077.08711       748.723          31.000  
C37  22961831.955 1 119568421.79811     -2120.028          27.000  
G 7  21044686.767 1 110590474.132 1      1224.241          23.000                                                                  
G 8  21063171.670 1 110687704.39511     -2910.120          35.000                                                                  
G21  20569612.554 1                      -171.021          32.000                                                                  
J 2  38514334.981 1 202394097.130 1       119.922          21.000                                                                  
> 2021  5 17  2 33 52.9992195  0 11                     
C 7  36820861.948 1 191735890.724 1      -787.231          35.000  
C 8  38526669.642 1 200618474.675 1       758.628          27.000  
C10  37348814.454 1 194485065.426 1      -893.007          25.000  
C16  38100842.036 1 198401081.616 1     -2588.679          31.000  
C27  21628755.324 1 112626613.48711     -2091.786          34.000  
C30  22518804.956 1 117261548.223 1       748.662          31.000  
C37  22962090.376 1 119569761.216 1     -2119.907          29.000  
G 1  21512252.977 1 113047679.89311      2090.590          29.000                                                                  
G 8  21063574.891 1 110689826.891 1     -2910.956          35.000                                                                  
G21  20569495.634 1 108093426.67711      -174.654          30.000                                                                  
J 3  38633724.029 1 203021450.72611     -1814.377          22.000                                                                  
> 2021  5 17  2 33 53.9992187  0 11                     
C 7  36820773.509 1 191735429.202 1      -788.336          34.000  
C 8  38526284.708 1 200616466.414 1       759.707          27.000  
C10  37348745.801 1 194484709.333 1      -893.008          25.000  
C16  38101098.958 1 198402421.323 1     -2588.614          31.000  
C27  21628920.810 1 112627454.944 1     -2091.243          35.000  
C30  22518419.123 1 117259550.715 1       748.571          30.000  
C37  22962259.459 1 119570632.037 1     -2119.843          29.000  
G 1  21511615.618 1 113044328.276 1      2092.065          29.000                                                                  
G 8  21063888.174 1 110691476.781 1     -2909.782          35.000                                                                  
G21  20569283.381 1 108092338.302 1      -173.226          30.000                                                                  
J 2  38513903.879 1 202391810.09311       119.360          21.000                                                                  
> 2021  5 17  2 33 54.9992182  0 11                     
C 7  36820773.509 1 191735435.656 1      -786.997          35.000  
C 8  38525988.213 1 200614925.459 1       760.763          27.000  
C10  37348767.986 1 194484821.984 1      -893.105          26.000  
C27  21629170.237 1 112628764.871 1     -2089.806          35.000  
C30  22518126.226 1 117258021.762 1       748.189          30.000  
C37  22962518.779 1 119571970.771 1     -2119.423          31.000  
G 1  21511066.399 1 113041448.359 1      2091.663          28.000                                                                  
G 7  21043449.823 1 110583973.62811      1218.556          23.000                                                                  
G 8  21064292.594 1 110693599.298 1     -2909.594          34.000                                                                  
G21  20569171.859 1 108091722.776 1      -172.965          30.000                                                                  
J 3  38634029.218 1 203023032.14211     -1815.845          22.000                                                                  
> 2021  5 17  2 33 55.9992174  0 11                     
C 7  36820688.967 1 191734973.592 1      -786.329          35.000  
C 8  38525600.282 1 200612914.735 1       762.611          27.000  
C10  37348699.034 1 194484466.395 1      -892.748          26.000  
C16  38101698.243 1 198405569.18811     -2588.698          32.000  
C27  21629330.326 1 112629606.767 1     -2091.434          35.000  
C30  22517743.091 1 117256024.803 1       747.771          31.000  
C37  22962688.761 1 119572841.576 1     -2119.976          32.000  
G 1  21510428.740 1 113038096.535 1      2091.176          28.000                                                                  
G 8  21064608.275 1 110695249.276 1     -2909.860          34.000                                                                  
G21  20568970.098 1 108090635.271 1      -172.536          30.000                                                                  
J 2  38513479.973 1 202389526.50911       119.245          20.000                                                                  
> 2021  5 17  2 33 56.9992169  0 14                     
C 7  36820690.167 1 191734979.470 1      -785.336          35.000  
C 8  38525303.188 1 200611371.424 1       762.242          27.000  
C10  37348720.619 1 194484579.771 1      -895.364          26.000  
C16  38102046.302 1                     -2588.063          31.000  
C27  21629580.953 1 112630917.146 1     -2090.663          34.000  
C30  22517451.693 1 117254496.895 1       746.713          31.000  
C37  22962952.279 1 119574179.899 1     -2118.206          32.000  
G 1  21509879.520 1 113035217.470 1      2091.633          30.000                                                                  
G 4  23678787.417 1 124432867.32811     -3853.836          30.000                                                                  
G 7  21042600.511 1 110579491.65211      1216.923          23.000                                                                  
G 8  21065015.393 1 110697371.839 1     -2909.304          34.000                                                                  
G21  20568848.982 1 108090020.658 1      -174.516          31.000                                                                  
J 1  37357750.667 1 196316303.86511     -1354.833          25.000                                                                  
J 2  38513312.988 1 202388620.825 1       116.694          19.000                                                                  
> 2021  5 17  2 33 57.9992164  0 13                     
C 7  36820688.668 1 191734985.187 1      -785.941          34.000  
C 8  38525005.194 1 200609828.387 1       762.252          27.000  
C10  37348743.703 1 194484694.830 1      -895.584          24.000  
C16  38102397.659 1 198409160.76711     -2588.470          31.000  
C27  21629833.078 1 112632227.863 1     -2089.975          35.000  
C30  22517159.095 1 117252968.420 1       747.306          30.000  
C37  22963212.499 1 119575518.529 1     -2119.538          32.000  
G 1  21509332.399 1 113032337.926 1      2091.814          28.000                                                                  
G 4  23679382.804 1 124435933.453 1     -3853.811          29.000                                                                  
G 7  21042218.875 1 110577487.152 1      1216.467          24.000                                                                  
G 8  21065420.713 1 110699494.520 1     -2910.777          33.000                                                                  
G21  20568736.860 1 108089406.623 1      -175.605          30.000                                                                  
J 1  37357858.293 1 196316871.923 1     -1355.992          23.000                                                                  
> 2021  5 17  2 33 58.9992156  0 12                     
C 7  36820601.728 1 191734522.381 1      -785.821          34.000  
C 8  38524618.162 1 200607817.384 1       761.627          27.000  
C10  37348676.249 1 194484341.031 1      -894.323          26.000  
C16  38102655.181 1 198410500.341 1     -2589.041          31.000  
C27  21629998.564 1 112633070.484 1     -2092.413          34.000  
C30  22516776.860 1 117250971.862 1       747.653          30.000  
C37  22963379.183 1 119576388.878 1     -2119.247          31.000  
G 1  21508695.340 1 113028985.483 1      2092.654          28.000                                                                  
G 8  21065730.698 1 110701144.720 1     -2912.648          33.000                                                                  
G21  20568520.709 1 108088320.454 1      -175.185          29.000                                                                  
G27  23218147.011 1 122012185.89311     -4049.741          23.000                                                                  
J 1  37357877.480 1 196316967.731 1     -1354.947          23.000                                                                  
> 2021  5 17  2 33 59.9992148  0 14                     
C 4  38345408.526 1 199674604.15611      -967.718          29.000  
C 7  36820511.490 1 191734059.339 1      -786.433          35.000  
C 8  38524232.029 1 200605805.921 1       762.855          28.000  
C10  37348608.197 1 194483986.384 1      -895.254          26.000  
C16  38102913.302 1 198411839.797 1     -2588.232          32.000  
C27  21630160.751 1 112633913.423 1     -2092.310          35.000  
C30  22516395.524 1 117248975.913 1       746.415          31.000  
C37  22963545.568 1 119577259.332 1     -2120.202          32.000  
G 1  21508056.482 1 113025632.654 1      2091.565          29.000                                                                  
G 4  23680373.618 1 124441119.99011     -3852.634          29.000                                                                  
G 7  21041272.730 1 110572531.27211      1217.430          24.000                                                                  
G 8  21066044.581 1 110702794.977 1     -2910.311          34.000                                                                  
G21  20568316.551 1 108087234.710 1      -174.283          29.000                                                                  
J 1  37357897.865 1 196317061.310 1     -1352.848          24.000                                                                  
> 2021  5 17  2 34  0.9992143  0 12                     
C 7  36820511.790 1 191734064.354 1      -785.815          35.000  
C 8  38523934.335 1 200604262.131 1       763.440          28.000  
C10  37348630.081 1 194484100.648 1      -894.568          26.000  
C16  38103261.061 1 198413647.429 1     -2588.895          32.000  
C27  21630408.380 1 112635224.970 1     -2091.471          35.000  
C30  22516104.425 1 117247449.092 1       745.841          32.000  
C37  22963800.692 1 119578598.977 1     -2120.290          32.000  
G 1  21507508.462 1 113022753.847 1      2090.326          30.000                                                                  
G 7  21040890.495 1 110570526.536 1      1216.730          25.000                                                                  
G 8  21066448.401 1 110704917.897 1     -2911.635          34.000    21066435.210 1  82669215.81511     -2174.690          26.000  
G21  20568196.934 1 108086622.124 1      -175.975          31.000                                                                  
J 1  37358004.891 1 196317626.025 1     -1352.946          23.000                                                                  
> 2021  5 17  2 34  1.9992136  0 13                     
C 7  36820453.630 1 191733756.998 1      -785.650          35.000  
C 8  38523577.282 1 200602405.808 1       763.671          28.000  
C10  37348592.907 1 194483901.192 1      -892.113          26.000  
C16  38103544.665 1 198415142.878 1     -2587.796          32.000  
C27  21630602.046 1 112636224.531 1     -2091.353          34.000  
C30  22515753.368 1 117245610.240 1       745.829          31.000  
C37  22963996.156 1                     -2119.665          32.000  
G 4  23681476.855 1 124446935.87711     -3853.743          31.000                                                                  
G 7  21040450.699 1 110568207.136 1      1216.851          25.000                                                                  
G 8  21066788.666 1 110706725.906 1     -2911.030          34.000    21066779.672 1  82670567.121 1     -2175.362          25.000  
G21  20568026.651 1 108085694.937 1      -176.313          31.000                                                                  
G22  24954663.646 1                       622.225          25.000                                                                  
J 1  37358053.158 1 196317876.231 1     -1352.550          26.000                                                                  
> 2021  5 17  2 34  2.9992133  0 15                     
C 4  38345513.453 1 199675159.94211      -963.683          29.000  
C 7  36820514.188 1 191734073.793 1      -784.726          36.000  
C 8  38523341.346 1 200601173.348 1       764.283          28.000  
C10  37348673.851 1 194484325.485 1      -892.544          26.000  
C16  38103955.980 1 198417262.551 1     -2586.411          33.000  
C27  21630917.128 1 112637848.858 1     -2093.768          34.000  
C30  22515520.430 1 117244396.314 1       745.501          31.000  
C37  22964302.844 1 119581206.02811     -2122.068          31.000  
G 1  21506415.119 1 113016998.02211      2089.753          30.000                                                                  
G 7  21040128.422 1 110566517.284 1      1217.457          24.000                                                                  
G 8  21067253.644 1 110709164.161 1     -2910.707          34.000    21067243.451 1  82672388.664 1     -2173.178          24.000  
G21  20567973.888 1 108085398.335 1      -175.482          31.000                                                                  
G22  24954573.708 1                       622.225          23.000                                                                  
G27  23220539.955 1 122024764.25611     -4048.859          24.000                                                                  
J 1  37358221.941 1 196318756.303 1     -1352.331          25.000                                                                  
> 2021  5 17  2 34  3.9992125  0 15                     
C 7  36820423.651 1 191733609.753 1      -785.801          36.000  
C 8  38522954.913 1 200599160.631 1       762.951          28.000  
C10  37348606.698 1 194483968.906 1      -892.089          27.000  
C16  38104216.800 1 198418601.486 1     -2587.029          32.000  
C27  21631079.016 1 112638692.809 1     -2093.650          34.000  
C30  22515138.494 1                       746.178          31.000  
C37  22964468.329 1 119582077.613 1     -2120.504          30.000  
G 1  21505778.060 1 113013647.884 1      2089.861          30.000                                                                  
G 4  23682594.181 1 124452908.54811     -3852.721          30.000                                                                  
G 7  21039656.549 1 110564039.415 1      1217.563          25.000                                                                  
G 8  21067569.025 1 110710814.676 1     -2911.565          34.000    21067557.633 1  82673620.515 1     -2172.758          24.000  
G21  20567767.631 1 108084314.477 1      -177.078          32.000                                                                  
G22  24954333.874 1                       622.225          22.000                                                                  
G27  23221075.084 1 122027552.484 1     -4048.210          24.000                                                                  
J 1  37358240.228 1 196318847.253 1     -1351.514          25.000                                                                  
> 2021  5 17  2 34  4.9992118  0 12                     
C 7  36820366.391 1 191733301.589 1      -783.710          35.000  
C 8  38522599.060 1 200597304.810 1       763.064          28.000  
C10  37348569.823 1 194483767.916 1      -891.229          24.000  
C16  38104503.701 1 198420096.539 1     -2588.361          32.000  
C27  21631272.981 1 112639693.183 1     -2092.449          33.000  
C30  22514786.538 1 117240396.05211       744.935          31.000  
C37  22964664.993 1 119583105.331 1     -2121.194          29.000  
G 1  21505171.879 1 113010455.066 1      2089.816          31.000                                                                  
G 7  21039216.753 1 110561718.995 1      1217.539          26.000                                                                  
G 8  21067915.286 1 110712622.807 1     -2911.435          36.000    21067901.495 1  82674969.817 1     -2173.306          24.000  
G21  20567592.252 1 108083388.632 1      -177.106          33.000                                                                  
G27  23221639.893 1 122030496.822 1     -4046.252          25.000                                                                  
> 2021  5 17  2 34  5.9992113  0 14                     
C 7  36820369.089 1 191733305.413 1      -784.367          34.000  
C 8  38522302.865 1 200595761.015 1       763.652          27.000  
C10  37348590.509 1 194483878.113 1      -891.687          24.000  
C16  38104849.362 1 198421903.644 1     -2586.533          31.000  
C27  21631525.706 1 112641006.033 1     -2092.723          31.000  
C30  22514489.743 1 117238870.418 1       743.992          30.000  
C37  22964921.616 1 119584446.688 1     -2122.290          28.000  
G 1  21504625.058 1 113007577.586 1      2089.329          32.000                                                                  
G 7  21038837.516 1 110559713.976 1      1217.021          27.000                                                                  
G 8  21068320.305 1 110714746.160 1     -2911.131          35.000    21068305.316 1  82676556.367 1     -2175.086          24.000  
G21  20567476.832 1 108082778.371 1      -177.716          34.000                                                                  
G22  24953491.757 1                       623.636          26.000                                                                  
G27  23222266.459 1 122033755.793 1     -4046.445          25.000                                                                  
J 1  37358393.722 1 196319661.99411     -1352.550          27.000                                                                  
> 2021  5 17  2 34  6.9992105  0 13                     
C 7  36820281.250 1 191732840.829 1      -783.949          34.000  
C 8  38521916.432 1 200593747.956 1       764.143          26.000  
C10  37348520.657 1 194483520.751 1      -892.367          24.000  
C16  38105108.382 1 198423242.504 1     -2586.818          31.000  
C27  21631689.393 1 112641850.901 1     -2093.831          30.000  
C30  22514106.309 1 117236876.817 1       744.168          28.000  
C37  22965089.799 1 119585319.202 1     -2120.953          29.000  
G 7  21038366.842 1 110557236.763 1      1216.278          26.000                                                                  
G 8  21068631.190 1 110716397.104 1     -2911.724          35.000                                                                  
G21  20567267.577 1 108081696.044 1      -177.849          34.000                                                                  
G22  24953132.006 1 131129598.63011       623.508          25.000                                                                  
G27  23222799.790 1 122036542.128 1     -4047.053          26.000                                                                  
J 1  37358412.010 1 196319754.354 1     -1352.548          27.000                                                                  
> 2021  5 17  2 34  7.9992100  0 14                     
C 7  36820281.849 1 191732844.348 1      -784.001          34.000  
C 8  38521620.237 1 200592203.518 1       763.511          27.000  
C10  37348544.341 1 194483632.341 1      -892.463          25.000  
C16  38105452.544 1 198425049.558 1     -2586.933          31.000  
C27  21631940.919 1 112643164.486 1     -2094.750          30.000  
C30  22513811.613 1 117235351.885 1       744.581          29.000  
C37  22965349.419 1 119586659.680 1     -2121.416          29.000  
G 1  21503439.079 1                      2089.482          32.000                                                                  
G 7  21037985.506 1 110555232.826 1      1216.138          27.000                                                                  
G 8  21069035.310 1 110718520.742 1     -2912.943          35.000                                                                  
G21  20567152.756 1 108081086.865 1      -179.075          34.000                                                                  
G22  24952862.193 1 131128186.544 1       625.290          26.000                                                                  
G27  23223425.157 1 122039801.431 1     -4047.008          25.000                                                                  
J 1  37358521.134 1 196320318.819 1     -1352.772          26.000                                                                  
> 2021  5 17  2 34  8.9992095  0 13                     
C 7  36820282.149 1 191732847.605 1      -784.043          35.000  
C 8  38521324.342 1 200590659.933 1       763.249          27.000  
C10  37348563.827 1 194483743.944 1      -891.783          24.000  
C16  38105792.509 1 198426856.459 1     -2587.172          31.000  
C27  21632193.644 1 112644478.210 1     -2094.667          30.000  
C30  22513516.617 1 117233827.249 1       743.500          29.000  
C37  22965608.440 1 119588000.231 1     -2121.256          31.000  
G 1  21502892.857 1 112998458.23711      2087.215          32.000                                                                  
G 7  21037604.170 1 110553229.189 1      1215.618          28.000                                                                  
G 8  21069443.028 1 110720644.435 1     -2911.078          35.000                                                                  
G21  20567030.441 1 108080478.115 1      -180.962          34.000                                                                  
G27  23224047.826 1 122043061.028 1     -4047.940          24.000                                                                  
J 1  37358627.860 1 196320884.524 1     -1353.609          26.000                                                                  
> 2021  5 17  2 34  9.9992087  0 17                     
C 7  36820192.511 1 191732382.427 1      -784.384          35.000  
C 8  38520938.509 1 200588647.230 1       763.377          28.000  
C 9  36669166.664 1 190945973.40911     -2302.393          24.000  
C10  37348494.875 1 194483385.826 1      -890.053          25.000  
C16  38106053.928 1 198428195.104 1     -2584.948          31.000  
C27  21632360.628 1 112645324.021 1     -2095.474          30.000  
C30  22513131.383 1 117231834.322 1       744.634          27.000  
C37  22965778.422 1 119588872.663 1     -2121.088          30.000  
G 1  21502262.993 1 112995109.236 1      2089.536          32.000                                                                  
G 4  23685852.925 1 124470034.93011     -3852.348          31.000                                                                  
G 7  21037133.795 1 110550752.898 1      1215.523          26.000                                                                  
G 8  21069758.410 1 110722295.786 1     -2911.234          34.000                                                                  
G21  20566829.880 1 108079397.346 1      -180.119          34.000                                                                  
G22  24952233.528 1 131124886.94311       626.011          25.000                                                                  
G27  23224580.857 1 122045848.798 1     -4048.211          23.000                                                                  
G30  24087905.190 1 126582795.38211      2373.834          24.000                                                                  
J 1  37358644.948 1 196320977.133 1     -1352.788          26.000                                                                  
> 2021  5 17  2 34 10.9992082  0 15                     
C 7  36820192.211 1 191732385.412 1      -785.173          35.000  
C 8  38520642.614 1 200587103.528 1       762.521          28.000  
C 9  36669459.861 1 190947492.875 1     -2299.436          26.000  
C10  37348516.460 1 194483495.800 1      -891.049          24.000  
C16  38106398.389 1 198430002.000 1     -2586.912          31.000  
C27  21632612.154 1 112646637.815 1     -2096.032          28.000  
C30  22512837.887 1 117230309.463 1       744.013          26.000  
C37  22966037.743 1 119590212.830 1     -2120.248          31.000  
G 1  21501713.174 1 112992233.048 1      2088.585          32.000                                                                  
G 4  23686437.820 1 124473098.850 1     -3852.698          29.000                                                                  
G 7  21036752.459 1 110548749.629 1      1215.233          26.000                                                                  
G 8  21070158.333 1 110724419.732 1     -2912.351          34.000                                                                  
G21  20566709.663 1 108078789.671 1      -181.621          32.000                                                                  
G30  24087296.312 1 126579632.963 1      2376.093          23.000                                                                  
J 1  37358754.073 1 196321542.370 1     -1353.216          26.000                                                                  
> 2021  5 17  2 34 11.9992074  0 15                     
C 7  36820097.777 1 191731919.695 1      -781.472          31.000  
C 8  38520257.381 1 200585091.791 1       762.700          25.000  
C 9  36669663.120 1 190948542.248 1     -2297.447          24.000  
C10  37348448.107 1 194483139.603 1      -893.001          22.000  
C16  38106654.112 1 198431340.422 1     -2589.089          28.000  
C27  21632771.344 1 112647484.909 1     -2096.056          26.000  
C30  22512451.754 1 117228316.229 1       743.677          22.000  
C37  22966206.526 1 119591084.495 1     -2120.751          29.000  
G 4  23686929.780 1 124475689.974 1     -3850.707          31.000                                                                  
G 7  21036279.687 1 110546274.226 1      1214.784          28.000                                                                  
G 8  21070468.618 1 110726071.303 1     -2912.041          33.000                                                                  
G21  20566507.903 1 108077709.872 1      -179.970          32.000                                                                  
G22  24951601.865 1 131121586.96111       626.695          25.000                                                                  
G30  24086598.095 1 126575996.882 1      2376.501          24.000                                                                  
J 1  37358770.561 1 196321633.461 1     -1351.097          24.000                                                                  
> 2021  5 17  2 34 12.9992067  0 15                     
C 7  36820042.615 1 191731609.996 1      -783.827          31.000  
C 8  38519903.026 1 200583235.867 1       762.645          25.000  
C 9  36669896.659 1 190949746.819 1     -2297.053          24.000  
C10  37348407.635 1 194482938.955 1      -891.510          23.000  
C16  38106948.508 1 198432834.922 1     -2586.209          29.000  
C27  21632962.911 1 112648488.378 1     -2096.460          27.000  
C30  22512098.299 1 117226478.651 1       744.033          22.000  
C37  22966405.588 1 119592113.648 1     -2122.766          27.000  
G 4  23687451.419 1 124478438.583 1     -3851.166          30.000                                                                  
G 7  21035836.593 1 110543956.673 1      1214.263          26.000                                                                  
G16  24288550.287 1 127637192.57511     -2706.007          20.000                                                                  
G21  20566329.227 1 108076788.125 1      -181.422          32.000                                                                  
G22  24951270.895 1 131119857.294 1       626.393          24.000                                                                  
G30  24085930.158 1 126572518.529 1      2375.069          23.000                                                                  
J 1  37358817.629 1 196321882.015 1     -1352.198          25.000                                                                  
> 2021  5 17  2 34 13.9992064  0 14                     
C 7  36820103.173 1 191731924.378 1      -781.411          33.000  
C 8  38519668.289 1 200582004.295 1       764.118          26.000  
C 9  36670250.414 1 190951576.338 1     -2298.873          27.000  
C10  37348490.078 1 194483361.668 1      -890.454          22.000  
C16  38107357.425 1 198434953.681 1     -2591.012          30.000  
C27  21633274.396 1 112650116.491 1     -2096.059          25.000  
C30  22511865.060 1 117225266.503 1       742.966          24.000  
C37  22966724.567 1 119593768.451 1     -2123.108          27.000  
G 4  23688095.972 1 124481816.881 1     -3851.299          29.000                                                                  
G 7  21035517.314 1 110542269.768 1      1214.184          26.000                                                                  
G 8  21071282.255 1 110730319.73711     -2911.886          34.000                                                                  
G27  23226974.700 1 122058417.18211     -4047.080          25.000                                                                  
G30  24085383.336 1 126569669.340 1      2377.295          24.000                                                                  
J 1  37358985.513 1 196322762.133 1     -1353.328          24.000                                                                  
> 2021  5 17  2 34 14.9992056  0 14                     
C 7  36820015.034 1 191731458.103 1      -781.373          32.000  
C 8  38519283.055 1 200579991.645 1       763.560          26.000  
C 9  36670453.373 1 190952625.829 1     -2298.493          25.000  
C16  38107612.849 1 198436292.171 1     -2590.201          29.000  
C27  21633438.682 1 112650962.262 1     -2093.422          22.000  
C30  22511481.026 1 117223274.238 1       742.337          24.000  
C37  22966892.151 1 119594642.609 1     -2124.219          27.000  
G 4  23688598.425 1 124484407.488 1     -3851.187          31.000                                                                  
G 7  21035047.540 1 110539795.370 1      1213.688          26.000                                                                  
G 8  21071598.836 1 110731971.503 1     -2913.488          34.000                                                                  
G16  24289259.895 1 127640876.30911     -2710.072          19.000                                                                  
G21  20566065.109 1 108075418.62311      -183.732          32.000                                                                  
G30  24084686.319 1 126566033.783 1      2375.340          22.000                                                                  
J 1  37359004.100 1 196322854.563 1     -1351.298          25.000                                                                  
> 2021  5 17  2 34 15.9992049  0 13                     
C 7  36819953.876 1 191731147.662 1      -781.438          30.000  
C 8  38518930.799 1 200578136.846 1       761.831          23.000  
C 9  36670689.010 1 190953832.516 1     -2299.320          24.000  
C16  38107899.150 1 198437787.122 1     -2587.832          27.000  
C30  22511128.170 1 117221439.065 1       741.481          23.000  
C37  22967088.815 1 119595673.923 1     -2124.314          26.000  
G 1  21498736.834 1 112976594.61711      2086.669          34.000                                                                  
G 7  21034605.346 1 110537478.685 1      1213.667          24.000                                                                  
G 8  21071943.597 1 110733780.867 1     -2911.698          35.000                                                                  
G21  20565894.527 1 108074498.252 1      -184.636          32.000                                                                  
G22  24950370.318 1 131115142.81411       627.867          26.000                                                                  
G30  24084018.981 1 126562555.853 1      2376.377          23.000                                                                  
J 1  37359052.966 1 196323103.112 1     -1351.260          28.000                                                                  
> 2021  5 17  2 34 16.9992044  0 11                     
C 7  36819952.677 1 191731149.243 1      -783.040          31.000  
C 8  38518637.002 1 200576594.314 1       762.275          25.000  
C 9  36670981.608 1 190955351.227 1     -2299.452          24.000  
C10  37348401.939 1 194482912.87111      -890.419          20.000  
C16  38108245.111 1 198439594.391 1     -2587.873          28.000  
C30  22510834.973 1 117219916.609 1       742.158          21.000  
G 1  21498184.017 1 112973719.615 1      2088.625          33.000                                                                  
G 4  23689689.070 1 124490218.28511     -3851.611          30.000                                                                  
G 7  21034224.310 1 110535477.568 1      1212.942          24.000                                                                  
G 8  21072347.417 1 110735905.426 1     -2911.506          36.000                                                                  
G21  20565778.208 1 108073893.480 1      -183.887          34.000                                                                  
> 2021  5 17  2 34 17.9992036  0 14                     
C 7  36819864.238 1 191730682.287 1      -780.999          32.000  
C 8  38518251.170 1 200574582.536 1       763.699          26.000  
C 9  36671186.366 1 190956402.193 1     -2299.811          24.000  
C10  37348333.287 1 194482555.003 1      -891.058          20.000  
C16  38108501.134 1 198440933.474 1     -2586.850          28.000  
C27  21634048.460 1 112654123.79411     -2094.161          16.000  
C30  22510455.136 1 117217925.144 1       742.417          22.000  
G 1  21497543.660 1 112970372.274 1      2088.664          32.000                                                                  
G 4  23690178.631 1 124492808.428 1     -3847.836          29.000                                                                  
G 7  21033750.937 1 110533003.768 1      1213.230          22.000                                                                  
G 8  21072661.900 1 110737557.470 1     -2911.730          36.000                                                                  
G21  20565579.446 1 108072816.617 1      -183.181          33.000                                                                  
G22  24949743.752 1 131111839.54911       626.974          26.000                                                                  
J 1  37359174.382 1 196323755.84311     -1350.347          26.000                                                                  
> 2021  5 17  2 34 18.9992031  0 12                     
C 7  36819866.037 1 191730683.467 1      -782.335          31.000  
C 8  38517955.874 1 200573037.510 1       764.729          26.000  
C 9  36671477.764 1 190957920.934 1     -2298.373          25.000  
C10  37348353.373 1 194482665.491 1      -891.477          24.000  
C16  38108846.495 1 198442739.382 1     -2586.388          29.000  
C27  21634300.286 1 112655439.002 1     -2096.023          17.000  
C30  22510164.637 1 117216402.287 1       742.136          23.000  
G 1  21496999.837 1 112967497.740 1      2086.299          31.000                                                                  
G 7  21033367.503 1 110531002.764 1      1212.477          21.000                                                                  
G 8  21073067.219 1 110739682.245 1     -2913.622          35.000                                                                  
G21  20565463.126 1 108072212.883 1      -184.026          34.000                                                                  
G27  23229828.424 1 122073452.84311     -4046.906          25.000                                                                  
> 2021  5 17  2 34 19.9992026  0 12                     
C 7  36819867.536 1 191730684.476 1      -782.931          31.000  
C 8  38517659.379 1 200571492.318 1       765.972          26.000  
C 9  36671768.863 1 190959439.214 1     -2299.513          26.000  
C16  38109192.755 1 198444545.343 1     -2586.278          30.000  
C30  22509872.639 1 117214880.536 1       740.303          23.000  
C37  22968022.669 1 119600578.08711     -2124.073          27.000  
G 7  21032981.670 1 110529001.745 1      1214.417          21.000                                                                  
G 8  21073473.438 1 110741807.186 1     -2913.191          35.000                                                                  
G21  20565351.903 1 108071609.683 1      -183.860          34.000                                                                  
G22  24949204.725 1 131109011.40711       626.089          25.000                                                                  
G27  23230448.395 1 122076712.298 1     -4048.625          25.000                                                                  
G30  24081513.015 1 126549427.09111      2375.479          22.000                                                                  
> 2021  5 17  2 34 20.9992018  0 13                     
C 7  36819778.798 1 191730216.925 1      -779.739          32.000  
C 8  38517272.947 1 200569478.355 1       764.760          27.000  
C 9  36671970.323 1 190960490.668 1     -2299.812          27.000  
C10  37348306.605 1 194482418.81611      -890.606          23.000  
C16  38109450.277 1 198445882.968 1     -2586.638          30.000  
C27  21634712.500 1 112657602.63111     -2099.381          19.000  
C30  22509489.804 1 117212891.272 1       740.402          23.000  
C37  22968190.253 1 119601453.989 1     -2125.901          28.000  
G 1  21495814.158 1 112961276.83911      2086.938          31.000                                                                  
G 7  21032507.098 1 110526526.691 1      1215.337          19.000                                                                  
G 8  21073788.520 1 110743459.604 1     -2914.177          35.000                                                                  
G21  20565144.747 1 108070534.328 1      -186.256          35.000                                                                  
R20  20853030.048 1 111510522.96911      2256.821          25.000  
> 2021  5 17  2 34 21.9992013  0 13                     
C 7  36819777.898 1 191730217.491 1      -782.432          32.000  
C 8  38516975.852 1 200567933.143 1       764.344          26.000  
C 9  36672260.822 1 190962009.022 1     -2298.483          26.000  
C10  37348328.190 1 194482528.080 1      -889.743          24.000  
C16  38109798.036 1 198447688.634 1     -2585.984          30.000  
C27  21634964.026 1 112658921.941 1     -2099.894          20.000  
C37  22968450.473 1 119602798.866 1     -2125.265          28.000  
G 1  21495262.539 1 112958403.023 1      2085.357          32.000                                                                  
G 8  21074190.841 1 110745584.773 1     -2912.458          35.000                                                                  
G21  20565029.027 1 108069932.138 1      -185.863          35.000                                                                  
G22  24948580.557 1 131105708.43911       628.250          26.000                                                                  
G27  23231596.600 1 122082758.86111     -4046.016          25.000                                                                  
G30  24080211.616 1 126542365.86911      2376.437          20.000                                                                  
> 2021  5 17  2 34 22.9992005  0 14                     
C 1  37405831.981 1 194781983.05411      -966.796          30.000  
C 7  36819687.661 1 191729749.636 1      -779.882          33.000  
C 8  38516588.820 1 200565920.159 1       764.131          27.000  
C 9  36672459.585 1 190963059.444 1     -2299.839          26.000  
C10  37348260.138 1 194482169.855 1      -889.302          25.000  
C16  38110056.757 1 198449026.258 1     -2586.600          31.000  
C27  21635125.314 1 112659772.961 1     -2100.364          20.000  
C37  22968620.155 1 119603675.724 1     -2126.197          28.000  
G 1  21494630.877 1 112955056.564 1      2086.690          32.000                                                                  
G 7  21031651.191 1 110522052.76511      1212.275          24.000                                                                  
G 8  21074499.028 1 110747237.464 1     -2913.754          37.000                                                                  
G21  20564824.268 1 108068857.706 1      -185.983          35.000                                                                  
J 1  37359529.336 1 196325623.33611     -1349.697          28.000                                                                  
R20  20851787.408 1 111503877.63711      2256.549          23.000  
> 2021  5 17  2 34 23.9991997  0 14                     
C 7  36819593.826 1 191729282.166 1      -781.430          34.000  
C 8  38516199.390 1 200563906.906 1       764.396          26.000  
C 9  36672658.347 1 190964110.134 1     -2299.427          25.000  
C10  37348189.986 1 194481810.629 1      -890.795          24.000  
C16  38110313.379 1 198450363.969 1     -2586.584          25.000  
C37  22968791.636 1 119604552.383 1     -2125.168          32.000  
G 1  21494000.713 1 112951709.202 1      2087.839          34.000                                                                  
G 4  23693415.190 1 124509762.32311     -3848.478          28.000                                                                  
G 7  21031183.215 1 110519580.577 1      1211.103          28.000                                                                  
G 8  21074810.512 1 110748890.928 1     -2914.069          37.000                                                                  
G21  20564618.611 1 108067782.780 1      -184.367          33.000                                                                  
G22  24947858.957 1 131101929.31211       630.423          25.000                                                                  
J 1  37359543.726 1 196325711.555 1     -1347.954          25.000                                                                  
R20  20851127.565 1 111500348.871 1      2255.402          24.000  
> 2021  5 17  2 34 24.9991995  0 13                     
C 7  36819684.363 1 191729752.092 1      -782.262          36.000  
C 9  36673039.983 1 190966097.240 1     -2298.875          29.000  
C10  37348300.909 1 194482389.501 1      -891.090          24.000  
C16  38110747.778 1 198452638.190 1     -2585.619          25.000  
C37  22969142.394 1 119606364.884 1     -2124.199          32.000  
G 1  21493539.332 1 112949305.468 1      2088.395          36.000                                                                  
G 4  23694084.926 1 124513295.919 1     -3847.256          25.000                                                                  
G 7  21030892.116 1 110518055.235 1      1209.271          29.000                                                                  
G 8  21075309.667 1 110751490.717 1     -2916.437          37.000                                                                  
G21  20564594.028 1 108067652.318 1      -183.637          34.000                                                                  
G22  24947680.880 1 131100981.830 1       634.077          28.000                                                                  
J 1  37359736.493 1 196326743.307 1     -1345.504          26.000                                                                  
R20  20850649.696 1 111497793.543 1      2257.827          25.000  
> 2021  5 17  2 34 25.9991987  0 14                     
C 7  36819592.626 1 191729286.370 1      -783.627          38.000  
C 8  38515599.206 1 200560813.74711       768.078          26.000  
C 9  36673240.244 1 190967146.667 1     -2298.014          29.000  
C10  37348231.957 1 194482031.368 1      -891.839          26.000  
C16  38111000.503 1 198453973.954 1     -2584.342          24.000  
C27  21635796.250 1 112663259.88711     -2100.485          27.000  
C30  22507849.340 1 117204354.35811       738.765          32.000  
C37  22969311.177 1 119607238.076 1     -2121.952          33.000  
G 1  21492903.772 1 112945954.686 1      2090.105          33.000                                                                  
G 7  21030422.342 1 110515587.861 1      1205.528          31.000                                                                  
G 8  21075628.646 1 110753146.637 1     -2918.852          35.000                                                                  
G21  20564386.571 1 108066575.307 1      -185.211          32.000                                                                  
G22  24947319.930 1 131099085.151 1       638.468          29.000                                                                  
R20  20849994.049 1 111494287.477 1      2259.257          26.000  
> 2021  5 17  2 34 26.9991982  0 15                     
C 7  36819598.622 1 191729289.029 1      -780.757          37.000  
C 8  38515297.914 1 200559262.777 1       771.745          31.000  
C 9  36673531.942 1 190968663.413 1     -2296.949          27.000  
C10  37348252.643 1 194482144.178 1      -894.758          25.000  
C27  21636048.076 1 112664580.073 1     -2100.244          22.000  
C30  22507560.640 1 117202835.320 1       738.969          31.000  
C37  22969569.898 1 119608579.865 1     -2122.535          30.000  
G 1  21492353.353 1 112943076.353 1      2090.825          36.000                                                                  
G 4  23695157.884 1 124518943.49711     -3850.449          22.000                                                                  
G 8  21076025.871 1 110755275.549 1     -2917.205          35.000                                                                  
G21  20564270.552 1 108065970.892 1      -183.609          29.000                                                                  
G22  24947049.217 1 131097657.291 1       640.935          25.000                                                                  
G30  24077025.722 1 126525609.55511      2372.365          16.000                                                                  
J 1  37359855.810 1 196327379.91711     -1339.509          21.000                                                                  
R20  20849423.544 1 111491237.299 1      2257.499          26.000  
> 2021  5 17  2 34 27.9991974  0 14                     
C 7  36819508.385 1 191728822.481 1      -781.691          33.000  
C 8  38514906.685 1 200557241.635 1       771.847          31.000  
C 9  36673734.302 1 190969712.814 1     -2299.692          26.000  
C10  37348183.990 1 194481789.729 1      -894.594          25.000  
C16  38111602.187 1 198457115.82611     -2588.376          21.000  
C30  22507180.203 1 117200847.111 1       738.747          28.000  
C37  22969741.079 1 119609455.063 1     -2124.768          25.000  
G 1  21491717.494 1 112939726.594 1      2087.846          38.000                                                                  
G 4  23695648.044 1 124521534.621 1     -3851.731          21.000                                                                  
G 7  21029573.329 1 110511131.64711      1203.801          30.000                                                                  
G 8  21076340.653 1 110756931.222 1     -2916.692          39.000                                                                  
G21  20564066.093 1 108064894.507 1      -184.012          30.000                                                                  
G30  24076336.499 1 126521975.874 1      2372.670          18.000                                                                  
J 1  37359871.999 1 196327458.403 1     -1339.211          26.000                                                                  
> 2021  5 17  2 34 28.9991967  0 14                     
C 7  36819449.326 1 191728510.718 1      -781.048          33.000  
C 8  38514546.334 1 200555377.870 1       769.754          34.000  
C 9  36673967.241 1 190970919.646 1     -2299.744          28.000  
C10  37348145.317 1 194481589.684 1      -891.616          24.000  
C30  22506829.746 1 117199017.003 1       736.878          28.000  
C37  22969938.343 1 119610486.854 1     -2124.581          29.000  
G 1  21491112.213 1 112936537.056 1      2085.298          35.000                                                                  
G 4  23696191.268 1 124524283.512 1     -3851.847          22.000                                                                  
G 8  21076684.815 1 110758743.499 1     -2914.825          40.000                                                                  
G21  20563889.815 1 108063976.450 1      -185.754          24.000                                                                  
G27  23235592.234 1 122103834.79611     -4047.381          23.000                                                                  
G30  24075676.956 1 126518500.182 1      2373.507          18.000                                                                  
J 1  37359916.068 1 196327696.091 1     -1343.272          29.000                                                                  
R20  20848137.735 1 111484361.63611      2257.190          22.000  
> 2021  5 17  2 34 29.9991964  0 16                     
C 4  38345402.530 1 199674617.14311      -950.793          30.000  
C 7  36819507.485 1 191728822.309 1      -779.290          30.000  
C 8  38514310.997 1 200554142.859 1       763.416          34.000  
C 9  36674320.097 1 190972751.039 1     -2299.809          29.000  
C10  37348226.261 1 194482011.920 1      -889.833          28.000  
C16  38112294.108 1 198460731.91611     -2588.465          26.000  
C30  22506601.304 1 117197811.858 1       736.707          31.000  
C37  22970255.223 1 119612143.364 1     -2126.168          31.000  
G 4  23696855.908 1 124527663.071 1     -3851.989          22.000                                                                  
G 7  21028814.255 1 110507145.43111      1206.977          32.000                                                                  
G 8  21077152.491 1 110761185.176 1     -2913.831          38.000                                                                  
G21  20563833.454 1 108063691.678 1      -189.316          26.000                                                                  
G22  24946144.743 1 131092911.38711       631.951          19.000                                                                  
G30  24075137.029 1 126515655.863 1      2371.233          17.000                                                                  
J 1  37360082.153 1 196328568.133 1     -1347.944          30.000                                                                  
R20  20847624.190 1 111481614.723 1      2256.093          20.000  
> 2021  5 17  2 34 30.9991956  0 14                     
C 7  36819413.351 1 191728351.504 1      -778.109          24.000  
C 8  38513926.663 1                       763.650          35.000  
C 9  36674523.656 1 190973802.236 1     -2300.200          34.000  
C10  37348158.208 1 194481650.876 1      -887.354          28.000  
C16  38112551.630 1 198462070.677 1     -2587.001          29.000  
C30  22506222.666 1 117195826.034 1       736.751          34.000  
C37  22970421.308 1 119613021.249 1     -2127.437          32.000  
G 7  21028344.780 1 110504676.814 1      1208.448          30.000                                                                  
G 8  21077469.971 1 110762839.192 1     -2914.878          39.000                                                                  
G22  24945784.693 1 131091021.172 1       627.005          17.000                                                                  
G27  23236800.997 1 122110196.42911     -4046.917          23.000                                                                  
G30  24074445.708 1 126512019.048 1      2377.176          16.000                                                                  
J 1  37360100.740 1 196328656.860 1     -1350.463          30.000                                                                  
R20  20846961.049 1 111478069.139 1      2253.255          20.000  
> 2021  5 17  2 34 31.9991951  0 12                     
C 8  38513628.070 1 200550576.18011       765.222          35.000  
C 9  36674816.253 1 190975321.405 1     -2299.322          34.000  
C10  37348178.894 1 194481757.000 1      -887.404          27.000  
C16  38112897.290 1 198463876.679 1     -2586.625          28.000  
C30  22505934.266 1 117194308.934 1       737.011          33.000  
C37  22970678.530 1 119614367.852 1     -2126.553          31.000  
G 7  21027964.943 1 110502680.690 1      1207.979          30.000                                                                  
G 8  21077872.592 1 110764966.497 1     -2915.310          38.000                                                                  
G30  24073845.224 1 126508858.252 1      2376.816          14.000                                                                  
J 1  37360210.764 1 196329219.566 1     -1350.391          31.000                                                                  
J 3  38639841.294 1 203053759.61711     -1811.189          24.000                                                                  
R20  20846394.142 1 111475037.677 1      2254.461          23.000  
> 2021  5 17  2 34 32.9991944  0 12                     
C 7  36819353.392 1 191728038.12411      -782.113          23.000  
C 8  38513265.021 1 200548715.783 1       768.758          33.000  
C 9  36675046.793 1 190976527.138 1     -2298.140          27.000  
C10  37348136.923 1 194481551.906 1      -888.670          24.000  
C30  22505584.708 1 117192479.321 1       736.584          28.000  
C37  22970875.194 1 119615401.574 1     -2126.430          31.000  
G 1  21488838.287 1 112924576.41911      2084.477          30.000                                                                  
G 7  21027526.047 1 110500370.660 1      1206.368          30.000                                                                  
G 8  21078219.452 1 110766779.385 1     -2915.588          34.000                                                                  
G30  24073186.280 1 126505379.129 1      2376.263          13.000                                                                  
J 1  37360258.731 1 196329465.591 1     -1347.132          30.000                                                                  
J 3  38639976.501 1 203054467.357 1     -1809.589          23.000                                                                  
> 2021  5 17  2 34 33.9991936  0 13                     
C 7  36819265.253 1 191727570.862 1      -781.618          24.000  
C 8  38512877.090 1 200546692.617 1       780.149          31.000  
C 9  36675247.055 1 190977576.158 1     -2297.303          25.000  
C10  37348068.570 1 194481191.812 1      -889.728          25.000  
C16  38113437.816 1 198466707.58411     -2586.853          30.000  
C30  22505202.173 1 117190493.598 1       736.972          28.000  
C37  22971042.178 1 119616277.597 1     -2125.719          34.000  
G 1  21488201.827 1 112921230.250 1      2086.047          26.000                                                                  
G 7  21027058.370 1 110497905.931 1      1202.825          29.000                                                                  
G 8  21078535.733 1 110768436.361 1     -2917.283          28.000                                                                  
G22  24944817.862 1 131085970.64911       638.412          24.000                                                                  
J 1  37360273.721 1 196329550.388 1     -1343.836          28.000                                                                  
R20  20845101.736 1 111468126.50011      2248.947          18.000  
> 2021  5 17  2 34 34.9991931  0 10                     
C 1  37405825.986 1 194781954.21211      -958.248          32.000  
C 8  38512577.597 1 200545135.239 1       777.168          29.000  
C 9  36675535.455 1 190979090.556 1     -2293.725          28.000  
C16  38113783.777 1 198468512.806 1     -2584.369          31.000  
C30  22504908.676 1 117188974.458 1       740.502          29.000  
C37  22971300.600 1 119617622.534 1     -2125.921          33.000  
G 7  21026683.030 1 110495916.981 1      1199.575          31.000                                                                  
G 8  21078935.656 1 110770564.736 1     -2916.564          22.000                                                                  
G22  24944547.749 1 131084542.180 1       642.298          23.000                                                                  
J 1  37360377.149 1 196330104.148 1     -1337.635          22.000                                                                  
> 2021  5 17  2 34 35.9991926  0 11                     
C 8  38512276.006 1 200543577.699 1       776.573          25.000  
C 9  36675824.155 1 190980602.832 1     -2292.280          27.000  
C10  37348116.537 1 194481414.36511      -893.113          24.000  
C16  38114130.037 1 198470313.113 1     -2578.181          30.000  
C30  22504613.081 1 117187453.870 1       738.485          29.000  
C37  22971559.320 1 119618968.283 1     -2127.474          29.000  
G 1  21487104.887 1 112915491.73611      2079.491          23.000                                                                  
G 7  21026305.592 1 110493929.747 1      1199.449          31.000                                                                  
G 8  21079337.678 1 110772693.743 1     -2917.580          22.000                                                                  
G22  24944277.036 1 131083110.784 1       644.153          23.000                                                                  
R20  20843976.915 1 111462111.79211      2249.291          16.000  
> 2021  5 17  2 34 36.9991918  0 10                     
C 9  36676026.215 1 190981650.345 1     -2307.015          24.000  
C10  37348049.383 1 194481057.585 1      -890.235          21.000  
C16  38114384.860 1 198471637.507 1     -2568.442          30.000  
C30  22504232.644 1 117185469.881 1       731.618          28.000  
C37  22971728.703 1 119619849.097 1     -2132.186          25.000  
G 1  21486473.224 1 112912148.571 1      2088.314          30.000                                                                  
G 4  23700683.358 1 124547930.81111     -3852.433          16.000                                                                  
G 7  21025837.316 1 110491468.889 1      1202.048          27.000                                                                  
G22  24943917.585 1 131081208.828 1       637.955          17.000                                                                  
R20  20843315.873 1 111458576.040 1      2260.134          18.000  
> 2021  5 17  2 34 37.9991913  0  7                     
C 8  38511595.777 1 200539991.55511       777.368          19.000  
C10  37348069.769 1 194481165.390 1      -887.897          18.000  
C16  38114729.622 1 198473423.637 1     -2563.601          23.000  
C37  22971991.022 1 119621204.784 1     -2138.263          30.000  
G 1  21485927.602 1 112909269.848 1      2094.193          36.000                                                                  
G 7  21025458.078 1 110489477.771 1      1204.291          25.000                                                                  
G 8  21080055.681 1 110776480.20611     -2925.772          24.000                                                                  
> 2021  5 17  2 34 38.9991905  0  7                     
C 7  36819090.174 1 191726658.30911      -792.761          26.000  
C16  38114980.248 1 198474736.695 1     -2560.171          32.000  
C37  22972164.302 1 119622096.695 1     -2141.389          24.000  
G 1  21485289.344 1 112905913.705 1      2097.136          38.000                                                                  
G 7  21024988.603 1 110487013.316 1      1204.138          26.000                                                                  
G 8  21080371.962 1 110778148.658 1     -2932.205          28.000                                                                  
R20  20842075.931 1 111451946.42311      2280.099          19.000  
> 2021  5 17  2 34 39.9991900  0  8                     
C 7  36819092.273 1 191726671.596 1      -794.255          30.000  
C 9  36676835.055 1 190985804.28211     -2329.763          32.000  
C16  38115322.012 1 198476514.789 1     -2557.261          33.000  
C27  21638841.842 1 112679123.97211     -2118.115          36.000  
C30  22503288.597 1 117180509.40111       707.853          31.000  
G 1  21484738.625 1 112903029.734 1      2096.939          35.000                                                                  
G 7  21024611.464 1 110485022.019 1      1203.835          21.000                                                                  
G 8  21080779.080 1 110780295.109 1     -2936.131          28.000                                                                  
> 2021  5 17  2 34 40.9991895  0  9                     
C 7  36819094.072 1 191726686.684 1      -796.489          29.000  
C 8  38510630.445 1 200534852.82111       775.250          29.000  
C10  37348041.889 1 194480998.92711      -874.957          17.000  
C16  38115663.775 1 198478292.314 1     -2559.344          34.000  
C27  21639099.063 1 112680461.683 1     -2117.508          36.000  
C37  22972696.733 1 119624821.19211     -2143.714          32.000  
G 1  21484190.604 1 112900144.071 1      2100.998          34.000                                                                  
G 8  21081190.396 1 110782444.785 1     -2938.272          25.000                                                                  
R20  20840920.531 1 111445767.40011      2282.582          19.000  
> 2021  5 17  2 34 41.9991887  0  8                     
C 7  36819005.933 1 191726233.601 1      -794.808          22.000  
C 9  36677341.705 1 190988431.74911     -2325.619          13.000  
C16  38115917.699 1                     -2554.822          34.000  
C27  21639265.748 1                     -2118.436          39.000  
C37  22972870.613 1 119625714.831 1     -2140.651          31.000  
G 1  21483552.046 1 112896783.496 1      2099.367          28.000                                                                  
G 4  23703432.755 1 124562383.38111     -3887.940          16.000                                                                  
G 8  21081507.876 1 110784122.184 1     -2939.138          21.000                                                                  
> 2021  5 17  2 34 42.9991882  0  6                     
C 7  36819006.832 1 191726244.155 1      -787.253          19.000  
C16  38116256.465 1 198481358.89111     -2552.005          33.000  
C27  21639522.370 1 112682674.62511     -2120.381          39.000  
C37  22973134.430 1 119627076.241 1     -2143.434          30.000  
G 1  21483005.825 1 112893897.545 1      2097.918          29.000                                                                  
R20  20839661.702 1 111439035.91511      2285.676          17.000  
> 2021  5 17  2 34 43.9991875  0  8                     
C 7  36818947.773 1 191725934.633 1      -779.111          20.000  
C 8  38509597.960 1 200529402.65911       776.586          22.000  
C16  38116536.771 1 198482821.633 1     -2555.971          25.000  
C27  21639720.833 1 112683703.289 1     -2122.291          38.000  
C37  22973337.389 1 119628128.895 1     -2147.120          32.000  
G 1  21482396.646 1 112890696.498 1      2099.489          33.000                                                                  
G 4  23704564.771 1 124568277.79911     -3892.945          14.000                                                                  
R20  20839029.440 1 111435655.240 1      2279.815          16.000  
> 2021  5 17  2 34 44.9991869  0  8                     
C 8  38509272.385 1 200527688.134 1       780.073          20.000  
C16  38116846.456 1 198484441.282 1     -2555.962          22.000  
C27  21639949.575 1 112684888.696 1     -2122.258          38.000  
C37  22973572.427 1 119629340.275 1     -2147.769          37.000  
G 1  21481816.548 1 112887647.883 1      2107.250          18.000                                                                  
G 7  21022539.898 1 110474042.19611      1214.218          20.000                                                                  
G27  23244962.247 1 122153100.45311     -4000.940          20.000                                                                  
R20  20838424.759 1 111432421.089 1      2270.486          15.000  
> 2021  5 17  2 34 45.9991862  0  7                     
C27  21640148.937 1 112685918.170 1     -2121.505          38.000  
C37  22973775.386 1 119630392.167 1     -2144.809          33.000  
G 1  21481205.871 1 112884438.445 1      2105.061          20.000                                                                  
G 4  23705663.211 1 124574025.37111     -3899.725          12.000                                                                  
G 7  21022098.304 1 110471723.707 1      1218.902          22.000                                                                  
G27  23245521.660 1 122155998.768 1     -4002.083          20.000                                                                  
R20  20837793.096 1 111429043.558 1      2257.160          13.000  
> 2021  5 17  2 34 46.9991857  0  7                     
C16  38117470.924 1 198487681.90211     -2558.809          27.000  
C27  21640404.060 1 112687259.710 1     -2123.830          39.000  
C37  22974037.705 1 119631756.375 1     -2142.327          31.000  
G 1  21480662.047 1 112881547.222 1      2101.251          24.000                                                                  
G 4  23706252.303 1 124577132.606 1     -3890.884          12.000                                                                  
G 7  21021716.668 1 110469723.973 1      1205.780          27.000                                                                  
G 8  21083416.355 1 110794110.58311     -2938.768          19.000                                                                  
> 2021  5 17  2 34 47.9991852  0  7                     
C16  38117812.987 1 198489459.658 1     -2556.274          26.000  
C27  21640662.781 1 112688600.873 1     -2122.593          38.000  
C30  22500643.529 1 117166754.78011       765.864          31.000  
G 1  21480115.525 1 112878660.568 1      2096.716          26.000                                                                  
G 7  21021341.928 1 110467734.181 1      1200.115          28.000                                                                  
G 8  21083825.871 1 110796261.174 1     -2937.866          20.000                                                                  
G27  23246751.409 1 122162428.98811     -4001.234          19.000                                                                  
> 2021  5 17  2 34 48.9991844  0  9                     
C16  38118064.213 1 198490767.767 1     -2559.357          23.000  
C27  21640829.466 1 112689473.930 1     -2121.954          39.000  
C30  22500251.400 1 117164742.343 1       762.042          31.000  
C37  22974471.205 1 119633980.06711     -2113.389          24.000  
G 1  21479476.068 1 112875303.461 1      2096.967          25.000                                                                  
G 4  23707348.644 1 124582854.95711     -3885.151          12.000                                                                  
G 7  21020877.849 1 110465275.289 1      1197.337          25.000                                                                  
G 8  21084144.251 1 110797935.769 1     -2930.369          21.000                                                                  
G27  23247270.949 1 122165171.143 1     -4004.447          19.000                                                                  
> 2021  5 17  2 34 49.9991836  0 10                     
C 7  36818689.052 1 191724462.27511      -786.374          24.000  
C16  38118313.940 1 198492078.781 1     -2560.669          23.000  
C27  21640996.450 1 112690346.887 1     -2122.126          38.000  
C30  22499866.467 1 117162732.757 1       759.334          28.000  
C37  22974639.688 1 119634849.074 1     -2122.496          25.000  
G 1  21478838.110 1 112871947.809 1      2093.897          28.000                                                                  
G 4  23707847.798 1 124585478.348 1     -3884.774          11.000                                                                  
G 7  21020410.473 1 110462817.347 1      1197.747          27.000                                                                  
G 8  21084462.330 1 110799607.872 1     -2933.722          30.000                                                                  
G27  23247796.186 1 122167916.070 1     -4006.694          18.000                                                                  
> 2021  5 17  2 34 50.9991831  0 10                     
C 9  36679585.651 1 191000477.56311     -2275.733          16.000  
C16  38118653.305 1 198493857.850 1     -2558.232          25.000  
C27  21641255.171 1 112691688.766 1     -2123.317          36.000  
C30  22499571.171 1 117161193.911 1       757.812          29.000  
C37  22974902.306 1 119636199.815 1     -2136.178          23.000  
G 1  21478290.089 1 112869067.338 1      2092.748          26.000                                                                  
G 4  23708434.193 1 124588573.454 1     -3878.803          10.000                                                                  
G 7  21020034.533 1 110460830.260 1      1199.624          27.000                                                                  
G 8  21084872.147 1 110801753.778 1     -2933.359          22.000                                                                  
G27  23248414.058 1 122171134.736 1     -4006.054          17.000                                                                  
> 2021  5 17  2 34 51.9991823  0  7                     
C16  38118902.133 1 198495166.718 1     -2557.251          26.000  
C27  21641422.755 1 112692562.522 1     -2123.127          36.000  
C30  22499187.736 1 117159188.448 1       755.036          29.000  
C37  22975077.685 1 119637094.166 1     -2147.686          26.000  
G 7  21019570.754 1 110458369.263 1      1201.230          23.000                                                                  
G 8  21085192.325 1 110803424.352 1     -2929.501          22.000                                                                  
G27  23248943.791 1 122173881.219 1     -4007.857          16.000                                                                  
> 2021  5 17  2 34 52.9991821  0  4                     
C16  38119329.937 1 198497410.776 1     -2555.741          29.000  
C27  21641771.713 1 112694373.278 1     -2123.827          29.000  
C30  22498984.177 1 117158120.843 1       756.272          26.000  
G27  23249647.704 1 122177574.524 1     -4007.472          17.000                                                                  
> 2021  5 17  2 34 53.9991813  0  6                     
C16  38119576.366 1 198498716.436 1     -2553.619          30.000  
C27  21641939.597 1 112695247.909 1     -2123.535          38.000  
C30  22498598.344 1 117156114.428 1       758.960          29.000  
C37  22975607.418 1 119639833.62511     -2153.209          12.000  
G 8  21086012.257 1 110807716.06411     -2934.208          21.000                                                                  
G27  23250177.737 1 122180320.183 1     -4004.507          17.000                                                                  
> 2021  5 17  2 34 54.9991805  0  6                     
C16  38119826.693 1 198500023.899 1     -2556.920          16.000  
C27  21642106.881 1 112696122.993 1     -2124.562          38.000  
C30  22498212.212 1 117154105.543 1       760.496          27.000  
C37  22975778.300 1 119640739.372 1     -2155.476          27.000  
G 8  21086331.536 1 110809391.411 1     -2938.142          25.000                                                                  
G27  23250711.667 1 122183062.259 1     -4000.929          18.000                                                                  
> 2021  5 17  2 34 55.9991800  0  9                     
C 9  36680775.228 1 191006422.28211     -2257.908          16.000  
C27  21642363.504 1 112697467.413 1     -2126.005          38.000  
C30  22497916.916 1 117152564.403 1       759.831          23.000  
C37  22976039.419 1 119642114.785 1     -2156.064          31.000  
G 7  21017961.468 1 110449936.93211      1204.092          23.000                                                                  
G 8  21086740.154 1 110811543.793 1     -2943.044          29.000                                                                  
G21  20559909.171 1 108043002.89311      -207.712          34.000                                                                  
G27  23251332.537 1 122186576.935 1     -4003.036          18.000                                                                  
J 2  38500846.119 1 202323272.73111       106.088          31.000                                                                  
> 2021  5 17  2 34 56.9991793  0 10                     
C 9  36680990.778 1 191007589.912 1     -2264.856          17.000  
C27  21642562.566 1                     -2126.241          38.000  
C30  22497562.262 1 117150711.282 1       761.397          23.000  
C37  22976234.884 1 119643176.087 1     -2150.830          33.000  
G 1  21474734.251 1 112850511.99711      2096.156          30.000                                                                  
G 7  21017521.673 1 110447630.234 1      1203.769          24.000                                                                  
G 8  21087088.812 1 110813385.041 1     -2943.420          28.000                                                                  
G21  20559735.291 1                      -208.384          33.000                                                                  
G27  23251899.745 1 122189479.582 1     -4006.510          19.000                                                                  
J 2  38500616.778 1 202322063.090 1       106.601          31.000                                                                  
> 2021  5 17  2 34 57.9991790  0  9                     
C 7  36818550.248 1 191723639.89411      -797.027          32.000  
C27  21642880.646 1 112700160.33911     -2126.256          38.000  
C30  22497324.826 1 117149481.016 1       762.633          30.000  
C37  22976555.662 1 119644852.522 1     -2139.780          33.000  
G 7  21017199.995 1 110445954.643 1      1202.243          24.000                                                                  
G 8  21087557.088 1 110815856.864 1     -2944.604          29.000                                                                  
G21  20559687.325 1 108041873.05211      -209.100          34.000                                                                  
G27  23252581.473 1 122193015.839 1     -4010.522          18.000                                                                  
J 2  38500505.854 1                       108.134          31.000                                                                  
> 2021  5 17  2 34 58.9991782  0  9                     
C 7  36818465.107 1                      -798.636          33.000  
C27  21643049.429 1 112701038.418 1     -2126.859          38.000  
C30  22496937.794 1 117147469.187 1       763.643          30.000  
C37  22976725.644 1 119645746.612 1     -2146.732          30.000  
G 7  21016729.321 1 110443492.354 1      1203.931          23.000                                                                  
G 8  21087877.866 1 110817541.564 1     -2944.405          29.000                                                                  
G21  20559489.462 1                      -207.214          33.000                                                                  
G27  23253111.206 1 122195769.627 1     -4017.425          18.000                                                                  
J 2  38500244.735 1 202320154.39311       109.792          32.000                                                                  
> 2021  5 17  2 34 59.9991775  0 10                     
C 7  36818410.845 1 191723113.69711      -799.268          33.000  
C27  21643249.990 1 112702072.646 1     -2127.028          38.000  
C30  22496580.441 1 117145612.955 1       763.172          31.000  
C37  22976928.004 1 119646804.262 1     -2152.249          33.000  
G 1  21473010.444 1 112841372.69111      2103.485          24.000                                                                  
G 7  21016289.526 1 110441186.513 1      1204.067          18.000                                                                  
G 8  21088228.024 1 110819383.498 1     -2944.264          29.000                                                                  
G21  20559318.280 1 108039920.96311      -202.714          31.000                                                                  
G27  23253673.617 1 122198682.190 1     -4014.559          16.000                                                                  
J 2  38500012.396 1 202318942.317 1       112.722          32.000                                                                  
> 2021  5 17  2 35  0.9991770  0 10                     
C 7  36818412.643 1 191723130.673 1      -799.516          33.000  
C27  21643508.711 1 112703418.964 1     -2126.286          38.000  
C30  22496283.347 1 117144070.289 1       761.171          30.000  
C37  22977196.318 1 119648177.626 1     -2155.399          31.000  
G 1  21472463.323 1 112838482.478 1      2099.920          26.000                                                                  
G 7  21015913.886 1 110439195.695 1      1203.638          19.000                                                                  
G 8  21088637.240 1 110821539.924 1     -2942.975          29.000                                                                  
G21  20559207.357 1 108039337.472 1      -205.788          26.000                                                                  
G27  23254298.384 1 122201906.049 1     -4008.645          14.000                                                                  
J 2  38499837.617 1 202318036.128 1       115.812          30.000    38499848.410 1 151081674.53411        78.397          20.000  
> 2021  5 17  2 35  1.9991762  0  7                     
C27  21643677.794 1 112704296.543 1     -2126.147          38.000  
C30  22495897.814 1 117142061.768 1       758.435          30.000  
C37  22977374.395 1 119649083.432 1     -2153.958          31.000  
G 1  21471826.564 1 112835123.177 1      2096.273          27.000                                                                  
G 8  21088958.318 1 110823222.809 1     -2942.432          24.000                                                                  
G27  23254836.811 1 122204992.118 1     -4003.991          11.000                                                                  
J 2  38499577.697 1 202316661.753 1       111.548          26.000    38499586.391 1 151080651.736 1        83.473          22.000  
> 2021  5 17  2 35  2.9991757  0  8                     
C 3  36474742.261 1                      -917.572          34.000  
C 7  36818329.301 1 191722692.75311      -793.971          19.000  
C27  21643934.416 1 112705642.462 1     -2126.621          38.000  
C30  22495602.219 1 117140523.080 1       757.665          30.000  
C37  22977641.210 1 119650456.424 1     -2152.976          31.000  
G 1  21471279.443 1 112832239.380 1      2096.096          24.000                                                                  
G21  20558901.569 1 108037705.70711      -210.722          26.000                                                                  
J 2  38499408.914 1 202315763.767 1       109.718          30.000    38499414.910 1 151079980.936 1        83.665          25.000  
> 2021  5 17  2 35  3.9991752  0  9                     
C 3  36474768.643 1 189933690.94711      -917.050          34.000  
C 7  36818333.498 1 191722707.065 1      -793.975          17.000  
C27  21644194.036 1 112706988.058 1     -2126.702          38.000  
C30  22495306.024 1 117138985.271 1       756.785          32.000  
C37  22977908.025 1 119651825.916 1     -2146.618          25.000  
G 7  21014694.929 1 110432767.92511      1193.847          20.000                                                                  
G 8  21089780.049 1 110827525.98111     -2938.932          25.000                                                                  
G21  20558790.945 1 108037128.916 1      -211.027          30.000                                                                  
J 2  38499238.032 1 202314865.935 1       110.604          31.000    38499243.129 1 151079308.117 1        86.022          26.000  
> 2021  5 17  2 35  4.9991744  0  8                     
C 3  36474704.787 1 189933358.965 1      -917.074          33.000  
C27  21644363.119 1 112707865.706 1     -2128.594          38.000  
C30  22494921.090 1 117136980.856 1       755.204          32.000  
C37  22978079.806 1 119652719.590 1     -2141.039          21.000  
G 1  21470089.266 1 112826003.70811      2090.628          34.000                                                                  
G 8  21090100.827 1 110829203.857 1     -2937.833          23.000                                                                  
G21  20558589.784 1 108036079.288 1      -210.226          32.000                                                                  
J 2  38498977.512 1 202313494.002 1       112.366          32.000    38498981.110 1 151078281.735 1        84.910          26.000  
> 2021  5 17  2 35  5.9991739  0  8                     
C 3  36474730.270 1 189933495.285 1      -917.018          34.000  
C27  21644619.442 1 112709212.776 1     -2128.494          38.000  
C30  22494622.797 1 117135444.794 1       755.544          34.000  
C37  22978340.626 1 119654082.122 1     -2144.642          28.000  
G 1  21469543.644 1 112823125.992 1      2089.815          30.000                                                                  
G 7  21013851.313 1 110428342.45711      1185.684          18.000                                                                  
G21  20558478.262 1 108035501.844 1      -211.196          31.000                                                                  
J 2  38498807.530 1 202312593.075 1       113.905          30.000    38498809.928 1 151077609.632 1        83.542          26.000  
> 2021  5 17  2 35  6.9991731  0  9                     
C 3  36474665.814 1 189933163.264 1      -916.962          34.000  
C27  21644788.525 1 112710091.925 1     -2128.718          38.000  
C30  22494239.962 1                       754.338          34.000  
C37  22978511.807 1 119654979.478 1     -2147.688          33.000  
G 1  21468907.485 1 112819776.254 1      2088.891          30.000                                                                  
G 7  21013378.841 1 110425899.835 1      1187.259          17.000                                                                  
G 8  21090831.121 1 110833048.02211     -2948.892          14.000                                                                  
G21  20558277.701 1 108034451.400 1      -209.821          32.000                                                                  
J 2  38498546.711 1 202311217.638 1       115.006          30.000                                                                  
> 2021  5 17  2 35  7.9991724  0  9                     
C 3  36474631.338 1 189932987.142 1      -916.650          34.000  
C 7  36818103.257 1 191721500.02711      -789.768          15.000  
C27  21644988.186 1 112711127.318 1     -2128.591          37.000  
C30  22493886.806 1 117131562.54811       757.018          34.000  
C37  22978715.366 1 119656036.125 1     -2151.497          32.000  
G 1  21468301.304 1 112816583.940 1      2090.309          29.000                                                                  
G21  20558107.119 1 108033558.127 1      -208.930          32.000                                                                  
J 2  38498316.170 1 202310000.167 1       114.471          31.000                                                                  
J 3  38645549.942 1 203083678.48911     -1825.162          30.000                                                                  
> 2021  5 17  2 35  8.9991721  0  8                     
C 7  36818163.216 1 191721820.774 1      -788.771          16.000  
C27  21645307.765 1 112712787.340 1     -2127.026          34.000  
C30  22493651.769 1 117130336.588 1       758.136          25.000  
G 1  21467815.041 1 112814022.686 1      2088.516          25.000                                                                  
G 8  21091650.754 1 110837381.77411     -2948.004          16.000                                                                  
G21  20558058.252 1 108033295.171 1      -211.964          30.000                                                                  
J 2  38498205.247 1 202309413.292 1       112.781          32.000                                                                  
J 3  38645808.364 1 203085029.850 1     -1824.426          28.000                                                                  
> 2021  5 17  2 35  9.9991713  0  9                     
C27  21645475.349 1 112713665.547 1     -2127.237          32.000  
C30  22493266.536 1 117128329.282 1       757.730          30.000  
C37  22979214.521 1 119658622.94911     -2152.242          24.000  
G 1  21467179.481 1 112810672.098 1      2092.102          27.000                                                                  
G 7  21012152.390 1 110419471.83411      1206.229          17.000                                                                  
G 8  21091965.836 1 110839065.064 1     -2939.895          16.000                                                                  
G21  20557861.289 1 108032247.686 1      -213.772          29.000                                                                  
J 2  38497945.927 1 202308040.142 1       112.432          27.000                                                                  
J 3  38645915.090 1 203085594.564 1     -1826.280          24.000                                                                  
> 2021  5 17  2 35 10.9991708  0  9                     
C 7  36818074.178 1 191721362.29011      -784.860          15.000  
C27  21645733.770 1 112715012.589 1     -2127.285          36.000  
C30  22492970.341 1 117126792.341 1       753.668          27.000  
C37  22979479.837 1 119659995.145 1     -2152.317          23.000  
G 1  21466637.756 1 112807790.395 1      2095.277          17.000                                                                  
G 7  21011782.446 1 110417475.976 1      1211.499          17.000                                                                  
G21  20557756.062 1 108031674.128 1      -214.536          29.000                                                                  
J 2  38497773.546 1 202307140.035 1       111.649          28.000                                                                  
J 3  38646111.754 1 203086634.777 1     -1830.365          21.000                                                                  
> 2021  5 17  2 35 11.9991700  0  7                     
C27  21645904.052 1                     -2128.194          34.000  
C30  22492586.606 1 117124790.021 1       753.636          22.000  
C37  22979655.815 1 119660897.990 1     -2152.016          21.000  
G 1  21466005.494 1 112804432.950 1      2096.813          17.000                                                                  
G 7  21011320.166 1 110415009.880 1      1201.356          26.000                                                                  
G21  20557554.002 1 108030628.838 1      -215.680          27.000                                                                  
J 2  38497512.427 1 202305767.902 1       113.203          28.000                                                                  
> 2021  5 17  2 35 12.9991693  0  6                     
C27  21646104.014 1 112716939.11511     -2128.433          35.000  
C30  22492232.551 1 117122943.638 1       754.182          21.000  
C37  22979860.274 1 119661957.718 1     -2151.280          22.000  
G 1  21465397.814 1 112801234.130 1      2093.730          24.000                                                                  
G21  20557382.820 1 108029741.909 1      -215.810          26.000                                                                  
J 2  38497279.788 1 202304550.917 1       114.488          24.000                                                                  
> 2021  5 17  2 35 13.9991688  0  5                     
C27  21646360.936 1 112718287.563 1     -2131.088          34.000  
C30  22491936.956 1 117121409.233 1       752.898          24.000  
G 1  21464847.096 1 112798355.368 1      2091.344          23.000                                                                  
G 7  21010503.531 1 110410726.41511      1194.528          24.000                                                                  
G21  20557272.496 1 108029170.526 1      -216.786          28.000                                                                  
> 2021  5 17  2 35 14.9991683  0  6                     
C27  21646620.257 1 112719636.760 1     -2131.191          36.000  
C30  22491641.361 1 117119875.101 1       752.871          23.000  
G 1  21464299.974 1 112795475.513 1      2091.895          31.000                                                                  
G 8  21093862.023 1 110849005.09311     -2918.209          12.000                                                                  
G21  20557162.173 1 108028600.051 1      -218.060          27.000                                                                  
J 2  38496936.226 1 202302747.82411       113.903          20.000                                                                  
> 2021  5 17  2 35 15.9991677  0  5                     
C 3  36474634.636 1 189932993.21111      -913.474          30.000  
C27  21646849.598 1 112720830.419 1     -2131.253          35.000  
C30  22491316.086 1 117118187.313 1       749.024          23.000  
G21  20557025.767 1 108027872.858 1      -218.169          33.000                                                                  
J 2  38496733.866 1 202301688.525 1       113.940          25.000                                                                  
> 2021  5 17  2 35 16.9991670  0  5                     
C27  21647050.759 1 112721868.769 1     -2132.787          34.000  
C30  22490964.130 1 117116345.509 1       750.859          23.000  
G 7  21009275.881 1 110404309.59411      1193.282          20.000                                                                  
G21  20556858.483 1 108026987.986 1      -218.365          31.000                                                                  
J 2  38496502.126 1 202300471.520 1       113.952          27.000                                                                  
> 2021  5 17  2 35 17.9991662  0  7                     
C27  21647221.041 1 112722752.327 1     -2130.087          33.000  
C30  22490577.997 1 117114344.706 1       752.977          23.000  
G 1  21462472.440 1 112785894.00911      2090.882          24.000                                                                  
G 7  21008807.905 1 110401859.678 1      1188.980          25.000                                                                  
G 8  21094912.196 1 110854499.31811     -2945.669          22.000                                                                  
G21  20556663.918 1 108025943.102 1      -214.485          32.000                                                                  
J 2  38496241.606 1 202299097.511 1       113.460          30.000                                                                  
> 2021  5 17  2 35 18.9991657  0  4                     
C27  21647479.162 1 112724104.587 1     -2133.715          27.000  
C30  22490283.301 1 117112810.192 1       754.272          25.000  
G21  20556552.095 1 108025371.370 1      -216.351          25.000                                                                  
J 2  38496073.123 1 202298195.602 1       114.392          27.000                                                                  
> 2021  5 17  2 35 19.9991652  0  5                     
C27  21647737.883 1 112725457.038 1     -2132.191          35.000  
C30  22489986.506 1 117111276.081 1       752.245          27.000  
G 8  21095734.827 1 110858814.47511     -2944.291          23.000                                                                  
G21  20556444.769 1 108024800.536 1      -216.018          26.000                                                                  
J 2  38495899.244 1 202297294.009 1       112.499          27.000                                                                  
> 2021  5 17  2 35 20.9991647  0  5                     
C27  21647996.004 1 112726808.965 1     -2132.954          35.000  
C30  22489691.810 1 117109742.526 1       753.422          27.000  
G 7  21007683.683 1 110395924.43611      1192.839          26.000                                                                  
G21  20556336.544 1 108024228.264 1      -214.677          10.000                                                                  
J 2  38495727.762 1 202296393.196 1       113.133          29.000                                                                  
> 2021  5 17  2 35 21.9991639  0  6                     
C 7  36817684.447 1 191719264.76711      -793.263          29.000  
C27  21648166.586 1 112727692.737 1     -2133.845          34.000  
C30  22489306.877 1 117107739.041 1       755.327          25.000  
G 8  21096469.918 1 110862655.90311     -2945.634          26.000                                                                  
G21  20556136.883 1 108023182.859 1      -215.842          17.000                                                                  
J 2  38495466.343 1 202295018.910 1       114.294          28.000                                                                  
> 2021  5 17  2 35 22.9991631  0  7                     
C 7  36817595.409 1 191718808.184 1      -791.225          30.000  
C27  21648335.669 1                     -2133.734          35.000  
C30  22488922.843 1 117105734.393 1       755.587          26.000  
G 1  21459555.459 1 112770563.19611      2091.350          30.000                                                                  
G 8  21096790.696 1 110864341.581 1     -2946.735          25.000                                                                  
G21  20555937.820 1 108022139.936 1      -219.452          29.000                                                                  
J 2  38495204.025 1 202293644.005 1       114.396          30.000                                                                  
> 2021  5 17  2 35 23.9991626  0  7                     
C 7  36817596.608 1 191718818.349 1      -790.014          30.000  
C27  21648592.891 1 112729916.47111     -2131.537          34.000  
C30  22488627.547 1 117104200.105 1       752.386          23.000  
G 1  21459006.539 1 112767684.450 1      2091.138          29.000                                                                  
G 8  21097202.311 1 110866500.021 1     -2946.081          25.000                                                                  
G21  20555829.595 1 108021572.819 1      -221.509          32.000                                                                  
J 2  38495030.745 1 202292741.636 1       114.692          28.000                                                                  
> 2021  5 17  2 35 24.9991619  0  5                     
C 7  36817537.849 1 191718515.283 1      -788.773          31.000  
C27  21648795.551 1                     -2129.309          32.000  
C30  22488270.794 1 117102355.164 1       750.210          20.000  
G 8  21097550.670 1 110868342.239 1     -2944.233          26.000                                                                  
J 2  38494802.303 1 202291523.601 1       115.396          24.000                                                                  
> 2021  5 17  2 35 25.9991616  0  5                     
C 7  36817599.606 1 191718834.385 1      -786.438          31.000  
C27  21649116.329 1                     -2129.842          33.000  
G 1  21457902.103 1 112761924.36611      2094.048          17.000                                                                  
G 8  21098017.746 1 110870813.225 1     -2942.636          24.000                                                                  
J 2  38494690.780 1 202290935.414 1       116.782          19.000                                                                  
> 2021  5 17  2 35 26.9991608  0  6                     
C 7  36817510.868 1 191718370.592 1      -783.630          27.000  
C27  21649283.913 1                     -2127.673          33.000  
C30  22487649.924 1 117099142.79511       745.747          23.000  
G 1  21457263.546 1 112758570.779 1      2093.635          16.000                                                                  
G 8  21098336.126 1 110872493.853 1     -2937.753          19.000                                                                  
J 2  38494428.462 1 202289557.083 1       118.675          25.000                                                                  
> 2021  5 17  2 35 27.9991601  0  4                     
C 7  36817454.507 1 191718062.495 1      -785.490          21.000  
C27  21649482.375 1 112734533.34911     -2127.251          34.000  
C30  22487296.768 1 117097305.109 1       743.052          30.000  
G 1  21456656.466 1 112755375.974 1      2091.900          14.000                                                                  
> 2021  5 17  2 35 28.9991596  0  6                     
C 7  36817457.205 1 191718069.163 1      -789.031          23.000  
C27  21649745.893 1 112735879.299 1     -2127.716          32.000  
C30  22487004.471 1 117095783.125 1       740.491          28.000  
G 1  21456108.745 1 112752496.730 1      2088.815          13.000                                                                  
G21  20555140.672 1 108017940.91311      -227.677          23.000                                                                  
J 2  38494023.142 1 202287423.95711       121.234          23.000                                                                  
> 2021  5 17  2 35 29.9991588  0  4                     
C 7  36817368.766 1 191717605.157 1      -777.847          19.000  
C27  21649912.278 1 112736754.508 1     -2122.881          26.000  
C30  22486623.435 1 117093796.328 1       736.489          28.000  
J 2  38493762.922 1 202286039.404 1       126.089          19.000                                                                  
> 2021  5 17  2 35 30.9991583  0  5                     
C 7  36817366.068 1 191717598.454 1      -769.083          21.000  
C27  21650170.099 1 112738097.763 1     -2127.616          23.000  
C30  22486332.336 1 117092282.093 1       731.626          30.000  
G21  20554842.679 1 108016358.45011      -236.145          19.000                                                                  
J 2  38493589.343 1 202285124.584 1       127.442          23.000                                                                  
> 2021  5 17  2 35 31.9991578  0  5                     
C 7  36817362.171 1 191717584.926 1      -765.728          21.000  
G 8  21100229.915 1 110882424.76611     -2921.431          21.000                                                                  
G21  20554737.751 1 108015807.125 1      -236.204          22.000                                                                  
J 2  38493415.163 1 202284209.058 1       128.564          27.000                                                                  
J 3  38649504.205 1 203104467.16611     -1811.891          31.000                                                                  
> 2021  5 17  2 35 32.9991570  0  7                     
C27  21650604.798 1 112740325.99511     -2129.475          26.000  
C30  22485665.298 1 117088802.92611       723.055          30.000  
G 1  21453756.274 1 112740138.26711      2049.355          14.000                                                                  
G 7  21002636.977 1 110369411.34811      1199.921          25.000                                                                  
G21  20554543.785 1 108014780.812 1      -232.342          25.000                                                                  
J 2  38493150.746 1 202282818.596 1       131.314          27.000                                                                  
J 3  38649609.132 1 203105017.656 1     -1807.981          31.000                                                                  
> 2021  5 17  2 35 33.9991565  0  9                     
C 9  36690298.435 1 191056011.25611     -2295.272          30.000  
C27  21650865.018 1 112741673.271 1     -2126.090          27.000  
C30  22485375.998 1 117087300.021 1       720.655          30.000  
G 1  21453217.247 1 112737296.953 1      2056.897          14.000                                                                  
G 7  21002257.740 1 110367425.638 1      1194.947          29.000                                                                  
G 8  21100946.719 1 110886209.73511     -2916.513          21.000                                                                  
G21  20554439.757 1 108014222.726 1      -227.182          26.000                                                                  
J 2  38492970.571 1 202281896.914 1       135.781          30.000                                                                  
J 3  38649804.297 1 203106036.226 1     -1804.238          31.000                                                                  
> 2021  5 17  2 35 34.9991557  0  9                     
C 9  36690500.495 1 191057058.841 1     -2298.051          29.000  
C27  21651038.598 1 112742549.287 1     -2124.351          25.000  
C30  22484998.859 1 117085331.180 1       719.233          29.000  
G 1  21452587.683 1 112733975.438 1      2063.761          16.000                                                                  
G 7  21001792.462 1 110364972.886 1      1189.925          28.000                                                                  
G 8  21101265.698 1 110887866.576 1     -2918.353          22.000                                                                  
G21  20554243.094 1 108013186.866 1      -223.223          26.000                                                                  
J 2  38492704.955 1 202280498.476 1       140.454          30.000                                                                  
J 3  38649907.726 1 203106578.585 1     -1800.925          31.000                                                                  
> 2021  5 17  2 35 35.9991552  0  8                     
C 7  36817170.004 1 191716571.51011      -760.114          18.000  
C 9  36690793.092 1 191058577.328 1     -2299.297          30.000  
C30  22484711.658 1 117083832.528 1       717.191          29.000  
G 1  21452057.350 1 112731128.045 1      2056.838          16.000                                                                  
G 7  21001417.121 1 110362996.831 1      1186.624          24.000                                                                  
G21  20554137.267 1 108012620.636 1      -220.827          27.000                                                                  
J 2  38492528.077 1 202279569.520 1       142.477          30.000                                                                  
J 3  38650104.390 1 203107591.751 1     -1802.207          33.000                                                                  
> 2021  5 17  2 35 36.9991547  0 10                     
C 7  36817166.706 1 191716552.764 1      -762.536          18.000  
C 9  36691086.290 1 191060096.739 1     -2301.070          28.000  
C27  21651564.734 1 112745228.31811     -2117.642          22.000  
C30  22484424.157 1 117082334.062 1       718.252          29.000  
G 1  21451512.027 1 112728276.698 1      2068.620          15.000                                                                  
G 7  21001040.582 1 110361024.055 1      1184.264          22.000                                                                  
G 8  21102096.722 1 110892131.06011     -2923.702          20.000                                                                  
G21  20554027.543 1 108012053.740 1      -221.050          24.000                                                                  
J 2  38492350.001 1 202278639.410 1       142.334          30.000                                                                  
J 3  38650293.858 1                     -1801.311          33.000                                                                  
> 2021  5 17  2 35 37.9991539  0  8                     
C 7  36817073.470 1 191716066.819 1      -764.665          19.000  
C 9  36691289.249 1 191061148.157 1     -2300.213          29.000  
C27  21651733.217 1 112746095.611 1     -2116.273          23.000  
C30  22484047.018 1 117080367.498 1       717.519          30.000  
G 1  21450875.268 1 112724946.319 1      2071.727          14.000                                                                  
G21  20553829.080 1 108011014.754 1      -222.204          25.000                                                                  
J 2  38492083.185 1 202277236.723 1       142.385          30.000                                                                  
J 3  38650399.085 1 203109206.06811     -1804.646          33.000                                                                  
> 2021  5 17  2 35 38.9991534  0  7                     
C 9  36691580.347 1 191062667.476 1     -2299.688          29.000  
C27  21651991.638 1 112747431.226 1     -2116.861          22.000  
C30  22483759.517 1 117078869.272 1       717.892          31.000  
G 8  21102821.021 1 110895928.32211     -2921.704          19.000                                                                  
G21  20553722.654 1 108010449.621 1      -223.459          25.000                                                                  
J 2  38491905.408 1 202276306.315 1       142.654          30.000                                                                  
J 3  38650590.653 1 203110219.878 1     -1801.036          32.000                                                                  
> 2021  5 17  2 35 39.9991526  0  9                     
C 9  36691780.309 1 191063717.201 1     -2298.195          28.000  
C16  38133560.186 1 198571454.47411     -2579.480          27.000  
C27  21652161.920 1 112748299.745 1     -2118.270          23.000  
C30  22483381.779 1 117076902.470 1       717.822          30.000  
C37  22986009.017 1 119694180.73111     -2142.337          26.000  
G 8  21103141.199 1 110897589.560 1     -2921.484          19.000                                                                  
G21  20553524.491 1 108009413.205 1      -224.599          25.000                                                                  
J 2  38491637.994 1 202274903.348 1       143.011          28.000                                                                  
J 3  38650695.580 1 203110760.937 1     -1799.580          32.000                                                                  
> 2021  5 17  2 35 40.9991521  0 10                     
C 9  36692070.508 1 191065234.603 1     -2298.150          29.000  
C16  38133904.048 1 198573252.897 1     -2579.411          28.000  
C30  22483092.479 1 117075404.397 1       717.037          30.000  
C37  22986270.736 1 119695542.283 1     -2141.934          29.000  
E 1  25330807.247 1  99403528.01611       265.129          27.000  
G 1  21449174.545 1 112716172.43811      2070.269          17.000                                                                  
G16  24317909.861 1 127791477.96511     -2698.759          22.000                                                                  
G21  20553418.065 1 108008850.345 1      -225.210          26.000                                                                  
J 2  38491461.716 1 202273973.208 1       141.798          29.000                                                                  
J 3  38650884.449 1 203111774.270 1     -1801.254          31.000                                                                  
> 2021  5 17  2 35 41.9991514  0 10                     
C 9  36692301.348 1 191066440.151 1     -2298.825          29.000  
C16  38134190.050 1 198574739.581 1     -2579.592          28.000  
C27  21652614.307 1 112750669.05611     -2122.879          24.000  
C30  22482744.120 1 117073595.156 1       716.443          28.000  
C37  22986474.595 1 119696591.060 1     -2141.201          28.000  
E 1  25330529.639 1  99402439.019 1       266.139          28.000  
G 8  21103893.678 1 110901540.75611     -2920.594          20.000                                                                  
G21  20553251.080 1 108007972.534 1      -225.160          26.000                                                                  
J 2  38491225.779 1 202272728.427 1       141.887          29.000                                                                  
J 3  38651017.557 1 203112472.394 1     -1800.834          32.000                                                                  
> 2021  5 17  2 35 42.9991511  0 11                     
C 9  36692651.806 1 191068270.332 1     -2298.408          29.000  
C16  38134595.669 1 198576849.785 1     -2577.993          28.000  
C27  21652930.888 1 112752324.093 1     -2123.506          23.000  
C30  22482514.779 1 117072409.707 1       717.894          28.000  
C37  22986798.371 1 119698264.779 1     -2143.576          27.000  
E 1  25330371.349 1  99401819.263 1       268.162          28.000  
G 8  21104361.954 1 110903988.081 1     -2919.772          21.000                                                                  
G16  24318630.862 1 127795297.20511     -2694.767          21.000                                                                  
G21  20553205.212 1 108007725.271 1      -225.869          25.000                                                                  
J 2  38491107.960 1 202272113.893 1       141.836          28.000                                                                  
J 3  38651272.081 1 203113800.479 1     -1801.976          31.000                                                                  
> 2021  5 17  2 35 43.9991503  0 10                     
C 9  36692852.067 1 191069319.308 1     -2297.474          30.000  
C16  38134851.692 1 198578178.950 1     -2578.059          28.000  
C27  21653100.870 1 112753199.049 1     -2125.276          22.000  
C30  22482133.443 1 117070443.020 1       717.032          28.000  
C37  22986971.950 1 119699159.620 1     -2145.334          27.000  
E 1  25330062.862 1  99400609.999 1       268.144          29.000  
G 8  21104678.235 1 110905647.486 1     -2920.417          21.000                                                                  
G21  20553010.047 1 108006690.969 1      -226.487          27.000                                                                  
J 2  38490842.045 1 202270711.566 1       142.498          29.000                                                                  
J 3  38651379.707 1 203114340.724 1     -1799.510          32.000                                                                  
> 2021  5 17  2 35 44.9991496  0  8                     
C 9  36693082.607 1 191070524.328 1     -2297.609          30.000  
C16  38135137.694 1 198579664.706 1     -2578.897          27.000  
C30  22481784.185 1 117068632.863 1       717.515          28.000  
C37  22987174.310 1 119700211.658 1     -2144.538          26.000  
E 1  25329784.655 1  99399518.260 1       268.144          28.000  
G21  20552841.864 1 108005815.210 1      -227.427          25.000                                                                  
J 2  38490604.909 1 202269466.668 1       142.637          28.000                                                                  
J 3  38651510.416 1 203115038.220 1     -1800.369          31.000                                                                  
> 2021  5 17  2 35 45.9991491  0  9                     
C 7  36816815.349 1 191714685.16011      -763.573          22.000  
C 9  36693374.006 1 191072041.039 1     -2296.882          29.000  
C16  38135482.455 1 198581463.268 1     -2579.073          27.000  
C30  22481495.784 1 117067135.389 1       716.626          28.000  
C37  22987438.727 1 119701575.756 1     -2145.347          27.000  
E 1  25329566.106 1  99398661.555 1       268.951          29.000  
G21  20552733.039 1 108005254.740 1      -226.963          25.000                                                                  
J 2  38490428.031 1 202268536.808 1       142.158          28.000                                                                  
J 3  38651696.887 1 203116050.616 1     -1800.691          31.000                                                                  
> 2021  5 17  2 35 46.9991483  0 10                     
C 7  36816722.413 1 191714199.582 1      -762.945          22.000  
C 9  36693575.466 1 191073089.063 1     -2296.666          30.000  
C16  38135738.478 1 198582792.827 1     -2578.406          28.000  
C27  21653718.143 1 112756447.74311     -2122.667          24.000  
C30  22481116.847 1 117065170.137 1       715.945          29.000  
C37  22987611.708 1 119702471.865 1     -2145.303          27.000  
E 1  25329258.219 1  99397451.953 1       268.466          29.000  
G21  20552536.975 1 108004221.402 1      -227.440          24.000                                                                  
J 2  38490161.815 1 202267133.786 1       142.765          28.000                                                                  
J 3  38651802.114 1 203116590.399 1     -1799.589          31.000                                                                  
> 2021  5 17  2 35 47.9991478  0 10                     
C 9  36693866.265 1 191074605.726 1     -2298.122          30.000  
C16  38136085.038 1 198584591.150 1     -2579.083          27.000  
C27  21653973.866 1 112757789.356 1     -2121.976          25.000  
C30  22480828.446 1 117063672.638 1       717.003          29.000  
C37  22987873.726 1 119703835.996 1     -2144.319          27.000  
E 1  25329039.971 1  99396595.268 1       269.100          28.000  
G16  24320202.074 1 127803576.59411     -2694.952          16.000                                                                  
G21  20552428.750 1 108003661.495 1      -228.216          23.000                                                                  
J 2  38489985.238 1 202266203.587 1       141.947          28.000                                                                  
J 3  38651996.080 1 203117602.625 1     -1801.515          31.000                                                                  
> 2021  5 17  2 35 48.9991473  0 10                     
C 7  36816713.420 1 191714166.10011      -764.610          21.000  
C 9  36694157.363 1 191076123.170 1     -2297.936          30.000  
C16  38136430.399 1 198586389.192 1     -2578.719          28.000  
C27  21654229.889 1 112759131.560 1     -2124.139          24.000  
C30  22480540.346 1 117062175.043 1       716.993          29.000  
C37  22988136.045 1 119705199.868 1     -2144.406          26.000  
E 1  25328822.021 1  99395738.586 1       267.415          28.000  
G21  20552322.323 1 108003101.425 1      -227.309          25.000                                                                  
J 2  38489806.861 1 202265273.600 1       142.378          28.000                                                                  
J 3  38652187.348 1 203118614.613 1     -1800.822          31.000                                                                  
> 2021  5 17  2 35 49.9991465  0 10                     
C 7  36816621.383 1 191713681.384 1      -764.106          21.000  
C 9  36694359.124 1 191077171.940 1     -2297.433          30.000  
C16  38136685.222 1 198587718.700 1     -2578.402          27.000  
C27  21654396.573 1 112760006.777 1     -2124.127          23.000  
C30  22480163.207 1 117060208.734 1       718.269          29.000  
C37  22988307.526 1 119706095.852 1     -2145.716          26.000  
E 1  25328514.135 1  99394529.435 1       269.401          28.000  
G21  20552123.561 1 108002068.671 1      -227.562          24.000                                                                  
J 2  38489541.545 1 202263870.433 1       143.060          28.000                                                                  
J 3  38652296.172 1 203119153.767 1     -1800.189          31.000                                                                  
> 2021  5 17  2 35 50.9991460  0 10                     
C 7  36816617.186 1 191713663.200 1      -761.389          21.000  
C 9  36694650.822 1 191078688.764 1     -2298.119          30.000  
C16  38137031.183 1 198589516.763 1     -2579.464          27.000  
C27  21654653.795 1 112761349.724 1     -2123.197          24.000  
C30  22479875.706 1 117058710.509 1       716.814          29.000  
C37  22988568.945 1 119707460.656 1     -2144.743          26.000  
E 1  25328295.586 1  99393671.809 1       269.249          28.000  
G21  20552018.034 1 108001509.224 1      -228.130          25.000                                                                  
J 2  38489362.569 1 202262939.303 1       143.749          27.000                                                                  
J 3  38652487.140 1 203120165.305 1     -1798.582          31.000                                                                  
> 2021  5 17  2 35 51.9991452  0 10                     
C 7  36816523.951 1 191713174.729 1      -759.855          21.000  
C 9  36694851.983 1 191079737.827 1     -2298.126          28.000  
C16  38137288.704 1 198590847.825 1     -2579.393          26.000  
C27  21654818.681 1 112762223.774 1     -2122.578          23.000  
C30  22479496.768 1 117056744.742 1       716.467          28.000  
C37  22988740.126 1 119708355.829 1     -2143.894          25.000  
E 1  25327987.399 1  99392461.742 1       268.927          28.000  
G21  20551822.869 1 108000478.013 1      -230.564          27.000                                                                  
J 2  38489093.055 1 202261535.319 1       143.409          28.000                                                                  
J 3  38652589.969 1 203120704.050 1     -1800.467          31.000                                                                  
> 2021  5 17  2 35 52.9991447  0 10                     
C 7  36816520.054 1 191713153.666 1      -759.014          21.000  
C 9  36695144.880 1 191081254.851 1     -2297.241          29.000  
C16  38137635.564 1 198592645.710 1     -2578.266          27.000  
C27  21655076.502 1 112763568.137 1     -2125.860          22.000  
C30  22479208.368 1 117055247.876 1       716.172          28.000  
C37  22989002.745 1 119709719.990 1     -2145.049          23.000  
E 1  25327768.850 1  99391605.005 1       268.535          27.000  
G21  20551720.940 1 107999920.630 1      -231.501          28.000                                                                  
J 2  38488915.278 1 202260603.781 1       144.602          29.000                                                                  
J 3  38652781.536 1 203121715.175 1     -1799.091          32.000                                                                  
> 2021  5 17  2 35 53.9991442  0 10                     
C 7  36816515.856 1 191713131.694 1      -758.743          21.000  
C 9  36695437.477 1 191082771.820 1     -2297.782          30.000  
C16  38137982.424 1 198594443.157 1     -2578.087          26.000  
C27  21655335.523 1 112764913.403 1     -2125.721          23.000  
C37  22989264.463 1 119711084.693 1     -2144.426          24.000  
E 1  25327550.302 1  99390747.568 1       270.053          28.000  
G 8  21108400.159 1 110925245.57011     -2921.174          18.000                                                                  
G21  20551616.612 1 107999363.848 1      -230.920          26.000                                                                  
J 2  38488735.703 1 202259671.811 1       144.213          28.000                                                                  
J 3  38652972.204 1 203122726.121 1     -1798.199          31.000                                                                  
> 2021  5 17  2 35 54.9991434  0 10                     
C 7  36816421.722 1 191712640.777 1      -758.264          23.000  
C 9  36695638.338 1 191083820.443 1     -2297.662          29.000  
C16  38138238.747 1 198595772.264 1     -2578.177          27.000  
C27  21655504.606 1 112765790.427 1     -2125.467          23.000  
C30  22478538.931 1 117051786.64011       715.952          27.000  
C37  22989435.945 1 119711980.586 1     -2144.727          22.000  
E 1  25327240.916 1  99389535.528 1       270.579          28.000  
G21  20551421.147 1 107998334.656 1      -231.627          27.000                                                                  
J 2  38488467.388 1 202258267.029 1       144.270          27.000                                                                  
J 3  38653071.435 1 203123264.229 1     -1797.855          31.000                                                                  
> 2021  5 17  2 35 55.9991429  0  8                     
C 9  36695929.736 1 191085336.844 1     -2296.855          28.000  
C16  38138585.607 1 198597569.447 1     -2577.169          25.000  
C27  21655763.927 1 112767135.877 1     -2125.675          22.000  
C30  22478248.732 1 117050290.961 1       714.919          25.000  
E 1  25327022.367 1  99388676.676 1       270.034          27.000  
G21  20551314.721 1 107997779.300 1      -232.778          25.000                                                                  
J 2  38488288.712 1 202257335.287 1       144.167          27.000                                                                  
J 3  38653263.303 1 203124274.798 1     -1798.451          30.000                                                                  
> 2021  5 17  2 35 56.9991421  0 11                     
C 7  36816325.488 1 191712127.71711      -759.529          20.000  
C 9  36696132.696 1 191086385.047 1     -2297.229          28.000  
C16  38138841.030 1 198598898.015 1     -2576.668          26.000  
C27  21655934.509 1 112768011.771 1     -2123.625          24.000  
C30  22477872.792 1 117048327.906 1       714.073          26.000  
C37  22989870.044 1 119714241.85911     -2146.813          21.000  
E 1  25326714.780 1  99387466.185 1       269.402          28.000  
G 8  21109438.640 1 110930696.90011     -2921.309          17.000                                                                  
G21  20551120.156 1 107996751.387 1      -232.584          26.000                                                                  
J 2  38488022.796 1 202255930.405 1       144.576          27.000                                                                  
J 3  38653374.526 1 203124812.545 1     -1798.089          30.000                                                                  
> 2021  5 17  2 35 57.9991416  0  9                     
C 7  36816322.790 1 191712106.297 1      -759.067          23.000  
C 9  36696427.092 1 191087902.052 1     -2297.126          30.000  
C16  38139186.391 1 198600694.428 1     -2577.273          27.000  
C27  21656194.728 1 112769355.371 1     -2124.390          23.000  
C30  22477587.690 1 117046832.779 1       715.019          28.000  
E 1  25326495.932 1  99386608.170 1       270.044          27.000  
G21  20551017.027 1 107996196.540 1      -233.968          27.000                                                                  
J 2  38487845.319 1 202254998.972 1       143.790          28.000                                                                  
J 3  38653565.194 1 203125822.687 1     -1798.318          31.000                                                                  
> 2021  5 17  2 35 58.9991409  0 10                     
C 7  36816260.133 1 191711772.825 1      -759.000          22.000  
C 9  36696660.630 1 191089106.084 1     -2296.767          28.000  
C16  38139471.493 1 198602178.900 1     -2576.302          26.000  
C27  21656393.791 1 112770387.848 1     -2125.144          24.000  
C30  22477241.430 1 117045025.077 1       715.548          27.000  
C37  22990334.123 1 119716661.20511     -2146.632          22.000  
E 1  25326218.024 1  99385514.864 1       268.887          27.000  
G21  20550852.741 1 107995327.928 1      -234.431          27.000                                                                  
J 2  38487607.584 1 202253752.089 1       144.460          27.000                                                                  
J 3  38653694.704 1 203126517.507 1     -1797.411          30.000                                                                  
> 2021  5 17  2 35 59.9991406  0  9                     
C 9  36697013.486 1 191090934.268 1     -2296.700          29.000  
C16  38139875.314 1 198604286.767 1     -2575.976          27.000  
C27  21656713.969 1 112772044.359 1     -2124.324          22.000  
C30  22477016.285 1 117043841.443 1       714.931          27.000  
C37  22990655.500 1 119718340.575 1     -2148.517          22.000  
E 1  25326059.134 1  99384891.320 1       271.430          29.000  
G21  20550808.671 1 107995090.000 1      -234.520          28.000                                                                  
J 2  38487488.566 1 202253135.023 1       145.156          27.000                                                                  
J 3  38653951.626 1 203127842.286 1     -1797.267          30.000                                                                  
> 2021  5 17  2 36  0.9991398  0  9                     
C 7  36816217.263 1 191711571.94211      -756.846          21.000  
C 9  36697214.947 1 191091982.301 1     -2297.493          29.000  
C16  38140130.437 1 198605614.086 1     -2577.407          27.000  
C27  21656883.651 1 112772920.362 1     -2125.046          22.000  
C30  22476640.346 1 117041878.349 1       714.126          27.000  
E 1  25325750.048 1  99383679.098 1       271.185          29.000  
G21  20550613.506 1 107994064.404 1      -234.526          29.000                                                                  
J 2  38487221.751 1 202251728.814 1       146.149          28.000                                                                  
J 3  38654051.457 1 203128379.114 1     -1797.051          30.000                                                                  
> 2021  5 17  2 36  1.9991391  0 12                     
C 7  36816151.009 1 191711235.711 1      -757.543          22.000  
C 9  36697446.387 1 191093186.078 1     -2296.202          29.000  
C16  38140414.940 1 198607098.927 1     -2578.155          27.000  
C27  21657083.613 1 112773952.979 1     -2125.243          21.000  
C30  22476295.285 1 117040071.094 1       714.157          26.000  
C37  22991032.040 1 119720294.44311     -2147.204          21.000  
E 1  25325470.642 1  99382583.815 1       271.450          29.000  
G 1  21437017.961 1 112652310.12911      2064.215          17.000                                                                  
G 7  20990719.327 1 110306786.68311      1183.260          27.000                                                                  
G21  20550448.321 1 107993195.758 1      -234.120          27.000                                                                  
J 2  38486983.416 1 202250479.869 1       145.890          29.000                                                                  
J 3  38654182.466 1 203129073.254 1     -1797.098          30.000                                                                  
> 2021  5 17  2 36  2.9991386  0 13                     
C 2 504674028.278 1                     -2577.993          26.000  
C 7  36816147.711 1 191711211.824 1      -755.373          22.000  
C 9  36697738.085 1 191094702.318 1     -2297.119          28.000  
C16  38140760.001 1 198608895.919 1     -2576.866          27.000  
C27  21657342.334 1 112775298.172 1     -2126.827          23.000  
C30  22476011.681 1 117038576.742 1       713.483          27.000  
C37  22991294.658 1 119721660.510 1     -2146.038          22.000  
E 1  25325252.093 1  99381725.312 1       270.229          29.000  
G 1  21436482.232 1 112649456.877 1      2065.765          17.000                                                                  
G 7  20990345.486 1 110304815.494 1      1183.183          27.000                                                                  
G21  20550342.494 1 107992642.223 1      -234.494          28.000                                                                  
J 2  38486806.238 1 202249546.848 1       145.299          27.000                                                                  
J 3  38654370.136 1 203130082.270 1     -1796.460          31.000                                                                  
> 2021  5 17  2 36  3.9991378  0 10                     
C 9  36697940.145 1 191095750.682 1     -2297.518          29.000  
C16  38141015.424 1 198610223.117 1     -2576.012          27.000  
C27  21657511.417 1 112776176.970 1     -2127.779          22.000  
C30  22475635.741 1 117036614.440 1       713.729          27.000  
C37  22991467.338 1 119722556.964 1     -2146.036          19.000  
E 1  25324943.606 1  99380514.391 1       270.928          28.000  
G 7  20989878.110 1 110302372.713 1      1181.545          26.000                                                                  
G21  20550145.830 1 107991616.531 1      -234.954          28.000                                                                  
J 2  38486538.824 1 202248140.752 1       146.449          28.000                                                                  
J 3  38654467.869 1 203130618.535 1     -1797.555          31.000                                                                  
> 2021  5 17  2 36  4.9991373  0 11                     
C 7  36816045.782 1 191710696.47611      -756.940          21.000  
C 9  36698232.442 1 191097267.663 1     -2297.835          29.000  
C16  38141357.488 1 198612018.329 1     -2575.396          28.000  
C27  21657770.737 1 112777524.946 1     -2129.691          23.000  
C30  22475350.938 1 117035120.384 1       712.668          27.000  
C37  22991730.256 1 119723921.277 1     -2145.705          19.000  
E 1  25324723.858 1  99379654.303 1       272.284          29.000  
G 7  20989504.269 1 110300402.935 1      1182.742          27.000                                                                  
G21  20550040.603 1 107991063.915 1      -235.387          27.000                                                                  
J 2  38486360.147 1 202247206.243 1       146.755          29.000                                                                  
J 3  38654657.937 1 203131626.950 1     -1796.636          30.000                                                                  
> 2021  5 17  2 36  5.9991368  0 10                     
C 9  36698523.841 1 191098784.637 1     -2296.635          29.000  
C16  38141700.450 1 198613812.818 1     -2574.953          27.000  
C27  21658028.859 1 112778873.503 1     -2127.579          22.000  
C30  22475065.236 1 117033627.373 1       712.537          28.000  
C37  22991991.376 1 119725286.002 1     -2144.713          19.000  
E 1  25324504.710 1  99378794.910 1       270.644          29.000  
G 7  20989129.528 1 110298432.996 1      1181.009          27.000                                                                  
G21  20549935.676 1 107990511.791 1      -235.752          26.000                                                                  
J 2  38486182.370 1 202246271.654 1       147.240          28.000                                                                  
J 3  38654859.098 1 203132635.283 1     -1794.835          29.000                                                                  
> 2021  5 17  2 36  6.9991360  0 10                     
C 9  36698726.500 1 191099832.039 1     -2295.634          29.000  
C16  38141954.974 1 198615138.944 1     -2575.082          28.000  
C27  21658195.243 1 112779750.849 1     -2126.349          21.000  
C30  22474688.697 1 117031665.857 1       712.404          28.000  
E 1  25324195.924 1  99377582.790 1       271.490          29.000  
G 1  21434130.660 1 112637091.14011      2075.443          13.000                                                                  
G 7  20988665.449 1 110295991.454 1      1181.557          27.000                                                                  
G21  20549742.609 1 107989487.624 1      -236.497          26.000                                                                  
J 2  38485915.855 1 202244863.225 1       146.459          28.000                                                                  
J 3  38654959.528 1 203133170.484 1     -1795.196          29.000                                                                  
> 2021  5 17  2 36  7.9991355  0 10                     
C 7  36815937.857 1 191710155.34511      -755.640          19.000  
C 9  36699019.098 1 191101347.683 1     -2296.314          29.000  
C16  38142298.236 1 198616933.270 1     -2574.871          28.000  
C30  22474402.395 1 117030173.010 1       711.479          26.000  
E 1  25323977.075 1  99376723.291 1       271.604          29.000  
G 7  20988291.008 1 110294022.631 1      1180.759          27.000                                                                  
G 8  21113597.061 1 110952700.68211     -2914.860          16.000                                                                  
G21  20549634.684 1 107988936.722 1      -236.929          26.000                                                                  
J 2  38485739.577 1 202243928.445 1       148.100          28.000                                                                  
J 3  38655150.196 1 203134178.231 1     -1796.875          30.000                                                                  
> 2021  5 17  2 36  8.9991347  0  8                     
C 9  36699221.757 1 191102395.213 1     -2296.348          30.000  
C16  38142552.161 1 198618258.814 1     -2574.531          28.000  
C30  22474024.956 1 117028212.603 1       710.665          27.000  
E 1  25323668.289 1  99375510.102 1       271.298          29.000  
G 1  21432940.484 1 112630897.31011      2068.523          11.000                                                                  
G21  20549438.919 1 107987913.299 1      -237.057          27.000                                                                  
J 2  38485472.162 1 202242520.291 1       148.313          27.000                                                                  
J 3  38655247.629 1 203134713.090 1     -1794.569          30.000                                                                  
> 2021  5 17  2 36  9.9991342  0 11                     
C 9  36699513.755 1 191103911.065 1     -2296.510          30.000  
C16  38142896.922 1 198620052.504 1     -2574.258          28.000  
C27  21658876.971 1 112783329.55511     -2127.834          18.000  
C30  22473739.854 1 117026721.062 1       710.966          27.000  
E 1  25323448.541 1  99374650.301 1       271.605          28.000  
G 1  21432397.560 1 112628042.482 1      2065.239          13.000                                                                  
G 7  20987453.688 1 110289611.01211      1181.560          29.000                                                                  
G 8  21114334.251 1 110956491.61611     -2922.369          15.000                                                                  
G21  20549332.193 1 107987362.597 1      -237.236          28.000                                                                  
J 2  38485294.085 1 202241583.935 1       148.930          28.000                                                                  
J 3  38655446.391 1 203135720.268 1     -1795.681          31.000                                                                  
> 2021  5 17  2 36 10.9991337  0 12                     
C 7  36815832.929 1 191709606.20511      -755.319          19.000  
C 9  36699805.753 1 191105426.491 1     -2295.743          30.000  
C16  38143241.084 1 198621846.023 1     -2574.264          28.000  
C27  21659134.793 1 112784675.319 1     -2123.553          19.000  
C30  22473454.451 1 117025229.309 1       711.972          29.000  
E 1  25323229.093 1  99373790.635 1       271.561          28.000  
E26  22984611.984 1  90196553.46111       -59.561          24.000  
G 7  20987077.748 1 110287641.762 1      1180.913          28.000                                                                  
G 8  21114737.471 1 110958623.043 1     -2919.767          14.000                                                                  
G21  20549226.367 1 107986812.164 1      -237.465          28.000                                                                  
J 2  38485115.709 1 202240646.399 1       150.153          28.000                                                                  
J 3  38655638.858 1 203136727.179 1     -1796.092          31.000                                                                  
> 2021  5 17  2 36 11.9991332  0 10                     
C 7  36815829.631 1 191709581.251 1      -756.451          20.000  
C 9  36700096.552 1 191106941.302 1     -2295.243          29.000  
C16  38143584.946 1 198623638.968 1     -2574.026          28.000  
C30  22473169.948 1 117023737.313 1       711.073          29.000  
E 1  25323009.945 1  99372930.984 1       272.880          29.000  
E26  22984476.178 1  90196026.497 1       -62.479          24.000  
G 7  20986701.809 1 110285673.337 1      1180.624          28.000                                                                  
G21  20549120.540 1 107986262.228 1      -238.125          28.000                                                                  
J 2  38484938.531 1 202239708.668 1       149.731          28.000                                                                  
J 3  38655829.526 1 203137734.082 1     -1794.677          31.000                                                                  
> 2021  5 17  2 36 12.9991324  0 12                     
C 7  36815734.897 1 191709088.958 1      -756.143          20.000  
C 9  36700297.413 1 191107987.942 1     -2295.353          30.000  
C16  38143839.769 1 198624964.097 1     -2573.778          29.000  
C30  22472794.308 1 117021777.378 1       710.838          28.000  
E 1  25322699.360 1  99371716.356 1       273.792          29.000  
E26  22984251.634 1  90195145.821 1       -58.692          23.000  
G 1  21430688.143 1 112619013.21011      2064.573          16.000                                                                  
G 7  20986237.130 1 110283232.086 1      1180.997          29.000                                                                  
G 8  21115462.969 1 110962409.89911     -2920.602          11.000                                                                  
G21  20548925.375 1 107985240.452 1      -238.929          29.000                                                                  
J 2  38484670.517 1 202238298.942 1       149.438          29.000                                                                  
J 3  38655932.655 1 203138268.177 1     -1795.927          31.000                                                                  
> 2021  5 17  2 36 13.9991316  0 10                     
C 7  36815638.364 1 191708595.410 1      -754.707          23.000  
C 9  36700498.873 1 191109034.763 1     -2296.532          31.000  
C16  38144095.192 1 198626289.067 1     -2573.811          29.000  
C30  22472419.268 1 117019816.758 1       712.339          29.000  
C37  22993728.073 1 119734330.16411     -2150.464          16.000  
E 1  25322389.974 1  99370501.969 1       272.842          28.000  
G 7  20985771.253 1 110280791.167 1      1180.435          29.000                                                                  
G21  20548729.611 1 107984219.122 1      -238.980          30.000                                                                  
J 2  38484401.903 1 202236889.634 1       149.010          29.000                                                                  
J 3  38656029.488 1 203138801.872 1     -1794.174          32.000                                                                  
> 2021  5 17  2 36 14.9991311  0 12                     
C 7  36815634.167 1 191708568.919 1      -753.594          23.000  
C 9  36700789.972 1 191110550.691 1     -2296.266          31.000  
C16  38144439.354 1 198628082.298 1     -2573.549          30.000  
C27  21659983.805 1 112789110.71911     -2125.956          19.000  
C30  22472133.266 1 117018323.775 1       712.291          28.000  
C37  22993986.794 1 119735699.822 1     -2150.731          15.000  
E 1  25322170.526 1  99369641.246 1       272.769          28.000  
G 7  20985396.213 1 110278823.231 1      1179.783          29.000                                                                  
G 8  21116191.465 1 110966208.41011     -2923.255          12.000                                                                  
G21  20548624.983 1 107983670.373 1      -239.148          29.000                                                                  
J 2  38484224.426 1 202235951.979 1       150.282          29.000                                                                  
J 3  38656222.554 1 203139807.875 1     -1792.893          32.000                                                                  
> 2021  5 17  2 36 15.9991304  0 14                     
C 7  36815569.711 1 191708229.362 1      -753.006          22.000  
C 9  36701019.913 1 191111753.297 1     -2294.932          31.000  
C10  37346296.197 1 194471964.48111      -860.458          23.000  
C16  38144723.857 1 198629563.091 1     -2573.733          29.000  
C27  21660181.668 1 112790144.565 1     -2128.282          20.000  
C30  22471786.706 1 117016519.025 1       711.610          28.000  
C37  22994187.355 1 119736758.647 1     -2152.627          16.000  
E 1  25321890.820 1  99368545.181 1       273.041          28.000  
G 1  21428913.072 1 112609669.77411      2062.997          14.000                                                                  
G 7  20984962.413 1 110276540.967 1      1179.648          29.000                                                                  
G 8  21116545.220 1 110968028.595 1     -2922.920          13.000                                                                  
G21  20548460.097 1 107982806.997 1      -239.732          29.000                                                                  
J 2  38483986.690 1 202234698.807 1       150.600          29.000                                                                  
J 3  38656347.867 1 203140498.697 1     -1792.223          31.000                                                                  
> 2021  5 17  2 36 16.9991301  0 12                     
C 7  36815624.274 1 191708514.086 1      -753.596          23.000  
C 9  36701369.471 1 191113579.599 1     -2294.555          31.000  
C10  37346372.344 1 194472357.433 1      -862.352          23.000  
C16  38145127.977 1 198631668.309 1     -2572.488          29.000  
C27  21660500.647 1 112791805.139 1     -2130.380          21.000  
C30  22471557.065 1 117015338.188 1       712.792          27.000  
E 1  25321731.030 1  99367916.985 1       276.196          28.000  
G 1  21428432.505 1 112607133.735 1      2063.047          12.000                                                                  
G 7  20984647.931 1 110274888.957 1      1179.220          29.000                                                                  
G21  20548415.428 1 107982574.387 1      -240.305          29.000                                                                  
J 2  38483867.073 1 202234075.239 1       150.791          28.000                                                                  
J 3  38656606.288 1 203141819.398 1     -1794.995          31.000                                                                  
> 2021  5 17  2 36 17.9991293  0 13                     
C 7  36815528.940 1 191708019.156 1      -754.021          22.000  
C 9  36701570.931 1 191114625.935 1     -2295.767          31.000  
C10  37346299.495 1 194471970.123 1      -860.521          23.000  
C16  38145382.801 1 198632992.410 1     -2573.026          29.000  
C27  21660671.529 1 112792686.589 1     -2130.210          21.000  
C30  22471178.427 1 117013377.267 1       712.071          27.000  
E 1  25321421.345 1  99366699.778 1       275.811          29.000  
G 1  21427801.142 1 112603810.295 1      2062.339          12.000                                                                  
G 7  20984183.552 1 110272448.856 1      1179.729          29.000                                                                  
G 8  21117328.877 1 110972144.21711     -2923.894          13.000                                                                  
G21  20548221.162 1 107981554.570 1      -240.797          29.000                                                                  
J 2  38483599.059 1 202232663.474 1       151.267          28.000                                                                  
J 3  38656704.021 1 203142352.296 1     -1792.780          31.000                                                                  
> 2021  5 17  2 36 18.9991288  0 12                     
C 7  36815524.443 1 191707992.660 1      -754.423          22.000  
C 9  36701862.329 1 191116141.582 1     -2295.842          31.000  
C16  38145727.562 1 198634784.493 1     -2572.788          29.000  
C27  21660930.550 1 112794035.486 1     -2129.916          21.000  
C30  22470890.926 1 117011884.978 1       711.431          28.000  
C37  22994943.732 1 119740710.72511     -2148.512          18.000  
E 1  25321201.597 1  99365836.668 1       273.607          28.000  
G 1  21427260.316 1 112600959.878 1      2062.923          10.000                                                                  
G 7  20983809.111 1 110270481.599 1      1179.069          29.000                                                                  
G21  20548119.833 1 107981008.237 1      -241.880          28.000                                                                  
J 2  38483420.382 1 202231724.228 1       151.357          28.000                                                                  
J 3  38656891.691 1 203143357.440 1     -1792.591          31.000                                                                  
> 2021  5 17  2 36 19.9991281  0 12                     
C 7  36815459.987 1 191707654.321 1      -753.476          22.000  
C 9  36702092.570 1 191117344.604 1     -2295.674          30.000  
C10  37346275.811 1 194471815.35511      -859.650          21.000  
C16  38146011.466 1 198636264.888 1     -2573.500          29.000  
C27  21661129.912 1 112795072.867 1     -2130.910          22.000  
C30  22470544.066 1 117010081.241 1       710.819          28.000  
E 1  25320922.790 1  99364739.652 1       273.824          28.000  
G 7  20983376.211 1 110268199.768 1      1178.823          28.000                                                                  
G 8  21118079.258 1 110976101.85611     -2918.571          10.000                                                                  
G21  20547955.546 1 107980146.859 1      -241.557          28.000                                                                  
J 2  38483182.947 1 202230470.864 1       150.179          28.000                                                                  
J 3  38657030.195 1 203144047.266 1     -1792.512          31.000                                                                  
> 2021  5 17  2 36 20.9991273  0  8                     
C 9  36702293.131 1 191118391.118 1     -2295.125          30.000  
C16  38146266.289 1 198637588.982 1     -2572.582          29.000  
C30  22470167.227 1 117008121.918 1       709.963          27.000  
E 1  25320613.104 1  99363525.263 1       272.827          28.000  
G 7  20982910.633 1 110265760.226 1      1178.386          28.000                                                                  
G21  20547763.379 1 107979128.352 1      -243.157          27.000                                                                  
J 2  38482913.733 1 202229059.540 1       151.404          28.000                                                                  
J 3  38657130.326 1 203144579.266 1     -1791.705          31.000                                                                  
> 2021  5 17  2 36 21.9991268  0  9                     
C 9  36702583.330 1 191119905.957 1     -2295.476          30.000  
C10  37346216.452 1 194471506.60511      -859.183          21.000  
C16  38146611.950 1 198639381.223 1     -2573.720          29.000  
C30  22469880.925 1 117006631.935 1       708.953          29.000  
E 1  25320392.757 1  99362663.392 1       274.544          29.000  
G 7  20982535.593 1 110263793.344 1      1179.455          29.000                                                                  
G21  20547661.450 1 107978584.672 1      -244.259          27.000                                                                  
J 2  38482734.757 1 202228119.844 1       152.238          28.000                                                                  
J 3  38657323.692 1 203145583.632 1     -1792.689          30.000                                                                  
> 2021  5 17  2 36 22.9991263  0 12                     
C 7  36815354.161 1 191707100.67511      -751.945          24.000  
C 9  36702872.030 1 191121420.046 1     -2294.585          29.000  
C10  37346232.341 1 194471585.109 1      -859.602          23.000  
C16  38146957.611 1 198641174.629 1     -2574.112          29.000  
C27  21661823.632 1 112798657.19111     -2130.948          23.000  
C30  22469594.623 1 117005141.969 1       710.112          29.000  
C37  22995853.902 1 119745403.43411     -2149.624          21.000  
E 1  25320173.009 1  99361800.010 1       275.683          28.000  
G 7  20982161.152 1 110261826.624 1      1179.103          28.000                                                                  
G21  20547557.122 1 107978040.996 1      -243.415          27.000                                                                  
J 2  38482554.882 1 202227180.421 1       151.475          27.000                                                                  
J 3  38657512.561 1 203146587.772 1     -1790.772          30.000                                                                  
> 2021  5 17  2 36 23.9991258  0 12                     
C 7  36815350.563 1 191707071.300 1      -751.005          23.000  
C 9  36703160.431 1 191122934.183 1     -2294.874          30.000  
C10  37346248.230 1 194471664.240 1      -859.138          24.000  
C16  38147303.271 1 198642967.646 1     -2572.106          28.000  
C27  21662082.652 1 112800006.224 1     -2129.765          24.000  
C30  22469307.422 1 117003651.290 1       709.782          30.000  
C37  22996119.218 1 119746773.463 1     -2150.642          21.000  
E 1  25319952.961 1  99360935.350 1       276.140          27.000  
G 7  20981788.810 1 110259860.713 1      1177.956          29.000                                                                  
G21  20547452.794 1 107977496.160 1      -242.967          24.000                                                                  
J 2  38482378.903 1 202226240.569 1       152.531          27.000                                                                  
J 3  38657708.925 1 203147591.746 1     -1790.431          30.000                                                                  
> 2021  5 17  2 36 24.9991250  0 12                     
C 7  36815253.730 1 191706572.476 1      -749.194          22.000  
C 9  36703357.095 1 191123980.227 1     -2294.693          28.000  
C10  37346172.683 1 194471273.850 1      -857.048          22.000  
C16  38147556.596 1 198644291.128 1     -2572.531          26.000  
C27  21662253.234 1 112800887.668 1     -2131.109          25.000  
C30  22468927.885 1 117001692.612 1       709.576          29.000  
C37  22996291.898 1 119747674.225 1     -2148.687          20.000  
E 1  25319642.676 1  99359717.393 1       277.105          28.000  
G 7  20981325.331 1 110257421.933 1      1178.947          29.000                                                                  
G21  20547260.028 1 107976478.978 1      -243.938          25.000                                                                  
J 2  38482109.690 1 202224828.268 1       151.347          28.000                                                                  
J 3  38657807.557 1 203148123.330 1     -1792.968          29.000                                                                  
> 2021  5 17  2 36 25.9991245  0 11                     
C 9  36703647.893 1 191125494.236 1     -2294.255          30.000  
C10  37346190.370 1 194471350.325 1      -857.425          21.000  
C16  38147900.458 1 198646082.899 1     -2572.377          29.000  
C27  21662512.255 1 112802239.476 1     -2133.522          26.000  
C30  22468642.183 1 117000202.389 1       709.890          31.000  
C37  22996555.416 1 119749043.064 1     -2149.769          23.000  
E 1  25319421.729 1  99358851.987 1       277.344          28.000  
G 7  20980952.089 1 110255455.774 1      1177.494          24.000                                                                  
G21  20547155.101 1 107975935.741 1      -245.430          26.000                                                                  
J 2  38481931.613 1 202223889.001 1       152.469          29.000                                                                  
J 3  38657994.028 1 203149128.149 1     -1795.206          29.000                                                                  
> 2021  5 17  2 36 26.9991237  0 10                     
C 9  36703847.555 1 191126538.215 1     -2291.829          30.000  
C10  37346116.621 1 194470958.264 1      -856.079          23.000  
C16  38148153.783 1 198647405.602 1     -2571.354          28.000  
C27  21662680.738 1 112803123.871 1     -2134.078          26.000  
C30  22468266.843 1 116998242.291 1       711.894          30.000  
E 1  25319112.343 1  99357634.624 1       276.628          28.000  
G 7  20980487.711 1 110253016.863 1      1179.555          27.000                                                                  
G21  20546963.533 1 107974921.088 1      -246.716          25.000                                                                  
J 2  38481663.299 1 202222476.552 1       151.926          29.000                                                                  
J 3  38658092.659 1 203149661.091 1     -1791.779          29.000                                                                  
> 2021  5 17  2 36 27.9991235  0 11                     
C 9  36704227.692 1 191128518.088 1     -2292.508          30.000  
C10  37346218.851 1 194471502.628 1      -857.051          23.000  
C16  38148586.083 1 198649664.904 1     -2572.242          28.000  
C27  21663028.497 1 112804945.333 1     -2134.077          28.000  
C30  22468071.078 1 116997217.761 1       712.685          30.000  
C37  22997071.659 1 119751781.63111     -2150.973          23.000  
E 1  25318981.934 1  99357122.268 1       278.297          28.000  
G 7  20980203.208 1 110251522.213 1      1178.527          27.000                                                                  
G21  20546950.342 1 107974852.436 1      -246.375          25.000                                                                  
J 2  38481575.160 1 202222009.349 1       152.401          27.000                                                                  
J 3  38658372.665 1 203151137.653 1     -1791.375          28.000                                                                  
> 2021  5 17  2 36 28.9991227  0 10                     
C 9  36704427.054 1 191129561.554 1     -2291.548          29.000  
C10  37346142.703 1 194471111.654 1      -857.590          26.000  
C16  38148839.408 1 198650988.485 1     -2571.816          27.000  
C27  21663197.580 1 112805830.520 1     -2134.008          28.000  
C30  22467695.738 1 116995256.973 1       711.142          30.000  
C37  22997243.739 1 119752683.985 1     -2151.801          25.000  
E 1  25318671.049 1  99355902.960 1       278.618          28.000  
G 7  20979738.529 1 110249083.157 1      1178.844          28.000                                                                  
G21  20546757.276 1 107973837.566 1      -245.309          24.000                                                                  
J 2  38481306.846 1 202220595.524 1       153.610          27.000                                                                  
> 2021  5 17  2 36 29.9991219  0 13                     
C 3  36474014.065 1 189929566.37211      -921.319          27.000  
C 7  36815044.175 1 191705472.27611      -741.152          17.000  
C 9  36704626.716 1 191130603.703 1     -2289.944          30.000  
C10  37346069.254 1 194470719.213 1      -855.616          25.000  
C16  38149094.831 1 198652310.234 1     -2569.513          24.000  
C27  21663367.563 1 112806716.365 1     -2135.930          28.000  
C30  22467319.798 1 116993296.598 1       712.807          31.000  
C37  22997416.720 1 119753588.349 1     -2154.662          27.000  
E 1  25318359.564 1  99354682.411 1       279.512          25.000  
G 7  20979273.551 1 110246643.776 1      1179.871          28.000                                                                  
G21  20546563.010 1 107972822.812 1      -246.097          26.000                                                                  
J 2  38481037.632 1 202219183.308 1       150.814          26.000                                                                  
J 3  38658573.826 1 203152200.10511     -1792.436          28.000                                                                  
> 2021  5 17  2 36 30.9991214  0 12                     
C 7  36815036.680 1 191705433.899 1      -742.427          16.000  
C 9  36704915.416 1 191132111.990 1     -2287.236          29.000  
C10  37346085.743 1 194470791.855 1      -851.182          21.000  
C16  38149437.794 1 198654098.325 1     -2567.206          27.000  
C27  21663627.483 1 112808074.019 1     -2139.098          26.000  
C30  22467033.796 1 116991801.794 1       715.628          30.000  
C37  22997679.638 1 119754963.374 1     -2157.093          25.000  
E 1  25318138.018 1  99353814.331 1       282.107          24.000  
G 7  20978896.712 1 110244674.217 1      1183.973          24.000                                                                  
G21  20546460.182 1 107972282.537 1      -247.966          25.000                                                                  
J 2  38480857.757 1 202218245.588 1       147.541          26.000                                                                  
J 3  38658765.693 1 203153206.062 1     -1796.032          28.000                                                                  
> 2021  5 17  2 36 31.9991206  0 11                     
C 7  36814939.548 1 191704930.250 1      -746.159          17.000  
C 9  36705114.178 1 191133148.262 1     -2283.376          32.000  
C10  37346007.797 1 194470393.037 1      -848.934          23.000  
C16  38149690.219 1 198655415.522 1     -2564.233          29.000  
C30  22466656.058 1 116989835.559 1       719.320          30.000  
C37  22997854.716 1 119755874.228 1     -2165.639          25.000  
E 1  25317825.634 1  99352590.166 1       283.680          23.000  
G 7  20978432.334 1 110242228.045 1      1186.474          27.000                                                                  
G21  20546265.916 1 107971271.805 1      -253.603          22.000                                                                  
J 2  38480590.342 1 202216838.889 1       145.273          26.000                                                                  
J 3  38658869.122 1 203153743.474 1     -1800.131          30.000                                                                  
> 2021  5 17  2 36 32.9991201  0 11                     
C 7  36814932.952 1 191704896.106 1      -747.591          18.000  
C 9  36705403.178 1 191134648.991 1     -2280.081          32.000  
C10  37346019.788 1 194470459.139 1      -844.639          24.000  
C16  38150032.282 1 198657198.512 1     -2562.190          31.000  
C30  22466367.358 1 116988333.082 1       723.744          30.000  
C37  22998119.733 1 119757261.340 1     -2171.049          26.000  
E 1  25317602.888 1  99351717.007 1       286.205          23.000  
G 7  20978058.193 1 110240252.321 1      1188.292          25.000                                                                  
G21  20546163.687 1 107970740.029 1      -259.872          19.000                                                                  
J 2  38480413.464 1 202215906.177 1       143.328          21.000                                                                  
J 3  38659063.987 1 203154756.464 1     -1802.313          26.000                                                                  
> 2021  5 17  2 36 33.9991196  0 11                     
C 9  36705695.176 1                     -2281.518          33.000  
C10  37346031.480 1 194470522.233 1      -842.343          24.000  
C16  38150374.046 1 198658980.819 1     -2563.610          30.000  
C27  21664297.219 1 112811676.47611     -2135.016          22.000  
C30  22466078.358 1 116986828.073 1       724.696          31.000  
C37  22998386.249 1 119758652.687 1     -2172.238          24.000  
E 1  25317380.142 1  99350841.739 1       286.643          25.000  
G 7  20977682.852 1 110238276.184 1      1188.428          29.000                                                                  
G21  20546062.657 1 107970212.893 1      -261.188          20.000                                                                  
J 2  38480236.587 1 202214975.961 1       141.357          22.000                                                                  
J 3  38659255.854 1 203155771.499 1     -1803.112          28.000                                                                  
> 2021  5 17  2 36 34.9991191  0 10                     
C 9  36705984.476 1                     -2283.198          32.000  
C10  37346041.374 1 194470582.957 1      -840.413          30.000  
C16  38150715.809 1 198660763.606 1     -2563.141          28.000  
C30  22465789.657 1 116985322.972 1       724.083          32.000  
C37  22998653.963 1 119760044.969 1     -2173.141          25.000  
E 1  25317157.397 1  99349967.101 1       286.444          29.000  
G 7  20977306.313 1 110236300.851 1      1187.756          29.000                                                                  
G21  20545967.623 1 107969686.348 1      -261.488          20.000                                                                  
J 2  38480060.009 1 202214046.515 1       141.849          23.000                                                                  
J 3  38659449.820 1 203156786.410 1     -1802.720          29.000                                                                  
> 2021  5 17  2 36 35.9991183  0 10                     
C 9  36706183.838 1 191138720.65211     -2281.284          30.000  
C10  37345961.629 1 194470174.614 1      -840.802          28.000  
C16  38150966.735 1 198662078.079 1     -2563.129          25.000  
C30  22465411.619 1 116983351.027 1       721.874          32.000  
C37  22998831.141 1 119760969.285 1     -2172.704          24.000  
E 1  25316845.013 1  99348739.545 1       286.705          31.000  
G 7  20976841.035 1 110233852.147 1      1188.565          31.000                                                                  
G21  20545778.753 1 107968688.230 1      -262.802          21.000                                                                  
J 2  38479793.493 1 202212644.623 1       141.542          27.000                                                                  
J 3  38659553.248 1 203157327.304 1     -1800.173          31.000                                                                  
> 2021  5 17  2 36 36.9991176  0 11                     
C 9  36706410.781 1 191139909.546 1     -2283.133          26.000  
C10  37345912.163 1 194469922.830 1      -840.330          28.000  
C16  38151248.840 1 198663549.658 1     -2563.567          16.000  
C27  21664915.391 1 112814941.13811     -2127.807          20.000  
C30  22465066.858 1 116981537.457 1       722.699          33.000  
C37  22999038.597 1 119762047.649 1     -2169.820          21.000  
E 1  25316562.009 1  99347627.423 1       290.273          29.000  
G 7  20976405.736 1 110231560.070 1      1190.914          31.000                                                                  
G21  20545616.865 1 107967848.179 1      -262.890          27.000                                                                  
J 2  38479556.657 1 202211400.273 1       141.694          30.000                                                                  
J 3  38659687.255 1 203158024.032 1     -1798.907          29.000                                                                  
> 2021  5 17  2 36 37.9991171  0  7                     
C 9  36706698.881 1 191141413.317 1     -2286.170          29.000  
C27  21665172.014 1 112816288.665 1     -2128.627          29.000  
C37  22999305.112 1 119763436.793 1     -2168.482          22.000  
G 7  20976027.998 1 110229580.548 1      1193.705          27.000                                                                  
G21  20545516.735 1 107967323.942 1      -264.109          31.000                                                                  
J 2  38479379.180 1 202210469.539 1       144.413          30.000                                                                  
J 3  38659882.121 1 203159034.409 1     -1795.059          29.000                                                                  
> 2021  5 17  2 36 38.9991165  0  6                     
C10  37345905.867 1 194469883.16511      -838.535          11.000  
C27  21665399.556 1 112817480.378 1     -2127.796          33.000  
C37  22999542.548 1 119764667.723 1     -2167.576          24.000  
G21  20545387.824 1 107966644.064 1      -266.243          27.000                                                                  
J 2  38479170.824 1 202209377.616 1       149.793          28.000                                                                  
J 3  38660045.807 1 203159882.351 1     -1790.673          27.000                                                                  
> 2021  5 17  2 36 39.9991160  0  9                     
C 9  36707253.197 1 191144275.84411     -2291.616          15.000  
C10  37345918.758 1 194469942.570 1      -844.647          10.000  
C16  38152251.346 1 198668759.25011     -2583.085          17.000  
C27  21665656.478 1 112818826.180 1     -2125.581          32.000  
C30  22464176.474 1 116976858.56911       728.688          21.000  
G 7  20975247.338 1 110225460.32511      1192.850          14.000                                                                  
G21  20545289.492 1 107966123.851 1      -267.791          21.000                                                                  
J 2  38478994.546 1 202208436.525 1       158.363          24.000                                                                  
J 3  38660239.173 1 203160883.382 1     -1784.772          21.000                                                                  
> 2021  5 17  2 36 40.9991153  0  6                     
C10  37345869.892 1 194469696.021 1      -848.229          11.000  
C27  21665854.641 1 112819855.079 1     -2120.409          26.000  
C30  22463827.816 1 116975040.249 1       723.221          22.000  
G21  20545130.602 1 107965288.165 1      -265.563          29.000                                                                  
J 2  38478753.213 1 202207172.451 1       164.072          24.000                                                                  
J 3  38660367.485 1 203161563.102 1     -1780.298          27.000                                                                  
> 2021  5 17  2 36 41.9991148  0  6                     
C 9  36707770.339 1 191146976.92611     -2282.662          12.000  
C10  37345881.284 1 194469766.321 1      -857.394          10.000  
G 7  20974436.400 1 110221176.38611      1198.596          13.000                                                                  
G21  20545028.972 1 107964764.592 1      -262.235          31.000                                                                  
J 2  38478570.340 1 202206219.009 1       167.289          30.000                                                                  
J 3  38660554.555 1 203162553.647 1     -1777.122          30.000                                                                  
> 2021  5 17  2 36 42.9991140  0  5                     
C 9  36707967.603 1 191148005.016 1     -2275.359          10.000  
G 7  20973969.623 1 110218715.949 1      1198.367          13.000                                                                  
G21  20544837.105 1 107963765.739 1      -261.112          30.000                                                                  
J 2  38478296.630 1 202204790.281 1       169.075          28.000                                                                  
J 3  38660653.786 1 203163068.326 1     -1774.116          29.000                                                                  
> 2021  5 17  2 36 43.9991135  0  6                     
C16  38153507.177 1 198675260.42411     -2610.898          19.000  
G 1  21412857.687 1 112525572.21211      2027.368          31.000                                                                  
G 7  20973593.084 1 110216731.061 1      1194.083          11.000                                                                  
G21  20544735.176 1 107963239.339 1      -261.787          30.000                                                                  
J 2  38478114.656 1 202203832.902 1       169.768          25.000                                                                  
J 3  38660841.157 1 203164054.258 1     -1773.743          26.000                                                                  
> 2021  5 17  2 36 44.9991130  0  7                     
C16  38153861.531 1 198677092.667 1     -2613.579          27.000  
C30  22462599.566 1 116968605.18011       706.537          11.000  
G 1  21412321.358 1 112522758.309 1      2024.795          28.000                                                                  
G 7  20973216.245 1 110214751.948 1      1187.009          10.000                                                                  
G21  20544632.947 1 107962713.868 1      -262.857          30.000                                                                  
J 2  38477931.782 1 202202875.045 1       169.727          24.000                                                                  
J 3  38661027.628 1 203165038.526 1     -1770.334          25.000                                                                  
> 2021  5 17  2 36 45.9991122  0  8                     
C 7  36814396.624 1 191702119.58011      -717.485          25.000  
C16  38154125.049 1 198678457.087 1     -2613.065          30.000  
C27  21666961.774 1 112825594.35511     -2115.366          22.000  
G 1  21411696.591 1 112519473.944 1      2022.523          27.000                                                                  
G 7  20972750.667 1 110212307.229 1      1179.672          10.000                                                                  
G21  20544441.679 1 107961717.287 1      -264.627          28.000                                                                  
J 2  38477659.571 1 202201444.629 1       169.915          24.000                                                                  
J 3  38661123.561 1 203165547.323 1     -1769.210          22.000                                                                  
> 2021  5 17  2 36 46.9991117  0  6                     
C 7  36814384.032 1 191702054.936 1      -715.507          26.000  
C16  38154478.504 1 198680289.459 1     -2611.131          27.000  
C27  21667219.896 1 112826928.905 1     -2115.303          21.000  
G 1  21411161.162 1 112516664.500 1      2021.098          26.000                                                                  
G21  20544343.347 1 107961194.761 1      -265.589          29.000                                                                  
J 3  38661312.131 1 203166528.940 1     -1770.461          20.000                                                                  
> 2021  5 17  2 36 47.9991109  0  7                     
C 7  36814280.904 1 191701520.552 1      -715.029          25.000  
C16  38154740.523 1 198681653.116 1     -2612.502          20.000  
C27  21667387.180 1 112827795.805 1     -2117.220          22.000  
G 1  21410535.195 1 112513382.854 1      2021.762          27.000                                                                  
G21  20544154.478 1 107960200.307 1      -266.268          28.000                                                                  
J 2  38477204.785 1 202199058.07211       168.051          24.000                                                                  
J 3  38661411.362 1 203167039.483 1     -1773.294          21.000                                                                  
> 2021  5 17  2 36 48.9991104  0  6                     
C 7  36814265.914 1 191701454.938 1      -716.291          24.000  
G 1  21409999.766 1 112510307.547 1      2023.406          25.000                                                                  
G 8                                                                  21128768.958 1  82913826.98111     -2158.123          34.000  
G21  20544057.645 1 107959679.491 1      -267.407          27.000                                                                  
J 2  38477020.413 1 202198101.978 1       168.334          22.000                                                                  
J 3  38661600.531 1 203168023.948 1     -1772.282          21.000                                                                  
> 2021  5 17  2 36 49.9991096  0  8                     
C 7  36814163.385 1 191700921.925 1      -717.232          18.000  
C16  38155355.997 1 198684849.71711     -2612.633          19.000  
C27  21667812.585 1 112830002.06911     -2118.337          25.000  
G 1  21409373.499 1 112507023.537 1      2024.560          25.000                                                                  
G 8                                                                  21129078.943 1  82915044.235 1     -2157.507          33.000  
G21  20543869.075 1 107958685.985 1      -264.979          28.000                                                                  
J 2  38476744.604 1 202196673.604 1       168.303          23.000                                                                  
J 3  38661697.664 1 203168534.791 1     -1768.958          22.000                                                                  
> 2021  5 17  2 36 50.9991094  0  7                     
C 7  36814241.931 1 191701325.892 1      -714.684          20.000  
C16  38155797.291 1 198687149.897 1     -2611.839          24.000  
C27  21668160.944 1 112831809.287 1     -2119.654          23.000  
G 1  21408926.808 1 112504683.987 1      2023.144          25.000                                                                  
G 8                                                                  21129568.804 1  82916965.892 1     -2157.199          32.000  
G21  20543859.482 1 107958636.176 1      -265.638          26.000                                                                  
J 3  38661974.672 1 203169988.143 1     -1768.049          20.000                                                                  
> 2021  5 17  2 36 51.9991086  0  7                     
C16  38156058.111 1 198688513.206 1     -2613.323          23.000  
C27  21668327.929 1 112832680.253 1     -2120.270          25.000  
G 1  21408301.741 1 112501401.017 1      2022.245          24.000                                                                  
G 8                                                                  21129878.490 1  82918180.977 1     -2155.973          33.000  
G21  20543671.212 1 107957642.390 1      -268.371          26.000                                                                  
J 2  38476378.258 1 202194758.77811       171.102          23.000                                                                  
J 3  38662071.805 1 203170498.195 1     -1772.533          20.000                                                                  
> 2021  5 17  2 36 52.9991081  0  7                     
C 7  36814124.112 1 191700724.90211      -713.679          20.000  
C16  38156409.467 1 198690346.886 1     -2614.775          24.000  
G 1  21407768.410 1 112498591.918 1      2019.907          25.000                                                                  
G 8                                                                  21130278.113 1  82919749.712 1     -2159.302          30.000  
G21  20543575.279 1 107957124.269 1      -270.460          27.000                                                                  
J 2  38476196.284 1 202193800.757 1       171.423          26.000                                                                  
J 3  38662259.475 1 203171483.778 1     -1773.760          25.000                                                                  
> 2021  5 17  2 36 53.9991073  0  6                     
C16  38156671.186 1 198691712.513 1     -2613.622          25.000  
C27  21668756.032 1 112834891.15111     -2120.362          22.000  
G 8                                                                  21130588.398 1  82920967.577 1     -2159.902          27.000  
G21  20543385.510 1 107956133.974 1      -270.403          26.000                                                                  
J 2  38475926.470 1 202192368.311 1       172.236          25.000                                                                  
J 3  38662359.905 1 203171995.756 1     -1772.073          24.000                                                                  
> 2021  5 17  2 36 54.9991068  0  5                     
C 7  36814006.893 1 191700123.15811      -714.922          19.000  
C16  38157020.744 1 198693542.652 1     -2607.049          25.000  
C27  21669012.355 1 112836230.878 1     -2120.241          20.000  
G 1  21406605.216 1 112492498.40911      2025.782          21.000                                                                  
G21  20543288.677 1 107955616.334 1      -270.079          26.000                                                                  
> 2021  5 17  2 36 55.9991060  0  5                     
C16  38157279.165 1 198694897.288 1     -2599.008          25.000  
C27  21669182.637 1 112837102.776 1     -2121.797          21.000  
G21  20543099.808 1 107954624.241 1      -266.109          27.000                                                                  
J 2  38475476.782 1 202189980.52411       166.228          23.000                                                                  
J 3  38662643.509 1 203173493.05411     -1775.507          20.000                                                                  
> 2021  5 17  2 36 56.9991055  0  5                     
C16  38157626.325 1 198696713.049 1     -2593.559          26.000  
C27  21669440.459 1 112838446.278 1     -2126.070          22.000  
G 1  21405447.417 1 112486389.04911      2035.750          18.000                                                                  
G21  20543000.876 1 107954102.904 1      -266.230          24.000                                                                  
J 2  38475297.206 1 202189027.460 1       164.703          23.000                                                                  
> 2021  5 17  2 36 57.9991050  0  6                     
C 7  36813889.375 1 191699481.15711      -725.896          24.000  
C16  38157971.986 1 198698524.694 1     -2590.960          26.000  
G 1  21404910.489 1 112483560.670 1      2044.897          20.000                                                                  
G21  20542902.844 1 107953581.184 1      -263.715          25.000                                                                  
J 2  38475117.331 1 202188076.500 1       162.820          22.000                                                                  
J 3  38663019.149 1 203175471.96711     -1779.964          21.000                                                                  
> 2021  5 17  2 36 58.9991043  0  6                     
C 7  36813818.923 1 191699115.358 1      -729.103          24.000  
C16  38158258.287 1 198700022.687 1     -2590.614          27.000  
G 1  21404316.300 1 112480412.636 1      2044.004          21.000                                                                  
G21  20542742.455 1 107952741.414 1      -263.158          24.000                                                                  
J 2  38474877.796 1 202186810.572 1       163.684          23.000                                                                  
J 3  38663147.460 1 203176150.076 1     -1781.680          21.000                                                                  
> 2021  5 17  2 36 59.9991037  0  5                     
C16  38158575.768 1 198701678.853 1     -2595.502          26.000  
G 1  21403750.892 1 112477423.980 1      2042.367          21.000                                                                  
G21  20542610.247 1 107952060.125 1      -264.817          28.000                                                                  
J 2  38474667.342 1 202185699.265 1       168.223          23.000                                                                  
J 3  38663303.652 1 203176986.050 1     -1780.670          24.000                                                                  
> 2021  5 17  2 37  0.9991030  0  7                     
C 7  36813711.598 1 191698544.54011      -725.542          22.000  
C16  38158865.367 1 198703183.835 1     -2600.350          25.000  
G 1  21403157.602 1 112474283.080 1      2034.636          24.000                                                                  
G 8                                                                  21133162.416 1  82931071.30511     -2163.843          33.000  
G21  20542451.057 1 107951222.528 1      -265.741          25.000                                                                  
J 2  38474424.210 1 202184427.430 1       169.752          23.000                                                                  
J 3  38663432.263 1 203177661.677 1     -1776.929          24.000                                                                  
> 2021  5 17  2 37  1.9991027  0  6                     
C 7  36813759.265 1 191698799.614 1      -722.093          22.000  
C16  38159275.783 1 198705316.446 1     -2601.839          25.000  
G 8                                                                  21133624.996 1  82932883.377 1     -2166.812          34.000  
G21  20542413.883 1 107951015.876 1      -267.109          30.000                                                                  
J 2  38474301.895 1 202183785.352 1       169.097          27.000                                                                  
J 3  38663681.091 1 203178966.697 1     -1777.894          24.000                                                                  
> 2021  5 17  2 37  2.9991020  0  6                     
C16  38159565.682 1 198706825.461 1     -2601.603          26.000  
G 1  21402084.345 1 112468644.31711      2026.295          23.000                                                                  
G 8                                                                  21133966.160 1  82934225.389 1     -2165.359          33.000  
G21  20542255.892 1 107950182.089 1      -270.056          31.000                                                                  
J 2  38474058.164 1 202182512.443 1       170.822          27.000                                                                  
J 3  38663810.301 1 203179641.049 1     -1775.941          25.000                                                                  
> 2021  5 17  2 37  3.9991014  0  7                     
C 6  37724454.104 1 196441131.27211     -2526.370          25.000  
C16  38159886.161 1 198708489.242 1     -2599.442          25.000  
G 1  21401522.834 1 112465673.826 1      2024.177          25.000                                                                  
G 8                                                                  21134338.502 1  82935685.327 1     -2165.452          32.000  
G21  20542126.382 1 107949508.103 1      -266.864          29.000                                                                  
J 2  38473845.311 1 202181395.928 1       171.310          25.000                                                                  
J 3  38663966.193 1 203180472.109 1     -1775.941          26.000                                                                  
> 2021  5 17  2 37  4.9991007  0  7                     
C 6  37724730.513 1 196442565.020 1     -2526.680          24.000  
C16  38160175.760 1 198709994.147 1     -2597.042          24.000  
G 1  21400928.046 1 112462547.155 1      2023.487          26.000                                                                  
G 8                                                                  21134681.165 1  82937027.320 1     -2164.903          35.000  
G21  20541969.890 1 107948673.594 1      -270.298          25.000                                                                  
J 2  38473605.477 1 202180121.906 1       170.333          24.000                                                                  
J 3  38664094.804 1 203181144.647 1     -1775.545          25.000                                                                  
> 2021  5 17  2 37  5.9991002  0  6                     
C 6  37725065.980 1 196444311.705 1     -2527.442          22.000  
C16  38160523.819 1 198711810.115 1     -2597.464          23.000  
G 8                                                                  21135082.887 1                     -2165.832          35.000  
G21  20541870.659 1 107948157.153 1      -272.522          29.000                                                                  
J 2  38473422.904 1 202179164.032 1       170.120          26.000                                                                  
J 3  38664280.975 1 203182132.301 1     -1775.180          24.000                                                                  
> 2021  5 17  2 37  6.9990994  0  7                     
C 6  37725311.211 1 196445590.481 1     -2527.567          22.000  
C16  38160782.540 1 198713158.532 1     -2597.818          23.000  
G 1  21399771.447 1 112456455.05611      2023.189          26.000                                                                  
G 8                                                                  21135394.671 1  82939828.71611     -2164.940          35.000  
G21  20541684.488 1 107947169.496 1      -273.323          28.000                                                                  
J 2  38473150.392 1 202177733.362 1       169.062          25.000                                                                  
J 3  38664380.806 1 203182646.805 1     -1774.752          26.000                                                                  
> 2021  5 17  2 37  7.9990989  0  8                     
C 6  37725646.079 1 196447336.219 1     -2526.561          24.000  
C16  38161129.999 1 198714973.680 1     -2596.051          21.000  
G 1  21399235.418 1 112453641.863 1      2025.790          23.000                                                                  
G 8                                                                  21135796.692 1  82941405.874 1     -2164.194          35.000  
G21  20541585.256 1 107946655.400 1      -274.163          29.000                                                                  
G27  23328432.262 1 122591738.65411     -3983.654          25.000                                                                  
J 2  38472969.318 1 202176777.720 1       167.211          22.000                                                                  
J 3  38664569.076 1 203183633.288 1     -1773.756          21.000                                                                  
> 2021  5 17  2 37  8.9990984  0  7                     
C 6  37725981.247 1 196449082.242 1     -2526.475          24.000  
G 1  21398699.089 1 112450828.591 1      2024.999          24.000                                                                  
G 8                                                                  21136198.714 1  82942982.202 1     -2164.640          34.000  
G21  20541486.925 1 107946142.193 1      -274.927          30.000                                                                  
G27  23329039.042 1 122594934.314 1     -3983.129          27.000                                                                  
J 2  38472786.144 1 202175821.749 1       168.057          27.000                                                                  
J 3  38664757.046 1 203184616.489 1     -1769.974          21.000                                                                  
> 2021  5 17  2 37  9.9990976  0  7                     
C 6  37726227.976 1 196450360.419 1     -2528.392          26.000  
G 1  21398072.223 1 112447543.539 1      2023.716          27.000                                                                  
G 8                                                                  21136509.899 1  82944205.152 1     -2163.707          34.000  
G21  20541298.055 1 107945156.966 1      -275.392          32.000                                                                  
G27  23329554.386 1 122597656.765 1     -3982.463          31.000                                                                  
J 2  38472513.333 1 202174392.800 1       168.910          24.000                                                                  
J 3  38664855.078 1 203185128.536 1     -1772.831          21.000                                                                  
> 2021  5 17  2 37 10.9990971  0  7                     
C 6  37726566.142 1 196452109.031 1     -2530.724          22.000  
G 1  21397536.794 1 112444733.302 1      2020.983          28.000                                                                  
G 8                                                                  21136911.321 1  82945780.117 1     -2162.760          34.000  
G21  20541198.524 1 107944644.747 1      -275.713          30.000                                                                  
G27  23330160.266 1 122600850.607 1     -3980.396          32.000                                                                  
J 2  38472333.158 1 202173435.936 1       169.469          26.000                                                                  
J 3  38665040.050 1 203186112.804 1     -1771.840          23.000                                                                  
> 2021  5 17  2 37 11.9990963  0  8                     
C 6  37726813.171 1 196453391.952 1     -2532.965          21.000  
C16  38162356.450 1 198721311.17911     -2603.907          18.000  
G 1  21396914.125 1 112441453.114 1      2019.094          27.000                                                                  
G 8                                                                  21137221.906 1  82947001.048 1     -2164.019          34.000  
G21  20541009.355 1 107943660.338 1      -275.996          26.000                                                                  
G27  23330677.408 1 122603568.549 1     -3976.617          29.000                                                                  
J 2  38472063.345 1 202172005.204 1       172.516          22.000                                                                  
J 3  38665139.281 1 203186623.951 1     -1770.969          26.000                                                                  
> 2021  5 17  2 37 12.9990958  0  8                     
C 6  37727151.337 1 196455144.168 1     -2532.637          21.000  
C16  38162710.205 1 198723136.436 1     -2608.392          19.000  
G 1  21396383.492 1 112438648.051 1      2016.469          27.000                                                                  
G 8                                                                  21137623.028 1  82948573.911 1     -2159.247          33.000  
G21  20540912.822 1 107943149.503 1      -277.336          21.000                                                                  
G27  23331284.188 1 122606755.766 1     -3973.684          29.000    23331289.884 1  91556992.12311     -2964.878          28.000  
J 2  38471878.673 1 202171042.783 1       174.001          21.000    38471875.075 1 150971936.38411       129.135          30.000  
J 3  38665325.452 1 203187605.864 1     -1769.273          23.000    38665327.251 1 151731049.11611     -1321.115          25.000  
> 2021  5 17  2 37 13.9990953  0  7                     
C 6  37727490.402 1 196456898.091 1     -2535.923          23.000  
C16  38163060.663 1 198724964.730 1     -2610.024          20.000  
G 1  21395850.461 1 112435844.741 1      2014.874          26.000                                                                  
G 8                                                                  21138024.150 1  82950145.933 1     -2160.553          32.000  
G27  23331888.869 1 122609939.586 1     -3970.217          29.000    23331896.064 1  91559369.132 1     -2966.005          29.000  
J 2  38471694.600 1 202170079.863 1       177.252          22.000    38471692.202 1 150971217.723 1       130.686          27.000  
J 3  38665513.722 1 203188586.519 1     -1767.837          20.000    38665514.321 1 151731780.403 1     -1317.552          23.000  
> 2021  5 17  2 37 14.9990948  0  8                     
C 6  37727826.769 1 196458653.588 1     -2536.738          21.000  
C16  38163410.221 1 198726794.578 1     -2611.201          26.000  
G 1  21395318.030 1 112433040.599 1      2017.382          26.000                                                                  
G 8                                                                  21138424.673 1  82951718.639 1     -2160.223          32.000  
G21  20540724.852 1 107942133.87611      -279.549          24.000                                                                  
G27  23332492.052 1 122613121.949 1     -3970.293          30.000    23332502.844 1  91561746.472 1     -2966.164          30.000  
J 2  38471511.727 1 202169114.715 1       177.722          21.000    38471507.829 1 150970498.865 1       130.563          27.000  
J 3  38665703.490 1 203189565.427 1     -1764.614          17.000    38665699.893 1 151732510.852 1     -1320.802          20.000  
> 2021  5 17  2 37 15.9990940  0  8                     
C 6  37728072.599 1 196459940.122 1     -2534.718          24.000  
C16  38163671.940 1 198728156.381 1     -2610.223          29.000  
G 1  21394692.662 1 112429762.013 1      2019.184          26.000                                                                  
G 8                                                                  21138736.457 1  82952939.408 1     -2162.087          33.000  
G21  20540537.782 1 107941152.533 1      -278.304          23.000                                                                  
G27  23333008.894 1 122615832.747 1     -3972.673          29.000    23333020.286 1  91563772.384 1     -2967.619          32.000  
J 2  38471238.915 1 202167676.125 1       178.884          23.000    38471235.018 1 150969426.981 1       131.363          28.000  
J 3  38665800.623 1 203190070.749 1     -1766.499          19.000    38665795.827 1 151732890.639 1     -1324.940          21.000  
> 2021  5 17  2 37 16.9990935  0  8                     
C 6  37728408.966 1 196461693.819 1     -2533.081          24.000  
C16  38164023.296 1 198729984.205 1     -2606.180          29.000  
G 1  21394157.833 1 112426955.434 1      2020.127          24.000                                                                  
G 8                                                                  21139137.280 1  82954513.869 1     -2162.247          33.000  
G21  20540440.049 1 107940642.740 1      -277.773          23.000                                                                  
G27  23333617.773 1 122619018.636 1     -3974.994          30.000    23333626.467 1  91566153.148 1     -2969.138          30.000  
J 2  38471056.042 1 202166709.822 1       178.004          25.000    38471050.346 1 150968707.125 1       131.026          27.000  
J 3  38665987.094 1 203191049.775 1     -1768.630          20.000    38665981.698 1 151733627.424 1     -1326.428          22.000  
> 2021  5 17  2 37 17.9990927  0  8                     
C 6  37728656.595 1 196462975.913 1     -2528.687          23.000  
C16  38164283.516 1 198731340.580 1     -2603.131          30.000  
G 1  21393533.365 1 112423674.232 1      2020.876          22.000                                                                  
G 8                                                                  21139448.764 1  82955736.908 1     -2163.761          34.000  
G21  20540252.079 1 107939660.412 1      -278.206          23.000                                                                  
G27  23334134.915 1 122621734.422 1     -3977.492          28.000    23334143.609 1  91568182.393 1     -2971.245          31.000  
J 2  38470781.732 1 202165273.044 1       175.686          24.000    38470777.835 1 150967635.508 1       130.457          29.000  
J 3  38666085.726 1 203191558.762 1     -1770.663          21.000    38666077.631 1 151734011.697 1     -1323.132          20.000  
> 2021  5 17  2 37 18.9990922  0  8                     
C 6  37728993.861 1 196464723.272 1     -2525.516          26.000  
C16  38164633.374 1 198733162.429 1     -2599.680          27.000  
G 1  21392994.938 1 112420862.940 1      2028.527          23.000                                                                  
G 8                                                                  21139850.786 1  82957315.279 1     -2169.059          33.000  
G21  20540155.846 1 107939150.342 1      -277.066          22.000                                                                  
G27  23334743.493 1 122624926.008 1     -3981.605          27.000    23334751.588 1  91570566.278 1     -2972.654          30.000  
J 2                                                                  38470593.462 1 150966917.055 1       128.495          26.000  
J 3  38666272.796 1 203192542.098 1     -1771.607          23.000                                                                  
> 2021  5 17  2 37 19.9990917  0  8                     
C 6  37729326.331 1 196466465.784 1     -2519.806          27.000  
C16  38164982.333 1 198734978.113 1     -2591.675          26.000  
G 1  21392454.712 1 112418043.053 1      2035.881          20.000                                                                  
G 8                                                                  21140253.707 1  82958897.745 1     -2171.975          33.000  
G21  20540062.910 1 107938638.155 1      -274.342          23.000                                                                  
G27                                                                  23335361.665 1  91572953.607 1     -2977.235          24.000  
J 2  38470409.690 1 202163349.97111       173.753          24.000    38470411.189 1 150966200.048 1       128.680          27.000  
J 3  38666458.668 1 203193527.729 1     -1774.222          21.000                                                                  
> 2021  5 17  2 37 20.9990909  0  9                     
C 6  37729570.662 1 196467729.865 1     -2506.829          22.000  
C16  38165239.854 1 198736316.094 1     -2580.996          27.000  
E21  24650128.471 1  96732397.73611      -701.622          29.000  
G 1  21391826.946 1 112414743.555 1      2043.482          24.000                                                                  
G 8                                                                  21140568.489 1  82960132.025 1     -2177.184          32.000  
G21  20539874.341 1 107937651.741 1      -273.411          24.000                                                                  
G27  23335879.407 1 122630856.85311     -3997.580          19.000    23335880.906 1  91574990.106 1     -2981.042          16.000  
J 2  38470136.279 1 202161918.082 1       169.232          22.000    38470138.977 1 150965130.245 1       127.294          28.000  
J 3  38666556.100 1 203194042.863 1     -1776.665          20.000                                                                  
> 2021  5 17  2 37 21.9990904  0  8                     
C16  38165583.416 1 198738111.683 1     -2572.190          27.000  
E21  24650157.851 1  96732513.500 1      -707.893          25.000  
G 1  21391289.718 1 112411907.107 1      2053.057          25.000                                                                  
G 8                                                                  21140974.408 1  82961723.755 1     -2182.283          23.000  
G21  20539777.208 1 107937136.470 1      -269.760          26.000                                                                  
G27  23336491.883 1 122634071.497 1     -4008.129          22.000    23336492.482 1  91577388.764 1     -2989.354          23.000  
J 2  38469952.206 1 202160963.906 1       163.727          22.000    38469957.603 1 150964416.664 1       123.518          28.000  
J 3  38666746.768 1 203195033.873 1     -1781.391          20.000                                                                  
> 2021  5 17  2 37 22.9990897  0  6                     
C 6  37730168.748 1 196470856.68611     -2495.530          21.000  
C16  38165866.121 1 198739586.379 1     -2564.814          28.000  
G 1  21390688.934 1 112408748.093 1      2056.779          22.000                                                                  
G 8                                                                  21141321.268 1  82963081.881 1     -2180.570          16.000  
G27  23337044.700 1 122636979.935 1     -4016.242          28.000    23337045.000 1  91579557.113 1     -2994.330          28.000  
J 2  38469713.571 1 202159697.928 1       161.521          21.000    38469717.169 1 150963470.117 1       121.704          28.000  
> 2021  5 17  2 37 23.9990892  0  6                     
C16  38166208.184 1 198741369.469 1     -2562.417          27.000  
G 1  21390148.708 1 112405903.654 1      2056.848          25.000                                                                  
G 8                                                                  21141729.285 1  82964675.681 1     -2184.422          14.000  
G21  20539521.785 1 107935779.67211      -265.693          19.000                                                                  
G27  23337658.975 1 122640210.550 1     -4019.941          29.000    23337659.275 1  91581965.293 1     -2998.367          29.000  
J 2  38469532.197 1 202158749.466 1       161.464          22.000    38469537.593 1 150962760.435 1       120.295          28.000  
> 2021  5 17  2 37 24.9990886  0  5                     
C16  38166520.268 1 198742994.734 1     -2562.076          30.000  
G 8                                                                  21142106.724 1  82966154.167 1     -2185.303          16.000  
G21  20539394.373 1 107935101.274 1      -267.961          20.000                                                                  
G27  23338245.969 1 122643285.475 1     -4020.449          30.000    23338244.769 1  91584258.959 1     -3000.299          29.000  
J 2  38469320.843 1 202157642.173 1       163.615          17.000    38469328.338 1 150961934.093 1       120.816          28.000  
> 2021  5 17  2 37 25.9990881  0  7                     
C16  38166862.331 1 198744776.656 1     -2563.623          30.000  
G 1  21389035.579 1 112400057.35811      2055.822          15.000                                                                  
G 7  20956546.285 1 110127393.74211      1157.999          29.000                                                                  
G 8                                                                  21142513.842 1  82967750.716 1     -2183.090          15.000  
G21  20539296.941 1 107934583.908 1      -271.983          24.000                                                                  
G27  23338862.342 1 122646517.801 1     -4019.430          28.000    23338859.344 1  91586671.318 1     -3000.777          27.000  
J 2                                                                  38469147.563 1 150961223.988 1       122.302          28.000  
> 2021  5 17  2 37 26.9990874  0  6                     
C16  38167146.534 1 198746247.918 1     -2564.749          30.000  
G 7  20956116.383 1 110125132.834 1      1157.849          27.000                                                                  
G 8                                                                  21142861.302 1  82969110.499 1     -2183.813          16.000  
G21  20539138.650 1 107933754.475 1      -274.496          23.000                                                                  
G27  23339416.358 1 122649434.174 1     -4018.796          27.000    23339414.560 1  91588848.321 1     -3000.355          27.000  
J 2  38468899.335 1 202155425.55811       163.896          17.000    38468907.130 1 150960278.030 1       123.511          27.000  
> 2021  5 17  2 37 27.9990868  0  7                     
C16  38167459.817 1 198747876.360 1     -2565.790          29.000  
C27  21676520.357 1 112875357.50111     -2146.662          27.000  
G 7  20955717.359 1 110123029.065 1      1158.366          27.000                                                                  
G 8                                                                  21143239.340 1  82970588.990 1     -2186.030          16.000  
G21  20539010.639 1 107933083.485 1      -274.101          22.000                                                                  
G27                                                                  23339998.555 1  91591141.792 1     -2999.760          28.000  
J 2                                                                  38468695.776 1 150959448.779 1       123.107          28.000  
> 2021  5 17  2 37 28.9990861  0  8                     
C 6  37731948.316 1 196480170.65511     -2491.591          17.000  
C16  38167744.320 1 198749350.076 1     -2566.910          29.000  
C27  21676725.115 1 112876411.994 1     -2147.461          27.000  
G 7  20955287.456 1 110120768.367 1      1157.104          27.000                                                                  
G 8                                                                  21143586.500 1  82971951.020 1     -2184.861          16.000  
G21  20538855.646 1 107932255.143 1      -274.695          24.000                                                                  
G27  23340555.270 1 122655420.62211     -4015.149          28.000    23340552.572 1  91593317.204 1     -2999.066          28.000  
J 2                                                                  38468454.743 1 150958502.733 1       121.695          27.000  
> 2021  5 17  2 37 29.9990853  0  9                     
C 6  37732186.651 1 196481414.481 1     -2494.542          18.000  
C16  38167999.444 1 198750668.259 1     -2566.774          30.000  
C27  21676897.196 1 112877309.862 1     -2146.826          27.000  
G 1  21386636.040 1 112387427.03011      2048.303          14.000                                                                  
G 7  20954827.575 1 110118351.023 1      1156.511          26.000                                                                  
G 8                                                                  21143903.380 1  82973195.279 1     -2185.921          15.000  
G21  20538670.674 1 107931270.248 1      -275.340          25.000                                                                  
G27  23341079.307 1 122658175.425 1     -4015.186          28.000    23341076.909 1  91595374.248 1     -2997.607          27.000  
J 2                                                                  38468184.030 1 150957440.267 1       122.215          27.000  
> 2021  5 17  2 37 30.9990851  0  7                     
C16  38168433.244 1 198752922.654 1     -2567.015          30.000  
C27  21677250.052 1 112879145.070 1     -2147.878          27.000  
G 7  20954548.468 1 110116878.916 1      1156.638          26.000                                                                  
G 8                                                                  21144401.036 1  82975144.737 1     -2184.580          16.000  
G21  20538664.379 1 107931230.964 1      -275.813          25.000                                                                  
G27  23341782.320 1 122661875.148 1     -4013.960          28.000    23341781.721 1  91598137.190 1     -2998.172          27.000  
J 2                                                                  38468092.594 1 150957081.855 1       124.469          26.000  
> 2021  5 17  2 37 31.9990843  0  8                     
C 6  37732840.498 1 196484842.59311     -2494.149          19.000  
C16  38168686.868 1 198754241.189 1     -2566.913          30.000  
C27  21677423.332 1 112880044.585 1     -2148.933          27.000  
G 7  20954087.987 1 110114462.631 1      1155.577          26.000                                                                  
G 8                                                                  21144718.816 1  82976388.194 1     -2184.709          15.000  
G21  20538479.706 1 107930246.368 1      -276.266          25.000                                                                  
G27  23342306.358 1 122664628.553 1     -4013.976          28.000    23342306.358 1  91600194.396 1     -2996.751          26.000  
J 2                                                                  38467821.581 1 150956017.754 1       122.511          27.000  
> 2021  5 17  2 37 32.9990838  0  8                     
C16  38169029.830 1 198756027.530 1     -2566.771          30.000  
C27  21677685.351 1 112881411.986 1     -2147.244          27.000  
G 1  21385033.649 1 112378932.64111      2044.007          14.000                                                                  
G 7  20953716.244 1 110112518.812 1      1156.368          26.000                                                                  
G 8                                                                  21145126.234 1  82977984.939 1     -2185.572          15.000  
G21  20538384.672 1 107929735.220 1      -276.936          27.000                                                                  
G27  23342920.033 1 122667855.013 1     -4014.454          29.000    23342920.333 1  91602602.291 1     -2996.047          27.000  
J 2                                                                  38467639.008 1 150955306.039 1       123.428          27.000  
> 2021  5 17  2 37 33.9990830  0  8                     
C16  38169282.556 1 198757345.523 1     -2567.157          30.000  
C27  21677857.432 1 112882311.411 1     -2148.533          27.000  
C37  23012332.893 1 119831142.71311     -2166.610          26.000  
G 7  20953256.362 1 110110101.220 1      1157.502          26.000                                                                  
G 8                                                                  21145444.014 1  82979230.970 1     -2186.851          15.000  
G21  20538199.700 1 107928752.308 1      -277.897          26.000                                                                  
G27  23343443.470 1 122670609.159 1     -4014.546          28.000    23343444.969 1  91604659.824 1     -2999.077          28.000  
J 2                                                                  38467368.595 1 150954241.072 1       123.037          27.000  
> 2021  5 17  2 37 34.9990825  0  8                     
C16  38169625.518 1 198759132.460 1     -2567.703          30.000  
C27  21678118.851 1 112883679.353 1     -2148.895          27.000  
C37  23012599.709 1 119832529.149 1     -2166.627          26.000  
G 7  20952884.320 1 110108156.106 1      1156.928          26.000                                                                  
G 8                                                                  21145851.432 1  82980828.852 1     -2185.906          16.000  
G21  20538105.865 1 107928242.558 1      -278.294          27.000                                                                  
G27  23344057.445 1 122673836.120 1     -4014.754          29.000    23344059.544 1  91607070.487 1     -2998.711          28.000  
J 2                                                                  38467187.220 1 150953529.517 1       123.128          27.000  
> 2021  5 17  2 37 35.9990817  0  9                     
C16  38169878.243 1 198760451.128 1     -2566.924          30.000  
C27  21678291.231 1 112884580.522 1     -2150.541          27.000  
C37  23012778.085 1 119833446.956 1     -2166.168          27.000  
G 1  21383241.490 1 112369485.41611      2049.195          18.000                                                                  
G 7  20952423.839 1 110105738.454 1      1156.962          25.000                                                                  
G 8                                                                  21146168.312 1  82982072.862 1     -2184.420          15.000  
G21  20537919.994 1 107927260.647 1      -278.681          26.000                                                                  
G27  23344580.283 1 122676590.408 1     -4014.694          28.000    23344583.281 1  91609126.215 1     -2995.132          27.000  
J 2                                                                  38466916.208 1 150952465.190 1       123.802          27.000  
> 2021  5 17  2 37 36.9990815  0  8                     
C16  38170310.544 1 198762704.991 1     -2565.573          28.000  
C27  21678643.787 1 112886418.713 1     -2150.695          26.000  
C37  23013134.838 1 119835300.854 1     -2166.023          26.000  
G 7  20952143.233 1 110104266.061 1      1156.944          25.000                                                                  
G 8                                                                  21146665.968 1  82984024.248 1     -2184.048          15.000  
G21  20537912.799 1 107927224.201 1      -278.691          25.000                                                                  
G27  23345285.395 1 122680289.747 1     -4014.493          28.000    23345286.894 1  91611887.145 1     -2997.081          27.000  
J 2                                                                  38466824.771 1 150952105.286 1       125.048          28.000  
> 2021  5 17  2 37 37.9990807  0  8                     
C16  38170564.168 1 198764021.408 1     -2565.275          29.000  
C27  21678818.566 1 112887319.860 1     -2149.857          27.000  
C37  23013312.016 1 119836218.321 1     -2167.179          26.000  
G 7  20951683.351 1 110101849.196 1      1156.056          26.000                                                                  
G 8                                                                  21146982.848 1  82985266.474 1     -2183.797          15.000  
G21  20537724.529 1 107926242.628 1      -279.071          24.000                                                                  
G27  23345808.533 1 122683043.568 1     -4013.998          28.000                                                                  
J 2                                                                  38466553.459 1 150951039.783 1       124.033          28.000  
> 2021  5 17  2 37 38.9990802  0  9                     
C16  38170907.431 1 198765805.955 1     -2565.039          29.000  
C27  21679080.585 1 112888689.332 1     -2150.654          28.000  
C37  23013579.430 1 119837604.414 1     -2166.398          26.000  
G 1  21381628.007 1 112360979.57911      2045.282          18.000                                                                  
G 7  20951311.909 1 110099905.554 1      1155.543          26.000                                                                  
G 8                                                                  21147391.166 1  82986863.188 1     -2185.724          15.000  
G21  20537626.497 1 107925734.161 1      -280.438          24.000                                                                  
G27  23346421.609 1 122686269.725 1     -4013.495          29.000                                                                  
J 2                                                                  38466372.684 1 150950328.794 1       123.728          29.000  
> 2021  5 17  2 37 39.9990794  0  9                     
C16  38171159.256 1 198767123.571 1     -2567.505          30.000  
C27  21679252.965 1 112889590.157 1     -2148.511          25.000  
C37  23013755.708 1 119838522.359 1     -2167.592          25.000  
G 1  21380998.743 1 112357674.217 1      2044.907          25.000                                                                  
G 7  20950852.627 1 110097489.596 1      1155.580          27.000                                                                  
G 8                                                                  21147709.246 1  82988107.769 1     -2184.957          15.000  
G21  20537435.529 1 107924754.088 1      -279.528          19.000                                                                  
G27  23346945.046 1 122689022.096 1     -4010.913          28.000                                                                  
J 2                                                                  38466099.873 1 150949263.384 1       125.649          27.000  
> 2021  5 17  2 37 40.9990787  0  9                     
C16  38171442.560 1 198768600.681 1     -2570.619          28.000  
C27  21679455.026 1 112890644.902 1     -2147.679          21.000  
C37  23013963.465 1 119839598.589 1     -2169.630          24.000  
G 1  21380399.457 1 112354525.536 1      2045.701          22.000                                                                  
G 7  20950423.923 1 110095230.219 1      1158.743          21.000                                                                  
G 8                                                                  21148056.105 1  82989469.171 1     -2184.127          17.000  
G21  20537279.337 1 107923931.850 1      -281.448          20.000                                                                  
G27  23347498.163 1 122691927.420 1     -4004.724          29.000                                                                  
J 2                                                                  38465859.440 1 150948314.882 1       126.323          20.000  
> 2021  5 17  2 37 41.9990784  0  7                     
C16  38171846.381 1 198770705.880 1     -2579.169          28.000  
C27  21679780.001 1 112892323.997 1     -2146.733          20.000  
C37  23014292.037 1 119841298.329 1     -2166.341          25.000  
G 1  21379921.588 1 112352008.044 1      2044.412          23.000                                                                  
G 8                                                                  21148520.784 1  82991298.019 1     -2180.126          29.000  
G27  23348169.399 1 122695456.190 1     -3997.842          30.000                                                                  
J 2                                                                  38465739.223 1 150947834.527 1       128.233          17.000  
> 2021  5 17  2 37 42.9990776  0  8                     
C16  38172102.104 1 198772039.016 1     -2585.905          27.000  
C27  21679952.681 1 112893220.963 1     -2144.631          23.000  
C37  23014471.313 1 119842214.581 1     -2164.320          21.000  
G 1  21379293.823 1 112348704.694 1      2041.115          23.000                                                                  
G 7  20949657.054 1 110091179.73011      1158.050          13.000                                                                  
G 8                                                                  21148834.067 1  82992534.548 1     -2175.453          30.000  
G27  23348688.040 1 122698190.104 1     -3991.263          27.000    23348692.836 1  91625255.08711     -2983.045          28.000  
J 2                                                                  38465464.313 1 150946764.074 1       129.148          25.000  
> 2021  5 17  2 37 43.9990771  0  9                     
C16  38172450.163 1 198773845.151 1     -2587.686          27.000  
C27  21680214.400 1 112894583.326 1     -2141.570          24.000  
C37  23014737.529 1 119843597.810 1     -2163.755          26.000  
G 1  21378757.194 1 112345875.763 1      2040.319          16.000                                                                  
G 7  20949287.110 1 110089235.938 1      1156.832          13.000                                                                  
G 8                                                                  21149236.089 1  82994120.319 1     -2172.565          31.000  
G21  20536948.067 1 107922249.90311      -282.406          23.000                                                                  
G27  23349296.019 1 122701390.394 1     -3985.677          26.000    23349301.715 1  91627647.020 1     -2976.517          24.000  
J 2                                                                  38465279.641 1 150946044.818 1       132.895          27.000  
> 2021  5 17  2 37 44.9990764  0  8                     
C16  38172737.364 1 198775339.892 1     -2588.476          17.000  
C27  21680414.661 1 112895630.679 1     -2138.884          25.000  
C37  23014945.885 1 119844669.753 1     -2165.738          25.000  
G 7  20948856.309 1 110086970.874 1      1165.682          12.000                                                                  
G 8                                                                  21149577.552 1  82995468.074 1     -2170.461          32.000  
G21  20536793.674 1 107921431.813 1      -288.068          24.000                                                                  
G27  23349844.639 1 122704272.306 1     -3983.202          23.000    23349849.735 1  91629799.824 1     -2974.692          25.000  
J 2                                                                  38465034.711 1 150945088.903 1       132.024          27.000  
> 2021  5 17  2 37 45.9990758  0  8                     
C16  38173055.743 1 198776994.442 1     -2593.900          26.000  
C27  21680644.902 1 112896832.335 1     -2138.103          21.000  
C37  23015183.620 1 119845899.039 1     -2166.576          25.000  
G 1  21377591.901 1 112339762.58811      2023.167          20.000                                                                  
G 8                                                                  21149948.995 1  82996931.555 1     -2168.473          31.000  
G21  20536665.362 1 107920775.300 1      -289.478          22.000                                                                  
G27  23350424.737 1 122707307.947 1     -3978.761          24.000    23350426.536 1  91632065.619 1     -2969.641          22.000  
J 2                                                                  38464820.059 1 150944249.554 1       133.750          27.000  
> 2021  5 17  2 37 46.9990751  0  6                     
C16  38173345.643 1 198778499.243 1     -2599.671          26.000  
C27  21680845.463 1 112897875.664 1     -2136.573          21.000  
G 1  21377000.111 1 112336640.389 1      2016.592          21.000                                                                  
G 8                                                                  21150290.159 1  82998275.810 1     -2167.062          31.000  
G27  23350973.358 1 122710182.326 1     -3975.588          23.000    23350973.957 1  91634211.162 1     -2969.057          20.000  
J 2                                                                  38464575.728 1 150943293.852 1       129.993          19.000  
> 2021  5 17  2 37 47.9990748  0  9                     
C16  38173755.759 1 198780631.837 1     -2602.449          26.000  
C27  21681166.541 1 112899542.711 1     -2135.525          18.000  
C37  23015726.844 1 119848686.06111     -2177.802          25.000  
G 1  21376528.837 1 112334416.945 1      2015.423          21.000                                                                  
G 7  20947702.108 1 110080943.65811      1166.005          29.000                                                                  
G 8                                                                  21150751.839 1  83000089.513 1     -2165.397          28.000  
G21  20536478.592 1 107919783.16311      -291.751          24.000                                                                  
G27  23351640.696 1 122713683.967 1     -3972.027          26.000    23351641.295 1  91636826.808 1     -2968.527          23.000  
J 2                                                                  38464453.713 1 150942811.429 1       130.647          20.000  
> 2021  5 17  2 37 48.9990740  0  7                     
C16  38174015.379 1 198781986.633 1     -2604.801          26.000  
C27  21681338.921 1 112900429.910 1     -2135.507          20.000  
C37  23015903.422 1 119849613.593 1     -2175.586          25.000  
G 1  21375907.967 1 112331142.901 1      2010.839          21.000                                                                  
G21  20536298.416 1 107918814.825 1      -292.420          25.000                                                                  
G27  23352157.538 1 122716394.793 1     -3969.876          22.000                                                                  
J 2                                                                  38464179.702 1 150941737.842 1       134.099          21.000  
> 2021  5 17  2 37 49.9990735  0  7                     
C16  38174366.136 1 198783809.302 1     -2601.790          17.000  
C27  21681597.043 1 112901782.828 1     -2132.789          20.000  
G 1  21375375.535 1 112328345.207 1      2008.209          21.000                                                                  
G 7  20946869.884 1 110076572.53611      1152.034          16.000                                                                  
G21  20536209.378 1 107918318.324 1      -289.962          17.000                                                                  
G27  23352763.418 1 122719576.491 1     -3968.893          23.000                                                                  
J 2                                                                  38463995.630 1 150941012.451 1       137.164          21.000  
> 2021  5 17  2 37 50.9990728  0  5                     
C27  21681797.904 1 112902823.221 1     -2135.103          21.000  
C37  23016374.695 1 119852080.20211     -2165.082          22.000  
G21  20536056.184 1 107917505.596 1      -289.470          18.000                                                                  
G27  23353307.242 1 122722441.710 1     -3966.216          23.000                                                                  
J 2                                                                  38463748.601 1 150940050.736 1       139.990          21.000  
> 2021  5 17  2 37 51.9990723  0  6                     
C16  38175005.294 1 198787143.16211     -2606.027          20.000  
C27  21682057.524 1 112904179.202 1     -2137.617          21.000  
C37  23016639.412 1 119853465.446 1     -2165.652          22.000  
G 1  21374250.115 1 112322432.53511      2014.231          19.000                                                                  
G27  23353910.424 1 122725619.046 1     -3964.504          28.000                                                                  
J 2                                                                  38463563.029 1 150939320.255 1       141.988          20.000  
> 2021  5 17  2 37 52.9990715  0  5                     
C16  38175266.413 1 198788502.163 1     -2609.074          24.000  
C27  21682226.007 1 112905068.079 1     -2137.357          22.000  
C37  23016814.191 1 119854381.956 1     -2165.334          24.000  
G27  23354423.369 1 122728322.423 1     -3963.863          27.000                                                                  
J 2                                                                  38463288.719 1 150938239.382 1       137.453          21.000  
> 2021  5 17  2 37 53.9990712  0  7                     
C16  38175676.529 1 198790643.209 1     -2610.101          23.000  
C27  21682546.186 1 112906736.333 1     -2135.616          22.000  
C37  23017139.166 1 119856077.568 1     -2163.566          27.000  
G 1  21373154.973 1 112316670.25811      2012.953          19.000                                                                  
G21  20535736.905 1 107915845.47911      -286.024          19.000                                                                  
G27  23355088.009 1 122731814.043 1     -3963.033          22.000                                                                  
J 2                                                                  38463165.804 1 150937749.380 1       136.156          26.000  
> 2021  5 17  2 37 54.9990705  0  7                     
C16  38175969.127 1 198792161.184 1     -2610.015          27.000  
C27  21682743.749 1 112907778.357 1     -2135.040          22.000  
C37  23017346.023 1 119857147.929 1     -2162.850          25.000  
G 7  20944878.063 1 110066086.19011      1146.234          14.000                                                                  
G 8                                                                  21153321.960 1  83010177.41111     -2162.547          31.000  
G21  20535581.313 1 107915029.506 1      -287.457          20.000                                                                  
G27  23355632.732 1 122734674.875 1     -3963.139          21.000                                                                  
> 2021  5 17  2 37 55.9990697  0  7                     
C16  38176231.145 1 198793521.359 1     -2609.762          27.000  
C27  21682912.232 1 112908663.434 1     -2133.897          22.000  
C37  23017525.299 1 119858060.486 1     -2160.801          26.000  
G 1  21371941.113 1 112310285.93811      2010.940          19.000                                                                  
G 7  20944419.080 1 110063677.852 1      1153.093          16.000                                                                  
G 8                                                                  21153633.444 1  83011398.741 1     -2162.211          30.000  
G27  23356148.675 1 122737377.954 1     -3964.925          25.000                                                                  
> 2021  5 17  2 37 56.9990692  0  6                     
C16  38176582.502 1 198795349.583 1     -2607.608          27.000  
C27  21683172.152 1 112910017.348 1     -2134.807          22.000  
C37  23017790.915 1 119859441.296 1     -2161.796          26.000  
G 8                                                                  21154034.866 1  83012972.716 1     -2162.053          30.000  
G21  20535300.108 1 107913557.94211      -289.250          20.000                                                                  
G27  23356753.956 1 122740555.776 1     -3966.443          23.000                                                                  
> 2021  5 17  2 37 57.9990684  0  2                     
C16  38176842.722 1 198796708.176 1     -2607.782          27.000  
G 8                                                                  21154345.751 1  83014194.561 1     -2163.322          29.000  
> 2021  5 17  2 37 58.9990679  0  4                     
C16  38177193.779 1 198798534.993 1     -2606.626          27.000  
G 8                                                                  21154747.173 1  83015769.868 1     -2163.910          31.000  
G21  20535023.999 1 107912085.90511      -288.019          21.000                                                                  
G27  23357870.982 1 122746443.39011     -3968.927          19.000                                                                  
> 2021  5 17  2 37 59.9990674  0  4                     
C16  38177545.135 1 198800360.138 1     -2604.145          25.000  
G 8                                                                  21155149.195 1  83017345.728 1     -2163.738          29.000  
G21  20534931.663 1 107911586.728 1      -288.575          20.000                                                                  
G27  23358478.362 1 122749626.080 1     -3971.420          23.000                                                                  
> 2021  5 17  2 38  0.9990669  0  6                     
C16  38177894.394 1 198802182.107 1     -2601.172          26.000  
G 1  21369189.318 1 112295798.83211      2019.049          18.000                                                                  
G 7  20942464.434 1 110053445.96511      1165.467          19.000                                                                  
G 8                                                                  21155551.516 1  83018924.551 1     -2167.722          28.000  
G21  20534834.830 1 107911087.074 1      -290.570          20.000                                                                  
G27  23359081.844 1 122752810.348 1     -3973.280          23.000                                                                  
> 2021  5 17  2 38  1.9990661  0  5                     
C16  38178152.815 1 198803531.334 1     -2595.037          24.000  
G 1  21368568.448 1 112292518.526 1      2021.994          19.000                                                                  
G 7  20942003.653 1 110051020.525 1      1165.267          20.000                                                                  
G 8                                                                  21155865.099 1  83020152.053 1     -2169.106          30.000  
G27  23359597.787 1 122755527.088 1     -3980.102          22.000                                                                  
> 2021  5 17  2 38  2.9990656  0  5                     
C16  38178499.675 1 198805343.748 1     -2591.189          20.000  
G 1  21368030.320 1 112289708.464 1      2022.623          19.000                                                                  
G 7  20941631.910 1 110049070.978 1      1159.133          20.000                                                                  
G 8                                                                  21156268.320 1  83021733.426 1     -2171.637          27.000  
G21  20534558.721 1 107909625.48011      -298.571          20.000                                                                  
> 2021  5 17  2 38  3.9990648  0  3                     
G 8                                                                  21156581.603 1  83022967.328 1     -2176.055          27.000  
G21  20534375.548 1 107908661.052 1      -297.463          20.000                                                                  
G27  23360725.606 1 122761443.99511     -3986.484          17.000                                                                  
> 2021  5 17  2 38  4.9990643  0  5                     
C16  38179104.956 1 198808488.38111     -2583.074          20.000  
G 1  21366868.625 1 112283608.11211      2030.065          20.000                                                                  
G 7  20940803.883 1 110044710.55911      1153.925          18.000                                                                  
G 8                                                                  21156986.023 1  83024555.883 1     -2177.665          27.000  
G27  23361336.283 1 122764644.202 1     -3990.534          19.000                                                                  
> 2021  5 17  2 38  5.9990638  0  5                     
C16  38179450.317 1 198810289.000 1     -2578.761          27.000  
G 7  20940432.740 1 110042770.100 1      1150.974          26.000                                                                  
G 8                                                                  21157391.343 1  83026146.423 1     -2179.111          28.000  
G21  20534201.068 1 107907954.07711      -298.316          20.000                                                                  
G27  23361943.363 1 122767848.796 1     -3994.643          24.000                                                                  
> 2021  5 17  2 38  6.9990633  0  5                     
C16  38179792.979 1 198812084.594 1     -2573.316          24.000  
G 7  20940063.096 1 110040832.769 1      1148.271          33.000                                                                  
G 8                                                                  21157798.161 1  83027740.706 1     -2183.351          30.000  
G21  20534113.529 1 107907461.487 1      -295.391          21.000                                                                  
G27  23362553.741 1 122771058.346 1     -3999.985          25.000                                                                  
> 2021  5 17  2 38  7.9990625  0  5                     
G 1  21365165.504 1 112274673.85911      2033.971          20.000                                                                  
G 7  20939603.814 1 110038424.822 1      1146.781          33.000                                                                  
G 8                                                                  21158114.742 1  83028983.272 1     -2183.763          29.000  
G21  20533929.157 1 107906496.745 1      -296.236          21.000                                                                  
G27  23363075.979 1 122773800.325 1     -4003.827          25.000                                                                  
> 2021  5 17  2 38  8.9990620  0  4                     
G 7  20939234.470 1 110036491.667 1      1144.006          32.000                                                                  
G 8                                                                  21158521.860 1  83030579.343 1     -2185.616          29.000  
G21  20533836.221 1 107906005.081 1      -296.717          22.000                                                                  
G27  23363683.059 1 122777017.327 1     -4005.464          20.000                                                                  
> 2021  5 17  2 38  9.9990612  0  7                     
C10  37343853.788 1 194459245.45311      -831.625          29.000  
C16  38180642.591 1 198816497.24911     -2556.438          18.000  
G 1  21364005.906 1 112268554.76011      2035.308          20.000                                                                  
G 7  20938775.487 1                      1143.804          31.000                                                                  
G 8                                                                  21158838.741 1  83031824.339 1     -2187.145          29.000  
G21  20533657.245 1 107905041.513 1      -296.359          22.000                                                                  
G27  23364204.398 1 122779763.969 1     -4008.590          23.000                                                                  
> 2021  5 17  2 38 10.9990607  0  3                     
C10  37343856.486 1 194459297.874 1      -834.133          28.000  
G 7  20938407.342 1 110032074.18511      1145.508          33.000                                                                  
G 8                                                                  21159246.159 1  83033423.363 1     -2188.192          31.000  
> 2021  5 17  2 38 11.9990602  0  6                     
C10  37343861.583 1 194459351.807 1      -835.392          28.000  
C16  38181327.917 1 198820051.83511     -2557.740          19.000  
G 1  21362929.652 1 112262907.17311      2033.658          20.000                                                                  
G 7  20938037.998 1 110030142.245 1      1144.154          32.000                                                                  
G 8                                                                  21159653.876 1  83035023.635 1     -2189.178          30.000  
G27  23365443.440 1 122786204.89111     -4009.060          12.000                                                                  
> 2021  5 17  2 38 12.9990595  0  7                     
C10  37343811.217 1 194459094.961 1      -835.808          29.000  
C16  38181608.822 1 198821517.363 1     -2558.992          19.000  
G 1  21362331.266 1 112259770.808 1      2034.085          20.000                                                                  
G 7  20937614.991 1 110027895.689 1      1144.079          33.000                                                                  
G 8                                                                  21160001.636 1  83036389.060 1     -2189.121          29.000  
G21  20533320.278 1 107903234.98711      -278.989          20.000                                                                  
G27  23365995.358 1 122789115.327 1     -4014.718          12.000                                                                  
> 2021  5 17  2 38 13.9990589  0  4                     
C10  37343795.928 1 194458993.985 1      -835.529          28.000  
G 7  20937215.068 1 110025807.084 1      1143.825          32.000                                                                  
G 8                                                                  21160379.974 1  83037871.959 1     -2188.932          29.000  
G21  20533203.659 1 107902575.738 1      -291.196          18.000                                                                  
> 2021  5 17  2 38 14.9990582  0  4                     
C10  37343749.760 1 194458736.784 1      -835.952          29.000  
G 7  20936787.264 1 110023561.273 1      1143.291          33.000                                                                  
G 8                                                                  21160727.133 1  83039236.702 1     -2187.356          30.000  
G27  23367132.471 1 122795092.55111     -4012.327          14.000                                                                  
> 2021  5 17  2 38 15.9990577  0  6                     
C 7  36810516.710 1 191682013.23311      -726.794          22.000  
C10  37343761.452 1 194458791.145 1      -834.453          29.000  
G 1  21360642.535 1 112250834.46211      2032.596          19.000                                                                  
G 7  20936422.416 1 110021630.670 1      1142.784          33.000                                                                  
G 8                                                                  21161134.252 1  83040835.809 1     -2189.106          30.000  
G27  23367741.949 1 122798314.780 1     -4009.624          13.000                                                                  
> 2021  5 17  2 38 16.9990572  0  6                     
C 7  36810505.617 1 191681959.081 1      -726.788          22.000  
C10  37343772.244 1 194458845.098 1      -834.535          28.000  
G 1  21360107.405 1 112248013.468 1      2033.634          20.000                                                                  
G 7  20936052.472 1 110019700.455 1      1140.727          33.000                                                                  
G 8                                                                  21161542.269 1  83042436.149 1     -2188.939          30.000  
G27  23368345.431 1 122801529.122 1     -4000.914          12.000                                                                  
> 2021  5 17  2 38 17.9990566  0  6                     
C10  37343751.859 1 194458742.906 1      -834.823          29.000  
G 1  21359542.297 1 112245033.937 1      2034.760          20.000                                                                  
G 7  20935656.147 1 110017613.059 1      1142.700          33.000                                                                  
G 8                                                                  21161920.607 1  83043918.539 1     -2187.676          30.000  
G21  20532743.178 1 107900145.38911      -299.928          17.000                                                                  
G27  23368924.930 1 122804587.592 1     -4004.723          13.000                                                                  
> 2021  5 17  2 38 18.9990559  0  4                     
C10  37343702.693 1 194458484.997 1      -834.195          29.000  
G 7  20935231.041 1 110015368.488 1      1141.972          32.000                                                                  
G 8                                                                  21162268.666 1  83045283.720 1     -2188.373          29.000  
G21  20532587.585 1 107899341.939 1      -299.563          18.000                                                                  
> 2021  5 17  2 38 19.9990554  0  7                     
C10  37343713.485 1 194458538.324 1      -833.884          29.000  
G 1  21358411.779 1 112239067.27111      2040.012          20.000                                                                  
G 7  20934862.296 1 110013439.261 1      1141.505          32.000                                                                  
G 8                                                                  21162676.684 1  83046883.759 1     -2188.026          30.000  
G27  23370086.326 1 122810706.67311     -4001.489          13.000                                                                  
G30  23928405.410 1 125744618.39411      2381.938          22.000                                                                  
J 2  38457560.585 1 202095816.63911       174.620          24.000                                                                  
> 2021  5 17  2 38 20.9990546  0  7                     
C 7  36810284.970 1 191680804.70911      -726.424          21.000  
C10  37343633.441 1 194458123.144 1      -833.711          29.000  
G 1  21357786.412 1 112235766.427 1      2038.668          20.000                                                                  
G 7  20934401.216 1 110011037.720 1      1141.333          32.000                                                                  
G 8                                                                  21162994.164 1  83048130.216 1     -2188.310          30.000  
G21  20532307.579 1 107897892.03011      -298.911          19.000                                                                  
J 2  38457288.373 1 202094380.906 1       175.639          24.000                                                                  
> 2021  5 17  2 38 21.9990541  0  7                     
C 7  36810274.177 1 191680751.191 1      -727.609          21.000  
C10  37343644.233 1 194458176.243 1      -833.358          29.000  
G 1  21357250.383 1 112232940.733 1      2036.910          20.000                                                                  
G 8                                                                  21163401.882 1  83049730.992 1     -2189.178          29.000  
G27  23371220.741 1 122816660.43411     -4000.142          15.000                                                                  
G30  23927110.606 1 125737804.63411      2383.040          23.000                                                                  
J 2  38457104.900 1 202093417.635 1       175.532          25.000                                                                  
> 2021  5 17  2 38 22.9990536  0  8                     
C 7  36810263.385 1 191680697.732 1      -725.869          21.000  
C10  37343655.625 1 194458229.066 1      -833.887          30.000  
G 7  20933671.221 1 110007180.52611      1140.967          33.000                                                                  
G 8                                                                  21163809.599 1  83051331.949 1     -2189.549          29.000  
G21  20532120.809 1 107896920.69311      -304.141          19.000                                                                  
G27  23371832.317 1 122819873.500 1     -4001.018          15.000                                                                  
G30  23926502.027 1 125734633.855 1      2381.332          22.000                                                                  
J 2  38456923.226 1 202092455.442 1       173.543          25.000                                                                  
> 2021  5 17  2 38 23.9990531  0  7                     
C 7  36810252.293 1 191680642.308 1      -723.919          21.000  
C10  37343667.917 1 194458281.841 1      -832.465          32.000  
G 7  20933299.179 1 110005252.102 1      1141.228          33.000                                                                  
G 8                                                                  21164217.317 1  83052932.428 1     -2188.146          30.000  
G21  20532028.472 1 107896437.653 1      -304.633          20.000                                                                  
G27  23372444.793 1 122823086.611 1     -4001.608          16.000                                                                  
J 2  38456744.250 1 202091494.314 1       173.085          22.000                                                                  
> 2021  5 17  2 38 24.9990523  0  6                     
C 7  36810151.263 1 191680118.219 1      -724.237          22.000  
C10  37343589.071 1 194457865.107 1      -832.269          31.000  
G 7  20932844.693 1 110002851.390 1      1139.234          31.000                                                                  
G 8                                                                  21164534.797 1  83054179.461 1     -2189.180          31.000  
G21  20531844.100 1 107895480.648 1      -302.240          20.000                                                                  
J 2  38456472.038 1 202090058.856 1       177.227          20.000                                                                  
> 2021  5 17  2 38 25.9990518  0  7                     
C 7  36810141.369 1 191680061.746 1      -722.297          22.000  
C10  37343597.465 1 194457917.352 1      -833.063          29.000  
G 7  20932475.049 1 110000923.719 1      1139.880          33.000                                                                  
G 8                                                                  21164942.815 1  83055780.553 1     -2189.262          31.000  
G21  20531749.965 1 107894995.108 1      -302.812          20.000                                                                  
G27  23373582.506 1 122829045.16911     -4005.219          24.000                                                                  
J 2  38456288.266 1 202089094.462 1       174.460          24.000                                                                  
> 2021  5 17  2 38 26.9990510  0  7                     
C 7  36810042.738 1 191679535.278 1      -722.570          23.000  
C10  37343516.222 1 194457499.676 1      -831.202          29.000  
G 1  21354380.770 1 112217872.26811      2032.793          19.000                                                                  
G 7  20932018.465 1 109998523.385 1      1138.614          32.000                                                                  
G 8                                                                  21165260.295 1  83057028.313 1     -2188.817          31.000  
G21  20531566.192 1 107894037.803 1      -302.727          21.000                                                                  
G30  23923910.621 1 125721014.66811      2381.381          20.000                                                                  
> 2021  5 17  2 38 27.9990505  0  7                     
C 7  36810028.048 1 191679475.871 1      -720.618          22.000  
C10  37343526.714 1 194457550.264 1      -830.836          29.000  
G 7  20931651.519 1 109996595.427 1      1140.777          33.000                                                                  
G 8                                                                  21165667.413 1  83058626.861 1     -2186.849          31.000  
G21  20531472.357 1 107893554.688 1      -306.866          21.000                                                                  
G27  23374722.916 1 122835009.31711     -4006.851          23.000                                                                  
J 2  38455830.483 1 202086698.41711       175.341          22.000                                                                  
> 2021  5 17  2 38 28.9990500  0  8                     
C 7  36810016.656 1 191679414.581 1      -718.371          22.000  
C10  37343535.708 1 194457600.195 1      -829.407          29.000  
G 1  21353305.114 1 112212234.31311      2027.432          23.000                                                                  
G 7  20931287.271 1 109994667.304 1      1141.179          34.000                                                                  
G 8                                                                  21166074.532 1  83060225.817 1     -2186.582          30.000  
G21  20531378.223 1 107893073.329 1      -305.520          21.000                                                                  
G27  23375339.289 1 122838228.036 1     -4005.810          25.000                                                                  
J 2  38455648.209 1 202085734.925 1       175.528          21.000                                                                  
> 2021  5 17  2 38 29.9990495  0  5                     
C10  37343544.402 1 194457648.115 1      -827.696          29.000  
G 7  20930920.625 1 109992738.065 1      1141.382          33.000                                                                  
G 8                                                                  21166481.650 1  83061822.698 1     -2183.714          29.000  
G27  23375951.466 1 122841444.548 1     -4000.674          22.000                                                                  
J 2  38455465.335 1 202084770.692 1       178.332          17.000                                                                  
> 2021  5 17  2 38 30.9990487  0  8                     
C 7  36809906.032 1 191678821.11211      -718.546          21.000  
C10  37343463.158 1 194457225.826 1      -826.006          29.000  
G 1  21352147.016 1 112206133.65511      2025.063          22.000                                                                  
G 7  20930464.641 1 109990335.028 1      1143.597          34.000                                                                  
G 8                                                                  21166797.631 1  83063063.825 1     -2180.236          31.000  
G21  20531103.613 1 107891636.99511      -307.900          21.000                                                                  
G27  23376473.704 1 122844182.517 1     -3995.803          25.000                                                                  
J 2  38455192.524 1 202083332.521 1       178.254          19.000                                                                  
> 2021  5 17  2 38 31.9990479  0  5                     
C10  37343382.514 1 194456801.308 1      -823.470          29.000  
G 1  21351520.750 1 112202849.637 1      2023.018          21.000                                                                  
G 7  20930005.958 1 109987930.872 1      1144.608          34.000                                                                  
G 8                                                                  21167113.312 1  83064302.420 1     -2178.416          29.000  
G27  23376993.244 1 122846916.041 1     -3990.438          22.000                                                                  
> 2021  5 17  2 38 32.9990474  0  6                     
C 7  36809787.614 1 191678221.82611      -710.892          20.000  
C10  37343389.709 1 194456842.095 1      -820.235          29.000  
G 7  20929639.612 1 109985998.103 1      1145.113          35.000                                                                  
G 8                                                                  21167517.433 1  83065890.994 1     -2176.051          29.000  
G21  20530827.804 1 107890206.47711      -311.080          21.000                                                                  
G27  23377599.425 1 122850114.950 1     -3982.225          26.000                                                                  
> 2021  5 17  2 38 33.9990469  0  6                     
C10  37343397.504 1 194456879.976 1      -817.869          29.000  
C16  38188187.168 1 198855723.58211     -2588.648          27.000  
G 7  20929271.467 1 109984064.503 1      1146.134          34.000                                                                  
G 8                                                                  21167921.853 1  83067476.777 1     -2171.634          28.000  
G27  23378202.907 1 122853306.437 1     -3976.256          27.000                                                                  
J 2  38454541.975 1 202079951.99411       185.903          22.000                                                                  
> 2021  5 17  2 38 34.9990464  0  8                     
C10  37343403.800 1 194456916.273 1      -814.500          28.000  
C16  38188534.328 1 198857533.663 1     -2592.629          24.000  
G 1  21349911.764 1 112194430.02811      2014.137          20.000                                                                  
G 7  20928899.724 1 109982130.381 1      1146.628          35.000                                                                  
G 8                                                                  21168325.673 1  83069059.449 1     -2170.566          28.000  
G21  20530645.830 1 107889252.77311      -308.413          20.000                                                                  
G27  23378807.888 1 122856491.932 1     -3970.785          31.000                                                                  
J 2  38454353.705 1 202078978.694 1       186.315          23.000                                                                  
> 2021  5 17  2 38 35.9990456  0  6                     
C10  37343320.157 1 194456480.154 1      -812.871          11.000  
C16  38188790.351 1 198858880.761 1     -2596.535          18.000  
G 7  20928439.843 1 109979723.390 1      1145.139          34.000                                                                  
G 8                                                                  21168638.656 1  83070288.131 1     -2169.059          28.000  
G27  23379321.133 1 122859200.073 1     -3966.922          32.000                                                                  
J 2  38454074.598 1 202077531.921 1       186.909          23.000                                                                  
> 2021  5 17  2 38 36.9990451  0  7                     
C10  37343329.751 1 194456512.940 1      -813.324          15.000  
G 1  21348758.762 1 112188365.13911      2003.998          21.000                                                                  
G 7  20928071.098 1 109977789.106 1      1146.583          34.000                                                                  
G 8                                                                  21169041.877 1  83071867.899 1     -2166.743          26.000  
G21  20530385.010 1 107887832.66611      -315.900          19.000                                                                  
G27  23379924.015 1 122862377.776 1     -3964.474          32.000                                                                  
J 2  38453887.827 1 202076556.822 1       187.887          23.000                                                                  
> 2021  5 17  2 38 37.9990444  0  8                     
C10  37343274.589 1 194456233.377 1      -813.217          30.000  
C16  38189430.108 1 198862204.04911     -2598.916          24.000  
G 1  21348164.273 1 112185258.984 1      2002.458          24.000                                                                  
G 7  20927643.294 1 109975539.672 1      1145.623          33.000                                                                  
G 8  21169381.542 1 111245935.12211     -2903.338          24.000    21169384.240 1  83073211.486 1     -2166.606          26.000  
G21  20530231.516 1 107887045.846 1      -315.685          20.000                                                                  
G27  23380470.537 1 122865240.426 1     -3965.732          32.000                                                                  
J 3  38678576.279 1 203257247.64111     -1758.464          24.000                                                                  
> 2021  5 17  2 38 38.9990438  0  8                     
C10  37343250.006 1 194456109.829 1      -813.006          30.000  
C16  38189749.986 1 198863865.592 1     -2597.286          26.000  
G 1  21347601.863 1 112182311.314 1      2002.847          24.000                                                                  
G 7  20927245.469 1 109973448.282 1      1146.690          33.000                                                                  
G 8  21169753.884 1 111247893.027 1     -2903.196          24.000    21169756.582 1  83074672.636 1     -2167.695          26.000  
G21  20530112.199 1 107886415.257 1      -314.380          20.000                                                                  
G27  23381044.340 1 122868261.376 1     -3965.896          32.000                                                                  
J 3  38678727.974 1 203258059.423 1     -1756.097          24.000                                                                  
