     3.03           OBSERVATION DATA    M: Mixed            RINEX VERSION / TYPE
RTKCONV demo5 b33c                      20210520 090239 UTC PGM / RUN BY / DATE 
log: C:\Users\Ivan_PolyU_Dktp\Dropbox\HUAWEI Exp\20210517_  COMMENT             
format: RINEX                                               COMMENT             
Geo++                                                       MARKER NAME         
                                                            MARKER NUMBER       
                                                            MARKER TYPE         
                                                            OBSERVER / AGENCY   
unknown             Google              Pixel 4             REC # / TYPE / VERS 
unknown             Pixel 4                                 ANT # / TYPE        
 -2419229.7018  5385470.4249  2405344.1980                  APPROX POSITION XYZ 
        0.0000        0.0000        0.0000                  ANTENNA: DELTA H/E/N
G    8 C1C L1C D1C S1C C5Q L5Q D5Q S5Q                      SYS / # / OBS TYPES 
R    4 C1C L1C D1C S1C                                      SYS / # / OBS TYPES 
E    8 C1C L1C D1C S1C C5Q L5Q D5Q S5Q                      SYS / # / OBS TYPES 
J    8 C1C L1C D1C S1C C5Q L5Q D5Q S5Q                      SYS / # / OBS TYPES 
  2021     5    17     2    33   13.4446064     GPS         TIME OF FIRST OBS   
  2021     5    17     2    46   18.4446844     GPS         TIME OF LAST OBS    
G                                                           SYS / PHASE SHIFT   
R                                                           SYS / PHASE SHIFT   
E                                                           SYS / PHASE SHIFT   
J                                                           SYS / PHASE SHIFT   
  3 R01  1 R09 -2 R17  4                                    GLONASS SLOT / FRQ #
 C1C    0.000 C1P    0.000 C2C    0.000 C2P    0.000        GLONASS COD/PHS/BIS 
                                                            END OF HEADER       
> 2021  5 17  2 33 13.4446064  0  9                     
E 1  25367689.971 1                      1556.000          22.500                                                                  
E26  23015766.273 1                      1204.300          24.250    23013655.735 1                       900.100          21.000  
G 1  21535527.222 1                      3331.250          24.250                                                                  
G 8  21048989.245 1                     -1685.950          17.000                                                                  
G 9  22982617.022 1 120774427.177 1     -1775.092          34.000                                                                  
G16  24268996.480 1                     -1485.850          20.500                                                                  
G21  20575739.269 1 108126203.745 1      1076.232          27.250                                                                  
J 2                                                                  38520080.960 1 151161071.17411      1002.842          24.000  
J 3  38627361.091 1                      -590.600          17.000                                                                  
> 2021  5 17  2 33 14.4446066  0  7                     
E 1  25367436.266 1                      1564.350          26.000                                                                  
E26  23015615.397 1                      1205.000          25.000                                                                  
G 1  21534958.735 1                      3329.950          25.250                                                                  
G 9  22983005.772 1 120776517.031 1     -1774.417          33.750                                                                  
G16  24269355.551 1                     -1486.000          22.250                                                                  
G21  20575605.481 1 108125442.333 1      1076.461          27.500                                                                  
J 2                                                                  38519887.513 1                      1006.600          23.500  
> 2021  5 17  2 33 15.4446067  0  7                     
E 1  25367175.082 1                      1560.050          24.500    25365077.734 1                      1163.750          18.500  
E26  23015409.375 1                      1205.250          22.500    23013291.941 1                       899.000          20.250  
G 1  21534341.097 1                      3329.700          25.250                                                                  
G 9  22983368.457 1 120778449.741 1     -1774.331          33.500                                                                  
G16  24269687.656 1                     -1484.650          22.750                                                                  
G21  20575418.046 1 108124523.59511      1076.386          26.500                                                                  
J 2                                                                  38519660.206 1 151159420.01511      1003.919          24.000  
> 2021  5 17  2 33 16.4446069  0  7                     
E 1  25366945.030 1                      1554.750          25.500    25364836.290 1                      1164.450          22.500  
E26  23015237.783 1                      1200.000          24.500                                                                  
G 1  21533768.084 1                      3327.550          25.250                                                                  
G 9  22983776.364 1 120780541.344 1     -1776.566          33.500                                                                  
G16  24269972.649 1                     -1489.300          24.000                                                                  
G21  20575268.939 1 108123764.20911      1074.508          26.500                                                                  
J 2                                                                  38519466.130 1                       999.650          23.750  
> 2021  5 17  2 33 17.4446071  0  8                     
E 1  25366710.760 1                      1557.200          26.000                                                                  
E26  23015066.470 1                      1198.800          24.500                                                                  
G 1  21533198.046 1 113157718.90911      3326.633          25.750                                                                  
G 9  22984165.062 1 120782632.926 1     -1776.969          33.500                                                                  
G16  24270334.665 1                     -1489.050          24.500                                                                  
G21  20575146.791 1 108123005.71411      1072.962          26.500                                                                  
J 2                                                                  38519267.534 1 151157878.77511      1002.308          24.500  
J 3  38628068.513 1                      -594.850          17.250                                                                  
> 2021  5 17  2 33 18.4446072  0  8                     
E 1  25366450.295 1                      1561.300          26.000                                                                  
E26  23014876.455 1                      1206.050          24.500    23012752.126 1                       897.550          19.000  
G 1  21532582.626 1                      3329.450          24.750                                                                  
G 9  22984542.855 1 120784565.096 1     -1774.709          34.000                                                                  
G16  24270680.680 1                     -1483.550          23.750                                                                  
G21  20574947.783 1 108122088.13511      1074.871          26.750                                                                  
J 2                                                                  38519044.543 1                      1005.900          23.250  
R15  23291283.603 1                     -2165.100          14.750  
> 2021  5 17  2 33 19.4446074  0  9                     
E 1  25366207.148 1                      1560.000          26.250    25364101.706 1                      1166.900          20.000  
E13  25292677.352 1                     -1556.000          18.250                                                                  
E26  23014711.255 1                      1200.500          24.500                                                                  
G 1  21532022.599 1 113151542.23711      3328.737          27.250                                                                  
G 9  22984940.365 1 120786655.576 1     -1774.557          34.500                                                                  
G16  24271033.221 1                     -1480.150          24.750                                                                  
G21  20574820.057 1 108121329.24111      1074.589          26.000                                                                  
G27  23194905.709 1                     -2829.300          15.250                                                                  
J 2                                                                  38518849.364 1 151156237.75611      1004.630          23.000  
> 2021  5 17  2 33 20.4446075  0  7                     
E 1  25365929.966 1                      1558.700          23.250                                                                  
E26  23014510.220 1                      1200.450          26.000    23012383.493 1                       893.250          21.000  
G 1  21531418.344 1                      3326.400          23.750                                                                  
G 8  21051528.564 1                     -1678.700          15.500                                                                  
G 9  22985314.332 1 120788588.373 1     -1777.174          34.000                                                                  
G16  24271333.140 1                     -1485.450          25.250                                                                  
G21  20574643.305 1                      1069.450          24.750                                                                  
> 2021  5 17  2 33 21.4446076  0  9                     
E 1  25365685.132 1                      1556.000          22.000                                                                  
E13  25293350.908 1                     -1560.400          23.000                                                                  
G 1  21530804.765 1                      3324.300          25.250                                                                  
G 8  21051967.257 1                     -1673.150          22.250                                                                  
G 9  22985682.574 1 120790523.569 1     -1775.305          34.000                                                                  
G16  24271614.741 1                     -1487.950          24.000                                                                  
G21  20574462.627 1 108119530.78611      1069.086          28.000                                                                  
J 3  38628666.262 1                      -595.850          17.000                                                                  
R 9  21069289.865 1                      2904.450          14.250  
> 2021  5 17  2 33 22.4446078  0 10                     
E 1                                                                  25363323.563 1                      1163.250          20.000  
E13  25293665.886 1                     -1565.750          24.500    25291556.246 1                     -1170.000          16.750  
E26  23014150.462 1                      1201.100          19.250                                                                  
G 1  21530244.948 1 113142199.85611      3328.720          26.000                                                                  
G 4  23659996.352 1                     -2634.350          17.500                                                                  
G 9  22986071.900 1 120792610.096 1     -1768.757          33.500                                                                  
G16  24271998.072 1                     -1487.100          21.000                                                                  
G21  20574325.217 1 108118775.93311      1069.739          29.500                                                                  
G27  23196694.989 1                     -2824.400          19.500                                                                  
J 2                                                                  38518196.234 1                      1005.600          19.500  
> 2021  5 17  2 33 23.4446079  0  8                     
E 1  25365169.219 1                      1553.400          21.000    25363052.984 1                      1157.950          22.000  
E13  25294017.676 1                     -1576.550          23.000    25291879.856 1                     -1173.800          22.250  
E26                                                                  23011814.313 1                       894.150          19.000  
G 1  21529653.891 1 113139026.30711      3331.945          27.000                                                                  
G 8  21052670.600 1                     -1669.750          20.500                                                                  
G 9  22986435.083 1 120794532.251 1     -1762.616          31.250                                                                  
G21  20574145.176 1                      1069.300          25.250                                                                  
G27  23197286.613 1                     -2818.000          21.500                                                                  
> 2021  5 17  2 33 24.4446081  0 10                     
E 1  25364941.938 1                      1558.550          22.250                                                                  
E13  25294362.999 1                     -1574.000          25.750    25292236.870 1                     -1177.700          22.000  
E26  23013792.605 1                      1206.000          20.250                                                                  
G 1  21529064.760 1                      3329.950          24.500                                                                  
G 8  21053046.801 1                     -1664.500          21.750                                                                  
G 9  22986833.468 1 120796609.091 1     -1758.913          32.000                                                                  
G16  24272629.530 1                     -1497.900          22.000                                                                  
G21  20573999.738 1                      1070.200          25.000                                                                  
G27  23197911.642 1                     -2812.750          21.750                                                                  
J 2  38520116.500 1                      1338.800          18.500    38517781.416 1                       997.100          23.250  
> 2021  5 17  2 33 25.4446083  0  8                     
E13  25294726.268 1                     -1566.100          24.750    25292596.543 1                     -1173.450          24.000  
E26  23013601.858 1                      1202.450          22.000    23011477.529 1                       894.800          21.250  
G 1  21528514.862 1                      3332.000          22.250                                                                  
G 9  22987226.117 1 120798683.835 1     -1758.822          33.000                                                                  
G16  24272926.546 1                     -1492.550          23.750                                                                  
G21  20573863.254 1                      1074.650          23.250                                                                  
J 2  38519934.147 1                      1332.100          25.250    38517586.473 1                      1001.100          23.750  
J 3  38629322.419 1                      -596.650          19.000                                                                  
> 2021  5 17  2 33 26.4446084  0  9                     
E13  25295061.200 1                     -1560.550          23.000    25292926.078 1  99254874.12611     -1175.400          24.000  
E26                                                                  23011282.727 1                       900.150          23.000  
G 1  21527892.857 1                      3334.600          25.000                                                                  
G 8  21053797.466 1                     -1664.900          21.500                                                                  
G 9  22987594.326 1 120800599.58511     -1759.735          28.750                                                                  
G16  24273275.868 1                     -1481.000          23.750                                                                  
G21  20573705.927 1                      1074.500          21.500                                                                  
J 2  38519682.086 1                      1337.150          23.250                                                                  
J 3  38629452.593 1                      -598.150          23.250                                                                  
> 2021  5 17  2 33 27.4446086  0 12                     
E13  25295444.068 1                     -1547.700          24.000                                                                  
E26  23013243.103 1                      1203.600          20.250                                                                  
G 1  21527327.181 1                      3327.250          23.750                                                                  
G 7  21054941.507 1                      2446.800          27.000                                                                  
G 8  21054182.432 1                     -1673.750          23.750                                                                  
G 9  22988078.824 1                     -1767.750          24.250                                                                  
G16  24273690.513 1                     -1476.750          22.250                                                                  
G21  20573543.771 1                      1074.800          22.500                                                                  
G27  23199645.359 1                     -2822.150          19.750                                                                  
J 2                                                                  38517168.059 1                       999.150          21.000  
R 9  21066285.653 1                      2909.050          22.000  
R15  23295343.009 1                     -2172.200          14.250  
> 2021  5 17  2 33 28.4446087  0 11                     
E26  23013029.574 1                      1204.900          30.500                                                                  
G 1  21526725.421 1 113123705.17211      3333.914          29.500                                                                  
G 7  21054503.134 1 110642160.60711      2446.321          34.750                                                                  
G 8  21054518.423 1                     -1673.750          23.250                                                                  
G 9  22988397.726 1 120804844.64211     -1766.185          27.750                                                                  
G16  24273935.367 1                     -1484.750          25.000                                                                  
G21  20573360.522 1 108113738.54311      1074.895          32.000                                                                  
G27  23200231.077 1                     -2819.750          23.000                                                                  
G30  24114345.949 1                      3586.400          18.750                                                                  
J 2  38519298.008 1                      1343.550          21.500    38516949.134 1                      1001.950          22.500  
R 9  21065793.018 1                      2914.400          23.500  
> 2021  5 17  2 33 29.4446089  0 15                     
E 1  25363667.454 1                      1564.200          18.000                                                                  
E13  25296109.824 1                     -1559.150          33.500    25293968.706 1                     -1162.900          23.250  
E26  23012862.883 1 120933410.64011      1206.514          33.500    23010735.855 1                       902.050          24.500  
G 1  21526143.517 1 113120683.39911      3338.683          35.000                                                                  
G 4  23663845.417 1                     -2618.400          17.000                                                                  
G 7  21054116.395 1 110640023.86711      2454.619          30.500                                                                  
G 8  21054911.144 1 110644304.57911     -1670.619          27.500                                                                  
G 9  22988758.370 1 120806932.90411     -1780.278          30.000                                                                  
G16  24274276.524 1                     -1471.400          23.250                                                                  
G21  20573217.514 1 108112976.634 1      1078.626          39.500                                                                  
G27  23200797.678 1                     -2821.650          24.750                                                                  
J 2  38519104.935 1 202419261.71511      1349.111          29.750    38516741.970 1                      1005.400          28.250  
J 3  38629983.775 1                      -589.600          23.000                                                                  
R 9  21065279.467 1                      2924.550          24.000  
R16  20171583.160 1                       333.550          18.250  
> 2021  5 17  2 33 30.4446090  0 13                     
E13  25296439.900 1 132933688.47811     -1560.328          37.000    25294298.782 1  99260260.51711     -1163.168          28.750  
E26  23012653.932 1                      1203.200          27.750    23010538.896 1  90298296.71411       900.210          25.750  
G 1  21525521.453 1 113117504.307 1      3337.097          35.000                                                                  
G 4  23664416.227 1                     -2615.000          21.250                                                                  
G 7  21053664.912 1                      2438.550          29.750                                                                  
G 8  21055251.114 1 110646134.94111     -1674.123          32.750                                                                  
G21  20573043.639 1 108112058.289 1      1077.492          34.000                                                                  
G27  23201356.496 1                     -2830.050          32.000                                                                  
G30  24113268.493 1                      3619.550          25.250                                                                  
J 2  38518863.607 1 202418070.43411      1349.624          30.500    38516517.131 1 151147085.82811      1007.043          32.250  
J 3  38630094.103 1 203002513.69011      -591.846          27.750                                                                  
R 9  21064791.709 1                      2925.450          25.250  
R16  20171626.634 1                       328.050          26.000  
> 2021  5 17  2 33 31.4446092  0 15                     
E13  25296797.121 1 132935562.85411     -1561.782          36.500    25294658.401 1  99261658.880 1     -1165.106          30.500  
E26  23012495.510 1                      1207.250          26.500    23010366.983 1  90297630.236 1       900.148          26.250  
G 1  21524947.218 1 113114478.840 1      3339.188          33.500                                                                  
G 4  23664970.411 1                     -2611.750          23.750                                                                  
G 7  21053252.266 1 110635587.18511      2435.168          30.000                                                                  
G 8  21055616.429 1                     -1684.750          33.500                                                                  
G 9  22989606.955 1                     -1767.550          20.500                                                                  
G21  20572896.909 1 108111293.573 1      1077.622          34.250                                                                  
G27  23201952.352 1 121927082.52711     -2827.867          33.500                                                                  
G30  24112679.868 1 126712987.50211      3626.212          27.500                                                                  
J 2  38518661.115 1 202417035.206 1      1347.654          31.250    38516319.736 1 151146312.843 1      1006.211          32.000  
J 3  38630279.543 1 203003417.63911      -590.969          30.000    38627923.774 1                      -445.550          32.750  
R 9  21064261.844 1                      2924.350          25.750  
R16  20171615.410 1                       324.300          23.000  
R18  22183420.067 1                     -3646.400          18.250  
> 2021  5 17  2 33 32.4446093  0 17                     
E 1  25362922.932 1                      1579.850          19.750                                                                  
E13  25297137.075 1 132937283.986 1     -1561.089          38.750    25294981.867 1  99262944.89411     -1166.996          24.750  
E26  23012297.036 1 120930437.21711      1205.779          29.500    23010168.810 1  90296848.742 1       900.833          29.500  
E27  27453009.695 1                      -957.150          19.000                                                                  
G 1  21524342.826 1 113111297.332 1      3342.373          32.750                                                                  
G 4  23665491.739 1                     -2609.450          24.750                                                                  
G 7  21052819.055 1 110633312.95011      2432.170          27.500                                                                  
G 8  21055970.773 1 110649872.43711     -1682.410          33.250                                                                  
G 9  22990009.566 1                     -1760.350          23.500                                                                  
G21  20572726.616 1 108110374.471 1      1079.092          34.750                                                                  
G27  23202516.250 1 121930071.13111     -2842.763          31.000                                                                  
G30  24111996.330 1 126709518.511 1      3629.714          29.250                                                                  
J 2  38518445.253 1 202415847.36311      1347.486          30.000    38516094.281 1 151145425.579 1      1006.114          32.500  
J 3  38630417.137 1 203004167.33311      -589.902          29.750    38628067.064 1 151584749.46811      -442.353          32.500  
R 9  21063802.551 1                      2921.700          22.750  
R16  20171602.808 1                       329.550          24.250  
R18  22184188.124 1 118420702.17111     -3639.706          30.000  
> 2021  5 17  2 33 33.4446095  0 16                     
E13  25297473.719 1 132939159.88311     -1561.981          36.500    25295340.995 1  99264347.702 1     -1169.517          33.750  
E26  23012121.036 1 120929545.751 1      1206.552          31.000    23009998.805 1  90296183.075 1       901.342          30.500  
G 1  21523771.399 1 113108267.62211      3346.494          26.750                                                                  
G 4  23666025.947 1 124365804.85511     -2605.472          26.000                                                                  
G 7  21052432.000 1                      2427.350          22.000                                                                  
G 8  21056349.988 1 110651864.65011     -1674.034          32.500                                                                  
G 9  22990370.793 1                     -1757.900          23.750                                                                  
G21  20572578.196 1 108109610.223 1      1079.780          38.250                                                                  
G27  23203117.911 1                     -2833.100          28.000                                                                  
G30  24111367.943 1                      3631.050          23.250                                                                  
J 1  37356240.708 1                      -106.550          17.000                                                                  
J 2  38518246.768 1 202414814.69611      1347.879          30.750    38515896.995 1 151144655.077 1      1005.671          31.750  
J 3  38630600.887 1 203005072.53011      -590.316          28.000    38628241.820 1 151585427.247 1      -442.593          32.500  
R 9  21063288.984 1                      2933.500          24.250  
R16  20171586.297 1                       330.850          24.000  
R18  22184937.883 1                     -3642.200          25.000  
> 2021  5 17  2 33 34.4446096  0 15                     
E13  25297798.887 1 132940883.28911     -1565.532          35.750    25295668.262 1  99265634.371 1     -1168.632          33.250  
E26  23011926.064 1 120928495.047 1      1208.467          31.500    23009798.737 1  90295398.433 1       902.832          30.000  
E27  27453378.611 1                      -961.850          22.250                                                                  
G 1  21523173.206 1 113105079.45111      3345.533          29.500                                                                  
G 4  23666512.703 1 124368566.05511     -2606.474          26.500                                                                  
G 7  21052024.176 1                      2445.350          21.000                                                                  
G 8  21056697.641 1                     -1692.400          29.000                                                                  
G 9  22990741.230 1 120817160.50711     -1759.951          26.250                                                                  
G16  24276024.947 1                     -1475.150          18.500                                                                  
G21  20572399.413 1 108108686.544 1      1081.818          39.000                                                                  
G22  24963253.289 1                      1866.350          17.000                                                                  
G27  23203696.105 1 121936245.06711     -2831.200          29.500                                                                  
J 2  38518094.967 1                      1348.100          21.000                                                                  
J 3  38630732.390 1 203005820.76511      -591.323          27.000    38628384.115 1 151585986.819 1      -441.471          31.750  
R 9  21062759.744 1                      2932.500          24.500  
> 2021  5 17  2 33 35.4446098  0 15                     
E 1  25362173.611 1                      1581.100          22.000    25360068.168 1                      1168.200          14.750  
E13  25298159.527 1 132942763.52611     -1561.920          38.500    25296026.503 1  99267039.385 1     -1168.375          32.000  
E26  23011753.673 1 120927602.631 1      1208.806          30.000    23009629.343 1  90294732.25911       902.726          27.750  
E27  27453618.434 1                      -953.400          24.500                                                                  
G 1  21522607.787 1                      3343.900          23.000                                                                  
G 4  23667104.783 1                     -2604.700          23.750                                                                  
G 7  21051602.657 1 110626918.10011      2432.765          26.500                                                                  
G 8  21057085.561 1                     -1690.400          25.500                                                                  
G 9  22991165.126 1 120819234.09211     -1755.290          27.500                                                                  
G21  20572257.001 1 108107920.925 1      1082.296          38.250                                                                  
G22  24962952.586 1                      1867.550          17.750                                                                  
G27  23204310.968 1 121939391.85611     -2830.641          28.250                                                                  
J 1  37356357.210 1                       -94.850          25.500                                                                  
R 9  21062339.424 1                      2923.300          26.750  
R15  23298858.314 1                     -2140.250          17.500  
> 2021  5 17  2 33 36.4446099  0 16                     
E 1                                                                  25359756.816 1                      1151.550          22.000  
E13  25298491.529 1                     -1564.700          22.000                                                                  
E26  23011552.644 1 120926550.546 1      1209.041          30.000    23009430.114 1  90293946.475 1       902.999          27.000  
E27  27453841.911 1                      -951.950          24.750                                                                  
G 1  21522004.437 1                      3339.500          22.000                                                                  
G 4  23667683.514 1                     -2612.850          25.000                                                                  
G 7  21051162.994 1 110624647.866 1      2423.299          29.750                                                                  
G 8  21057466.730 1                     -1677.450          30.250                                                                  
G 9  22991483.937 1                     -1762.300          25.500                                                                  
G21  20572080.855 1 108106995.229 1      1082.755          36.250                                                                  
G22  24962615.751 1                      1871.750          19.000                                                                  
G27  23204851.926 1 121942382.77911     -2836.812          28.750                                                                  
G30  24109247.226 1                      3560.200          23.500                                                                  
J 1  37356392.118 1 196309164.94111       -92.593          28.500                                                                  
R 9  21061766.053 1                      2875.800          30.000  
R15  23299346.209 1                     -2144.600          21.750  
> 2021  5 17  2 33 37.4446101  0 16                     
E 1  25361676.496 1                      1573.400          23.500                                                                  
E26  23011386.068 1 120925655.48211      1209.717          29.750    23009259.640 1  90293278.063 1       903.235          27.500  
G 1  21521406.759 1                      3344.750          24.250                                                                  
G 4  23668140.806 1                     -2655.000          22.000                                                                  
G 7  21050758.082 1 110622539.690 1      2421.574          30.250                                                                  
G 8  21057811.299 1                     -1699.450          27.750                                                                  
G 9  22991866.881 1                     -1780.300          30.000                                                                  
G16  24277001.001 1                     -1484.750          19.250                                                                  
G21  20571934.365 1 108106226.318 1      1083.512          36.250                                                                  
G22  24962309.771 1                      1871.800          19.500                                                                  
G27  23205533.462 1                     -2782.500          27.750                                                                  
G30  24108765.568 1                      3639.250          23.000                                                                  
J 1  37356546.920 1                       -86.400          22.250                                                                  
R 9  21061308.379 1                      2927.150          34.500  
R15  23299717.460 1 124506625.72611     -2125.857          30.500  
R20  20880954.435 1                      3533.850          19.500  
> 2021  5 17  2 33 38.4446102  0 18                     
E 1  25361406.831 1 133275092.79111      1566.149          30.500    25359281.902 1                      1173.900          20.250  
E13  25299203.193 1                     -1555.150          21.000                                                                  
E26  23011182.357 1 120924602.344 1      1210.757          30.750    23009058.028 1  90292491.714 1       904.222          27.250  
E27  27454295.154 1                      -955.550          21.000                                                                  
G 1  21520808.222 1 113092609.91611      3351.324          27.000                                                                  
G 7  21050325.030 1 110620275.52611      2420.347          30.250                                                                  
G 8  21058172.398 1                     -1692.550          25.250                                                                  
G 9  22992232.176 1 120824995.18011     -1781.803          30.500                                                                  
G21  20571759.434 1 108105299.358 1      1084.662          36.000                                                                  
G22  24961989.741 1                      1871.550          19.500                                                                  
G27  23206125.701 1                     -2795.300          23.750                                                                  
G30  24107970.966 1                      3552.500          21.750                                                                  
J 1  37356694.865 1                       -87.700          21.000                                                                  
J 2  38517178.579 1                      1351.200          22.500    38514835.102 1                      1007.400          20.250  
J 3  38631370.426 1                      -588.600          26.000    38629023.950 1                      -441.750          20.250  
R 9  21060807.573 1 112463537.19711      2915.711          27.250  
R15  23300130.123 1 124508910.969 1     -2124.122          36.500  
R16  20171461.855 1                       320.000          17.500  
> 2021  5 17  2 33 39.4446103  0 14                     
E 1  25361114.399 1                      1531.000          23.750                                                                  
E26  23010981.662 1 120923550.168 1      1212.780          30.250    23008857.332 1  90291705.709 1       905.984          27.500  
G 1  21520202.207 1                      3342.650          27.000                                                                  
G 7  21049900.390 1 110618014.20011      2421.859          29.250                                                                  
G 8  21058535.012 1                     -1688.050          23.750                                                                  
G 9  22992655.049 1                     -1769.350          28.500                                                                  
G21  20571585.421 1 108104372.934 1      1086.950          36.000                                                                  
G22  24961663.733 1                      1872.000          19.500                                                                  
G30  24107339.169 1                      3598.750          21.250                                                                  
J 2  38516953.301 1 202407955.67311      1354.858          29.000    38514605.926 1 151139585.35511      1011.512          30.000  
J 3  38631513.592 1 203009973.56211      -586.029          36.500    38629166.817 1 151589147.13711      -437.722          30.750  
R 9  21060294.494 1                      2933.600          25.750  
R15  23300563.488 1 124511195.691 1     -2121.092          38.250  
R16  20171449.129 1 107752260.17611       334.206          29.250  
> 2021  5 17  2 33 40.4446105  0 16                     
E13  25299881.308 1                     -1530.450          20.250                                                                  
E26  23010814.196 1 120922652.749 1      1209.493          32.500    23008687.168 1  90291035.793 1       903.382          28.000  
E27  27454742.728 1                      -952.300          21.000                                                                  
G 1  21519625.224 1                      3342.350          27.750                                                                  
G 7  21049507.480 1 110615908.066 1      2418.555          31.250                                                                  
G 8  21058910.770 1                     -1704.800          35.000                                                                  
G 9  22993044.897 1                     -1754.450          33.250                                                                  
G21  20571437.741 1 108103601.807 1      1083.307          37.250                                                                  
G22  24961369.454 1                      1872.700          19.750                                                                  
G27  23207282.284 1                     -2794.050          20.750                                                                  
G30  24106733.407 1                      3549.000          23.000                                                                  
J 2  38516756.455 1 202406916.43311      1352.195          30.750    38514408.181 1 151138809.195 1      1009.421          29.500  
J 3  38631681.295 1 203010875.110 1      -588.974          38.000    38629336.318 1 151589820.265 1      -439.704          32.750  
R 9  21059790.361 1                      2914.300          23.250  
R15  23301025.886 1 124513637.762 1     -2124.291          40.000  
R16  20171429.761 1 107752246.92111       330.659          26.500  
> 2021  5 17  2 33 41.4446106  0 18                     
E 1  25360675.896 1                      1588.450          21.250                                                                  
E13  25300205.358 1                     -1564.150          27.750    25298083.727 1                     -1159.350          19.500  
E26  23010613.910 1 120921600.17511      1208.154          32.000    23008487.182 1  90290249.709 1       902.036          27.000  
G 1  21519065.187 1                      3315.950          25.500                                                                  
G 4  23670358.478 1                     -2603.350          23.000                                                                  
G 7  21049064.962 1 110613646.284 1      2417.568          29.750                                                                  
G 8  21059269.897 1 110667210.03111     -1704.309          33.250                                                                  
G 9  22993395.929 1 120831110.70611     -1748.003          34.500                                                                  
G16  24278203.875 1                     -1483.650          17.500                                                                  
G21  20571258.740 1 108102675.626 1      1081.260          37.000                                                                  
G27  23207851.265 1 121958080.90511     -2796.976          31.000                                                                  
G30  24106093.625 1                      3549.800          21.000                                                                  
J 1  37356703.519 1                       -88.700          19.250                                                                  
J 2  38516530.387 1 202405721.01911      1351.053          32.250    38514188.708 1 151137916.68711      1009.233          26.500  
J 3  38631826.969 1 203011620.666 1      -589.844          35.500    38629478.395 1 151590377.17411      -440.710          31.500  
R 9  21059295.979 1                      2872.950          24.500  
R15  23301442.273 1 124515921.850 1     -2126.963          34.750  
R16  20171426.438 1 107752075.62011       329.523          32.500  
> 2021  5 17  2 33 42.4446108  0 18                     
E 1                                                                  25358292.920 1                      1149.050          18.000  
E13  25300557.689 1 132955328.40111     -1566.126          40.000    25298436.358 1  99276497.09211     -1170.451          29.250  
E26  23010444.302 1                      1206.350          28.250    23008316.974 1  90289584.911 1       902.092          27.750  
G 1  21518438.396 1                      3330.250          27.000                                                                  
G 4  23670937.452 1                     -2603.200          22.250                                                                  
G 7  21048669.910 1 110611546.182 1      2418.483          30.250                                                                  
G 8  21059660.002 1 110669231.61211     -1703.295          30.000                                                                  
G 9  22993834.600 1                     -1757.350          26.000                                                                  
G16  24278532.223 1                     -1488.050          21.000                                                                  
G21  20571115.814 1 108101911.84411      1080.815          35.000                                                                  
G22  24960785.209 1                      1884.200          19.750                                                                  
G27  23208436.534 1 121961196.92611     -2799.419          26.750                                                                  
G30  24105573.859 1                      3627.750          23.000                                                                  
J 2  38516335.596 1 202404687.67011      1351.772          31.000    38513979.827 1 151137144.440 1      1009.154          34.250  
J 3  38631995.227 1 203012528.263 1      -589.447          37.000    38629650.850 1 151591054.32711      -440.174          30.250  
R 9  21058804.394 1 112452840.32111      2871.511          30.000  
R15  23301933.408 1 124518374.40311     -2133.013          27.000  
R16  20171428.911 1 107752070.64211       326.403          29.000  
> 2021  5 17  2 33 43.4446109  0 17                     
E 1  25360155.023 1                      1526.900          25.000                                                                  
E13  25300887.553 1 132957051.099 1     -1566.292          41.250    25298764.723 1  99277783.557 1     -1170.225          30.750  
E26  23010237.837 1 120919616.07511      1207.236          31.500    23008118.304 1  90288800.119 1       901.632          27.500  
E27  27455422.200 1                      -951.000          19.500                                                                  
G 1  21517833.507 1                      3342.850          27.250                                                                  
G 4  23671448.091 1                     -2588.900          23.000                                                                  
G 7  21048236.502 1 110609283.853 1      2419.135          31.250                                                                  
G 8  21059993.763 1 110671090.75611     -1702.978          28.500                                                                  
G 9  22994202.538 1                     -1747.250          32.250                                                                  
G21  20570937.829 1 108100987.969 1      1079.941          36.750                                                                  
G27  23209027.218 1                     -2858.350          29.750                                                                  
J 1  37356822.103 1                       -92.000          22.500                                                                  
J 2  38516097.054 1 202403491.62211      1352.087          30.750    38513751.778 1 151136252.186 1      1009.124          34.000  
J 3  38632150.612 1 203013273.60311      -589.363          33.000    38629789.746 1 151591611.368 1      -440.108          35.250  
R 9  21058291.541 1 112450127.52011      2872.211          31.250  
R15  23302341.518 1                     -2132.650          26.250  
R16  20171405.620 1 107751901.63911       329.286          31.250  
> 2021  5 17  2 33 44.4446111  0 18                     
E 1  25359920.072 1                      1532.600          27.500                                                                  
E13  25301245.592 1 132958933.42411     -1567.132          33.250    25299123.361 1                     -1171.650          26.000  
E26  23010077.235 1 120918725.425 1      1204.508          30.750    23007949.907 1  90288135.126 1       899.628          28.000  
G 1  21517238.505 1 113073851.27711      3349.211          26.750                                                                  
G 4  23671980.309 1                     -2641.200          22.250                                                                  
G 7  21047830.670 1 110607179.47511      2419.965          29.000                                                                  
G 8  21060388.076 1                     -1676.100          30.500                                                                  
G 9  22994589.656 1                     -1810.600          27.500                                                                  
G16  24279191.345 1                     -1469.250          19.500                                                                  
G21  20570791.617 1 108100224.849 1      1076.659          38.000                                                                  
G22  24960061.988 1                      1880.050          20.750                                                                  
G27  23209624.791 1                     -2806.100          22.250                                                                  
J 1  37356893.540 1                       -97.600          22.500                                                                  
J 2  38515901.975 1 202402456.19511      1350.176          30.000    38513551.902 1 151135479.04111      1008.396          31.500  
J 3  38632312.886 1 203014179.26911      -591.051          32.000    38629959.215 1 151592287.473 1      -440.964          34.000  
R 9  21057815.557 1 112447575.51811      2874.517          31.500  
R15  23302816.475 1                     -2137.700          26.500  
R16  20171373.029 1                       321.850          25.000  
> 2021  5 17  2 33 45.4446112  0 19                     
E 1  25359658.970 1                      1539.950          25.250    25357538.538 1                      1146.500          19.500  
E13  25301582.875 1                     -1564.950          26.500    25299454.049 1  99280491.62211     -1170.360          23.750  
E26  23009879.089 1 120917680.47611      1200.955          30.000    23007749.663 1  90287354.815 1       896.727          26.000  
E27  27455877.088 1                      -964.200          23.000                                                                  
G 1  21516630.843 1 113070665.89211      3337.359          27.250                                                                  
G 4  23672469.887 1                     -2625.750          25.500                                                                  
G 7  21047409.178 1 110604914.629 1      2426.158          30.500                                                                  
G 8  21060741.848 1                     -1684.400          32.250                                                                  
G 9  22994977.305 1                     -1792.050          24.750                                                                  
G21  20570621.052 1 108099308.735 1      1071.075          37.000                                                                  
G22  24959724.739 1 131164238.20711      1871.632          26.000                                                                  
G27  23210206.105 1                     -2809.750          23.750                                                                  
J 1  37356920.838 1 196311943.12411      -102.812          29.750                                                                  
J 2  38515679.846 1 202401264.57111      1347.490          30.500    38513335.769 1                      1003.150          24.000  
J 3  38632461.300 1 203014927.578 1      -591.464          36.000    38630107.629 1 151592846.522 1      -441.502          31.000  
R 9  21057297.533 1 112444857.68411      2882.624          28.250  
R15  23303221.812 1 124525351.51811     -2142.985          27.750  
R16  20171372.746 1 107751851.77611       325.446          26.500  
R20  20876014.832 1                      3527.750          16.000  
> 2021  5 17  2 33 46.4446114  0 20                     
E 1  25359436.084 1                      1549.950          22.000                                                                  
E13  25301955.377 1                     -1561.850          24.750    25299826.851 1                     -1168.200          23.000  
E26  23009705.968 1 120916798.38311      1196.034          29.250    23007581.039 1  90286696.139 1       892.900          27.750  
E27  27456123.977 1                      -976.250          22.250                                                                  
G 1  21516061.097 1 113067647.81711      3328.967          31.000                                                                  
G 4  23673029.159 1 124402607.29511     -2627.422          28.250                                                                  
G 7  21047002.819 1 110602801.06811      2432.794          30.000                                                                  
G 8  21061120.346 1                     -1692.900          29.500                                                                  
G 9  22995324.924 1 120841248.01211     -1789.075          26.000                                                                  
G21  20570480.909 1 108098556.875 1      1064.182          36.500                                                                  
G22  24959414.913 1                      1857.850          24.500                                                                  
G27  23210813.644 1 121973648.86811     -2814.329          27.750                                                                  
G30  24102984.607 1                      3571.750          19.500                                                                  
J 1  37356992.948 1 196312367.88411      -115.337          27.250                                                                  
J 2  38515503.728 1                      1343.650          21.500                                                                  
J 3  38632620.050 1                      -600.550          24.750                                                                  
R 9  21056875.884 1                      2899.450          26.000  
R15  23303682.453 1 124527825.00011     -2158.692          29.500  
R19  19368644.423 1                      -932.300          16.000  
R20  20875346.754 1                      3521.700          25.250  
> 2021  5 17  2 33 47.4446115  0 17                     
E 1  25359171.884 1                      1556.300          24.500                                                                  
E13  25302291.062 1                     -1565.600          26.000                                                                  
E26  23009506.224 1 120915763.07211      1190.279          29.000    23007384.293 1  90285923.028 1       888.738          28.000  
E27  27456315.462 1                      -981.400          25.250                                                                  
G 1  21515474.021 1                      3318.050          25.250                                                                  
G 4  23673566.005 1 124405393.60611     -2630.324          27.250                                                                  
G 7  21046564.740 1 110600521.735 1      2439.593          30.250                                                                  
G 8  21061492.906 1 110678892.01211     -1689.926          28.750                                                                  
G 9  22995698.083 1 120843189.65011     -1782.965          25.750                                                                  
G16  24280213.732 1                     -1485.450          20.750                                                                  
G21  20570303.049 1 108097653.952 1      1056.981          37.500                                                                  
G22  24959120.734 1                      1849.600          24.000                                                                  
G27  23211372.675 1 121976628.63211     -2826.714          26.000                                                                  
J 1  37357054.623 1                      -128.100          25.000                                                                  
J 3  38632796.845 1                      -597.400          22.250                                                                  
R 9  21056301.699 1 112439475.39011      2900.566          27.500  
R15  23304168.633 1 124530147.91611     -2168.768          27.500  
> 2021  5 17  2 33 48.4446117  0 15                     
E 1  25358912.406 1                      1559.200          25.000    25356801.867 1                      1164.200          20.500  
E13  25302686.330 1                     -1567.950          26.000                                                                  
E26  23009340.581 1 120914888.51011      1188.400          29.250    23007215.952 1  90285269.836 1       887.616          26.000  
E27  27456560.235 1                      -995.100          25.500                                                                  
G 4  23674094.381 1 124408340.833 1     -2632.092          28.500                                                                  
G 7  21046166.458 1 110598392.937 1      2444.720          29.000                                                                  
G 8  21061863.591 1 110680893.739 1     -1686.368          31.500                                                                  
G16  24280521.760 1                     -1482.500          21.250                                                                  
G21  20570158.991 1 108096913.173 1      1054.151          37.250                                                                  
G27  23212023.666 1 121979770.83011     -2828.099          30.500                                                                  
G30  24101681.769 1                      3600.150          19.250                                                                  
J 1  37357133.310 1                      -131.800          25.500                                                                  
J 2  38515081.380 1                      1343.600          18.500                                                                  
R 9  21055851.853 1 112436890.01911      2905.939          28.250  
R15  23304667.630 1 124533077.262 1     -2174.551          28.250  
> 2021  5 17  2 33 49.4446118  0 16                     
E 1  25358657.957 1                      1561.650          26.000    25356539.923 1                      1163.350          22.250  
E13  25303029.367 1                     -1567.950          25.250                                                                  
E26  23009139.794 1 120913859.16911      1185.818          29.000    23007020.561 1  90284501.144 1       885.494          26.000  
E27  27456777.659 1                      -988.600          25.500                                                                  
G 1  21514347.018 1                      3317.200          21.250                                                                  
G 4  23674637.979 1 124411131.817 1     -2634.193          28.750                                                                  
G 7  21045723.139 1 110596107.02011      2442.621          28.500                                                                  
G 8  21062213.223 1 110682738.958 1     -1688.633          32.000                                                                  
G16  24280835.118 1                     -1484.800          20.250                                                                  
G21  20569992.681 1 108096018.281 1      1051.383          38.750                                                                  
G22  24958523.164 1                      1841.300          22.000                                                                  
G27  23212596.644 1 121982757.39411     -2830.079          31.000                                                                  
J 1  37357187.947 1 196313347.55211      -135.163          28.000                                                                  
J 3  38633094.455 1                      -596.050          20.000                                                                  
R 9  21055334.485 1 112434145.602 1      2903.587          28.750  
R15  23305023.558 1 124534979.85511     -2176.737          27.500  
> 2021  5 17  2 33 50.4446120  0 14                     
E 1  25358418.775 1                      1555.350          28.500    25356300.741 1  99503569.67111      1162.391          24.000  
E13  25303369.085 1                     -1573.300          25.000                                                                  
E26  23008980.957 1                      1183.500          28.500    23006856.028 1  90283852.110 1       883.908          26.750  
E27  27457027.438 1                      -989.050          26.000                                                                  
G 4  23675197.145 1 124414082.488 1     -2636.233          30.750                                                                  
G 7  21045315.174 1 110593980.986 1      2440.048          31.250                                                                  
G 8  21062588.616 1 110684744.041 1     -1690.651          30.500                                                                  
G21  20569850.032 1 108095283.753 1      1048.721          38.250                                                                  
G27  23213191.785 1 121985903.615 1     -2831.653          30.750                                                                  
G30  24100350.517 1                      3592.650          23.250                                                                  
J 1  37357280.935 1 196313799.169 1      -137.168          27.500                                                                  
J 3  38633264.490 1                      -598.700          22.000                                                                  
R 9  21054853.371 1 112431563.515 1      2901.696          30.000  
R15  23305501.180 1 124537479.15411     -2180.242          26.750  
> 2021  5 17  2 33 51.4446121  0 21                     
E 1  25358151.369 1                      1552.950          27.500    25356033.635 1  99502524.422 1      1161.666          24.750  
E13  25303696.767 1                     -1574.300          23.750                                                                  
E26  23008775.908 1                      1182.000          27.000    23006660.572 1  90283085.868 1       882.223          28.000  
E27  27457253.191 1                      -995.600          25.000                                                                  
G 1  21513128.723 1                      3311.650          20.750                                                                  
G 4  23675738.579 1 124416875.705 1     -2637.780          30.250                                                                  
G 7  21044893.675 1 110591698.317 1      2438.005          29.500                                                                  
G 8  21062952.873 1 110686592.166 1     -1692.616          31.000                                                                  
G 9  22997252.485 1                     -1786.650          17.250                                                                  
G16  24281472.238 1                     -1488.550          19.500                                                                  
G21  20569674.962 1 108094392.493 1      1046.524          37.500                                                                  
G22  24957892.762 1                      1834.400          19.250                                                                  
G27  23213763.198 1 121988892.549 1     -2833.382          30.000                                                                  
G30  24099687.985 1                      3590.250          24.250                                                                  
J 1  37357326.513 1 196314093.45511      -138.924          26.000                                                                  
J 2  38514431.266 1                      1339.800          17.750                                                                  
J 3  38633406.301 1                      -598.550          22.000                                                                  
R 9  21054351.228 1 112428821.628 1      2899.753          30.000  
R15  23305908.007 1                     -2181.200          26.500  
R19  19369750.553 1                      -948.550          18.250  
R20  20872303.757 1                      3513.400          17.250  
> 2021  5 17  2 33 52.4446123  0 15                     
E 1  25357918.068 1                      1553.700          28.000    25355797.336 1  99501599.549 1      1161.672          25.250  
E13  25304082.238 1                     -1580.900          22.750                                                                  
E26  23008611.559 1                      1180.550          28.000    23006495.923 1  90282440.153 1       882.238          28.500  
E27  27457498.958 1                      -994.200          25.000                                                                  
G 4  23676286.237 1 124419829.864 1     -2637.331          30.500                                                                  
G 7  21044476.901 1 110589577.163 1      2437.687          29.500                                                                  
G 8  21063332.048 1 110688601.383 1     -1692.575          30.750                                                                  
G21  20569539.094 1 108093662.793 1      1046.196          37.500                                                                  
G22  24957589.909 1                      1832.300          21.750                                                                  
G27  23214350.129 1 121992042.40811     -2833.031          29.250                                                                  
G30  24099096.732 1                      3591.200          24.250                                                                  
J 1  37357410.992 1 196314548.46711      -138.300          26.250                                                                  
J 3  38633573.823 1                      -602.800          22.000                                                                  
R 9  21053856.807 1 112426243.411 1      2899.960          30.000  
R15  23306389.411 1                     -2181.000          25.250  
> 2021  5 17  2 33 53.4446124  0 16                     
E 1  25357647.723 1                      1557.850          28.000    25355532.388 1  99500554.050 1      1162.657          26.000  
E26  23008417.961 1                      1179.400          28.250    23006299.628 1  90281674.453 1       882.653          27.500  
E27  27457726.869 1                      -988.950          25.750                                                                  
G 4  23676835.526 1 124422622.825 1     -2636.058          30.250                                                                  
G 7  21044066.254 1 110587295.216 1      2438.573          30.500                                                                  
G 8  21063681.075 1 110690449.723 1     -1691.650          31.000                                                                  
G 9  22998046.641 1                     -1787.750          19.250                                                                  
G16  24282120.995 1                     -1491.700          18.500                                                                  
G21  20569374.576 1 108092772.579 1      1046.716          37.250                                                                  
G22  24957288.686 1                      1836.500          23.500                                                                  
G27  23214919.204 1 121995031.15811     -2832.143          29.750                                                                  
G30  24098419.569 1                      3594.350          23.500                                                                  
J 1  37357470.719 1                      -134.950          25.250                                                                  
J 3  38633724.087 1                      -603.950          20.250                                                                  
R 9  21053325.644 1 112423501.531 1      2901.097          30.500  
R15  23306821.481 1 124544586.83711     -2181.508          28.500  
> 2021  5 17  2 33 54.4446126  0 16                     
E 1  25357404.742 1                      1560.800          27.750    25355295.102 1  99499627.228 1      1162.970          25.250  
E26  23008249.328 1                      1181.800          26.500    23006135.791 1  90281027.707 1       882.787          28.000  
E27  27457967.452 1                      -992.200          25.250                                                                  
G 1  21511343.614 1                      3313.450          19.250                                                                  
G 4  23677404.981 1 124425574.58911     -2635.524          30.500                                                                  
G 7  21043653.290 1 110585173.043 1      2438.447          31.000                                                                  
G 8  21064059.263 1 110692457.092 1     -1691.288          31.750                                                                  
G21  20569235.023 1 108092041.830 1      1046.624          38.000                                                                  
G22  24957041.208 1                      1836.700          22.000                                                                  
G27  23215524.335 1 121998179.16411     -2830.813          28.500                                                                  
G30  24097855.210 1                      3594.350          21.750                                                                  
J 1  37357550.014 1 196315249.97311      -136.501          27.500                                                                  
J 2  38513829.738 1                      1335.050          18.000                                                                  
J 3  38633902.314 1                      -593.500          23.500                                                                  
R 9  21052870.709 1 112420921.204 1      2901.684          30.750  
R15  23307341.171 1 124547363.97911     -2181.026          28.750  
> 2021  5 17  2 33 55.4446127  0 16                     
E 1  25357147.388 1                      1556.450          27.000    25355032.052 1  99498582.751 1      1162.360          25.000  
E13  25305085.130 1                     -1568.700          18.750                                                                  
E26  23008053.732 1                      1177.100          27.500    23005940.794 1  90280263.586 1       881.826          27.500  
E27  27458194.863 1                      -999.150          23.500                                                                  
G 4  23677936.381 1 124428368.801 1     -2636.437          31.000                                                                  
G 7  21043220.257 1 110582893.183 1      2437.479          31.000                                                                  
G 8  21064421.580 1 110694307.191 1     -1692.370          32.000                                                                  
G 9  22998862.694 1                     -1787.900          19.250                                                                  
G21  20569063.110 1 108091154.161 1      1045.165          37.750                                                                  
G22  24956731.090 1                      1838.850          25.250                                                                  
G27  23216092.010 1 122001168.11511     -2831.524          29.000                                                                  
G30  24097188.639 1                      3595.750          23.750                                                                  
J 1  37357600.247 1                      -137.600          25.500                                                                  
J 3  38634019.401 1                      -605.950          22.750                                                                  
R 9  21052358.831 1 112418180.858 1      2900.672          31.250  
R15  23307805.118 1 124549705.82211     -2182.061          27.000  
> 2021  5 17  2 33 56.4446129  0 12                     
E 1  25356910.595 1 133251464.15811      1554.466          29.750    25354793.160 1  99497656.782 1      1160.859          25.500  
E26  23007887.989 1                      1176.750          27.500    23005777.150 1  90279618.451 1       879.730          27.250  
E27  27458429.044 1                      -996.750          23.500                                                                  
G 4  23678496.736 1 124431321.748 1     -2638.622          31.250                                                                  
G 7  21042813.482 1 110580772.550 1      2434.792          31.250                                                                  
G 8  21064805.057 1 110696316.269 1     -1694.716          33.500                                                                  
G21  20568923.449 1 108090425.864 1      1042.353          38.250                                                                  
G22  24956421.447 1 131146879.74411      1835.794          25.750                                                                  
G27  23216697.933 1 122004316.41511     -2834.472          28.500                                                                  
J 1  37357674.339 1 196315902.76111      -139.298          25.750                                                                  
R 9  21051865.715 1 112415601.961 1      2898.395          31.000  
R15  23308289.925 1 124552210.47611     -2184.807          27.750  
> 2021  5 17  2 33 57.4446130  0 16                     
E 1  25356646.590 1                      1552.150          28.500    25354530.055 1  99496614.308 1      1161.109          26.750  
E26  23007701.930 1                      1178.700          28.250    23005580.899 1  90278857.057 1       879.738          28.750  
G 1  21509603.043 1                      3304.800          18.500                                                                  
G 4  23679018.487 1 124434118.678 1     -2638.299          30.500                                                                  
G 7  21042382.193 1 110578496.410 1      2434.494          30.250                                                                  
G 8  21065157.426 1 110698169.638 1     -1694.842          34.500                                                                  
G21  20568761.673 1 108089542.240 1      1041.978          38.500                                                                  
G22  24956136.157 1                      1837.600          23.750                                                                  
G27  23217279.043 1 122007624.15311     -2834.668          28.750                                                                  
G30  24095884.097 1                      3589.100          22.750                                                                  
J 1  37357744.602 1 196316200.99711      -139.372          26.000                                                                  
J 2  38513152.530 1                      1333.600          19.000                                                                  
J 3  38634347.229 1                      -600.550          21.500    38632007.948 1                      -443.850          13.500  
R 9  21051356.180 1 112412864.709 1      2898.434          31.000  
R15  23308665.378 1 124554556.387 1     -2184.848          27.500  
R19  19371071.917 1                      -944.900          16.000  
> 2021  5 17  2 33 58.4446132  0 14                     
E 1  25356407.704 1                      1555.000          27.250    25354294.167 1  99495687.299 1      1161.179          27.250  
E26  23007535.894 1                      1178.250          26.750    23005416.961 1  90278211.630 1       879.559          28.000  
E27  27458914.869 1                      -989.650          22.000    27456781.545 1                      -738.850          23.500  
G 4  23679575.551 1 124437070.303 1     -2638.052          30.250                                                                  
G 7  21041976.622 1 110576375.421 1      2434.302          29.250                                                                  
G 8  21065536.412 1 110700177.941 1     -1694.907          32.500                                                                  
G21  20568621.719 1 108088813.961 1      1041.598          37.500                                                                  
G22  24955852.602 1                      1837.500          25.000                                                                  
G27  23217887.371 1 122010771.27211     -2830.918          27.250                                                                  
G30  24095300.750 1                      3590.900          22.500                                                                  
J 1  37357830.992 1                      -139.000          24.000                                                                  
J 3  38634519.359 1                      -601.000          23.000                                                                  
R 9  21050871.465 1 112410284.755 1      2898.526          30.500  
R15  23309104.922 1                     -2186.550          26.000  
> 2021  5 17  2 33 59.4446133  0 15                     
E 1  25356139.843 1                      1552.600          26.500    25354027.506 1  99494643.683 1      1160.712          26.500  
E26  23007342.082 1                      1175.850          27.000    23005221.650 1  90277449.871 1       878.692          26.250  
E27  27459144.664 1                      -989.950          22.000    27457007.143 1                      -741.200          23.250  
G 1  21508392.084 1                      3304.850          20.500                                                                  
G 4  23680114.132 1 124439865.573 1     -2638.777          30.500                                                                  
G 7  21041551.671 1 110574098.547 1      2433.274          30.250                                                                  
G 8  21065892.420 1 110702030.167 1     -1695.826          33.500                                                                  
G21  20568453.989 1 108087930.033 1      1040.189          38.250                                                                  
G22  24955547.868 1                      1835.900          22.000                                                                  
G27  23218434.946 1 122013759.90411     -2834.205          27.250                                                                  
G30  24094660.847 1                      3586.450          22.250                                                                  
J 1  37357891.404 1                      -140.150          24.500                                                                  
J 3  38634658.916 1                      -601.450          22.000                                                                  
R 9  21050380.858 1 112407859.117 1      2897.607          31.000  
R15  23309533.480 1                     -2186.650          26.250  
> 2021  5 17  2 34  0.4446134  0 14                     
E 1  25355875.424 1                      1553.450          26.750    25353761.887 1  99493600.901 1      1160.180          25.750  
E26  23007147.514 1                      1177.000          27.500    23005027.682 1  90276689.223 1       877.862          26.500  
E27  27459362.010 1                      -995.000          22.250    27457226.888 1                      -744.700          22.500  
G 1  21507863.847 1                      3303.550          21.250                                                                  
G 4  23680643.263 1 124442662.089 1     -2639.527          29.500                                                                  
G 7  21041113.971 1 110571823.350 1      2432.090          30.500                                                                  
G 8  21066251.568 1 110703883.895 1     -1696.861          33.000                                                                  
G21  20568285.203 1 108087047.959 1      1038.844          38.000                                                                  
G22  24955196.508 1                      1834.850          25.000                                                                  
G27  23219034.528 1 122016751.86511     -2834.329          26.000                                                                  
G30  24093977.018 1                      3588.350          21.250                                                                  
J 1  37357946.563 1                      -142.550          24.750                                                                  
R 9  21049868.810 1 112405121.795 1      2896.992          31.500  
R15  23309942.993 1                     -2180.950          23.500  
> 2021  5 17  2 34  1.4446136  0 15                     
E 1  25355639.490 1                      1554.850          25.750    25353526.253 1  99492677.503 1      1160.089          24.500  
E26  23006979.334 1                      1174.550          27.000    23004865.797 1  90276048.485 1       877.152          27.000  
E27                                                                  27457473.620 1                      -742.050          22.750  
G 1  21507276.856 1                      3305.400          23.250                                                                  
G 4  23681214.071 1 124445618.586 1     -2639.661          30.000                                                                  
G 7  21040717.348 1 110569708.615 1      2431.378          31.000                                                                  
G 8  21066627.811 1 110705897.873 1     -1697.383          33.750                                                                  
G21  20568149.101 1 108086326.531 1      1037.888          37.750                                                                  
G22  24954944.086 1                      1833.950          23.500                                                                  
G27  23219625.722 1 122019903.27411     -2835.377          25.750                                                                  
G30  24093396.023 1                      3589.250          22.500                                                                  
J 1  37358024.812 1                      -139.450          25.500                                                                  
J 3  38634986.889 1                      -602.850          21.000                                                                  
R 9  21049370.858 1 112402547.232 1      2896.440          32.000  
R15  23310415.469 1 124563792.63611     -2187.554          27.000  
> 2021  5 17  2 34  2.4446137  0 17                     
E 1  25355370.823 1                      1552.150          26.500    25353258.785 1  99491635.146 1      1159.577          25.250  
E26  23006781.718 1                      1173.350          27.500    23004673.877 1  90275289.230 1       876.500          27.500  
E27  27459822.142 1                     -1001.100          21.000    27457700.511 1                      -742.900          22.500  
G 4  23681753.944 1 124448415.896 1     -2640.386          30.000                                                                  
G 7  21040278.400 1 110567435.100 1      2430.186          32.750                                                                  
G 8  21066978.216 1 110707752.904 1     -1698.239          34.500                                                                  
G 9  23001466.697 1                     -1793.050          16.750                                                                  
G21  20567982.663 1 108085446.574 1      1036.563          38.750                                                                  
G22  24954602.270 1                      1837.450          22.000                                                                  
G27  23220171.891 1                     -2831.550          25.000                                                                  
G30  24092688.760 1                      3586.700          24.000                                                                  
J 1  37358068.828 1                      -141.000          25.000                                                                  
J 2  38512124.692 1                      1339.550          16.500                                                                  
J 3  38635149.324 1                      -599.350          21.000                                                                  
R 9  21048850.665 1 112399811.012 1      2895.556          30.500  
R15  23310889.089 1                     -2192.550          23.000  
R18  22206254.311 1                     -3689.550          19.000  
> 2021  5 17  2 34  3.4446139  0 15                     
E 1  25355136.980 1                      1552.800          26.500    25353023.144 1  99490709.985 1      1159.431          25.250  
E26  23006623.423 1                      1171.050          28.000    23004508.387 1  90274647.317 1       875.867          26.500  
E27  27460057.474 1                     -1000.100          21.500                                                                  
G 1  21506084.824 1                      3297.250          22.000                                                                  
G 4  23682314.252 1 124451369.901 1     -2640.705          30.500                                                                  
G 7  21039881.170 1 110565318.788 1      2429.490          32.250                                                                  
G 8  21067363.444 1 110709764.921 1     -1698.738          35.250                                                                  
G 9  23001845.031 1                     -1801.100          22.250                                                                  
G21  20567842.056 1 108084723.957 1      1035.697          39.000                                                                  
G27  23220769.672 1                     -2836.050          25.250                                                                  
G30  24092076.879 1                      3588.550          23.500                                                                  
J 1  37358189.640 1 196318610.88111      -141.218          26.250                                                                  
J 3  38635297.117 1                      -599.500          21.750                                                                  
R 9  21048380.886 1 112397234.211 1      2895.220          30.250  
R15  23311411.922 1                     -2191.200          23.750  
> 2021  5 17  2 34  4.4446140  0 14                     
E 1  25354872.543 1                      1549.400          27.750    25352756.907 1  99489669.782 1      1159.054          26.500  
E26  23006433.034 1 120899621.47011      1171.699          31.250    23004315.899 1  90273890.813 1       875.206          28.250  
E27  27460300.585 1                      -996.800          24.500    27458163.964 1                      -743.050          23.500  
G 1  21505510.101 1                      3302.400          25.000                                                                  
G 4  23682847.562 1 124454169.927 1     -2641.149          30.500                                                                  
G 7  21039445.551 1 110563048.992 1      2428.513          33.750                                                                  
G 8  21067713.281 1 110711623.215 1     -1699.463          36.500                                                                  
G 9  23002250.929 1 120877644.19111     -1796.921          26.000                                                                  
G21  20567679.248 1 108083848.048 1      1034.529          39.000                                                                  
G22  24954005.357 1                      1835.000          22.000                                                                  
G30  24091478.472 1                      3591.100          23.500                                                                  
J 1  37358232.789 1 196318911.51911      -141.795          26.000                                                                  
J 3  38635466.479 1                      -600.950          23.500                                                                  
R 9  21047890.704 1 112394501.087 1      2894.462          28.750  
> 2021  5 17  2 34  5.4446142  0 16                     
E 1  25354642.712 1                      1551.750          27.500    25352522.580 1  99488746.638 1      1159.013          26.750  
E26  23006264.361 1 120898765.722 1      1171.128          31.000    23004154.422 1  90273251.898 1       874.663          28.500  
E27  27460559.716 1                      -994.750          21.750    27458415.601 1 107752719.92811      -746.460          24.000  
G 1  21504928.014 1                      3301.400          24.000                                                                  
G 4  23683404.986 1 124457126.817 1     -2641.271          31.000                                                                  
G 7  21039048.736 1 110560936.503 1      2428.021          34.750                                                                  
G 8  21068092.929 1 110713638.675 1     -1699.900          37.000                                                                  
G 9  23002664.153 1 120879757.01411     -1797.224          27.750                                                                  
G21  20567541.454 1 108083129.675 1      1033.804          39.250                                                                  
G22  24953698.780 1                      1832.500          22.250                                                                  
G27  23221971.330 1                     -2838.600          24.750                                                                  
G30  24090835.828 1                      3585.300          21.750                                                                  
J 1  37358336.928 1 196319369.01711      -141.735          27.500                                                                  
J 3  38635642.268 1                      -603.600          22.750                                                                  
R 9  21047351.788 1 112391927.45111      2894.306          28.000  
R18  22208487.850 1                     -3681.700          19.000  
> 2021  5 17  2 34  6.4446143  0 16                     
E 1  25354375.648 1                      1551.900          26.750    25352259.713 1  99487704.471 1      1158.957          27.500  
E26  23006079.140 1 120897751.003 1      1170.735          31.750    23003959.607 1  90272494.105 1       874.464          28.250  
E27  27460777.716 1                     -1003.800          23.250    27458635.699 1 107753583.242 1      -746.680          24.500  
G 1  21504329.979 1                      3301.150          24.750                                                                  
G 4  23683931.173 1 124459924.156 1     -2641.167          30.750                                                                  
G 7  21038615.886 1 110558664.940 1      2427.500          34.000                                                                  
G 8  21068447.035 1 110715494.868 1     -1700.163          36.500                                                                  
G 9  23003036.246 1 120881711.140 1     -1797.487          29.250                                                                  
G21  20567375.120 1 108082252.417 1      1033.117          39.000                                                                  
G22  24953384.948 1                      1836.000          21.500                                                                  
G27  23222499.915 1 122035060.23411     -2837.270          27.750                                                                  
G30  24090183.230 1                      3584.250          21.500                                                                  
J 1  37358380.449 1 196319666.91611      -141.863          28.000                                                                  
J 2  38511347.466 1                      1335.800          20.000                                                                  
J 3  38635757.139 1                      -602.550          22.750                                                                  
R 9  21046869.473 1 112389191.97511      2893.803          26.500  
> 2021  5 17  2 34  7.4446144  0 14                     
E 1  25354104.792 1                      1550.750          25.250    25351992.454 1  99486664.295 1      1158.289          26.500  
E26  23005888.928 1 120896739.559 1      1169.045          31.750    23003766.097 1  90271738.720 1       873.240          28.000  
E27  27460982.930 1                     -1003.900          23.500    27458858.001 1 107754448.844 1      -747.679          23.750  
G 1  21503729.051 1                      3297.400          23.250                                                                  
G 4  23684453.567 1 124462724.360 1     -2642.299          29.750                                                                  
G 7  21038186.440 1 110556396.641 1      2426.123          33.500                                                                  
G 8  21068795.250 1 110717354.140 1     -1701.366          36.250                                                                  
G 9  23003400.351 1 120883667.31811     -1798.820          29.000                                                                  
G21  20567210.690 1 108081378.655 1      1031.408          39.250                                                                  
G27  23223083.167 1 122038056.57611     -2838.533          26.750                                                                  
J 1  37358444.460 1 196319968.06711      -143.188          27.250                                                                  
J 3  38635924.279 1                      -606.150          23.250                                                                  
R 9  21046342.294 1                      2891.250          26.500  
R18  22209939.052 1                     -3690.800          19.750  
> 2021  5 17  2 34  8.4446146  0 16                     
E 1  25353870.641 1                      1556.100          26.000    25351757.104 1  99485741.556 1      1157.948          27.000  
E26  23005727.027 1 120895885.799 1      1168.329          32.000    23003605.995 1  90271101.272 1       872.557          27.750  
E27  27461241.938 1                      -996.800          21.750    27459107.416 1                      -748.400          22.750  
G 1  21503177.121 1                      3294.250          24.000                                                                  
G 4  23685003.074 1 124465681.693 1     -2642.444          30.000                                                                  
G 7  21037769.116 1 110554286.072 1      2425.282          32.500                                                                  
G 8  21069181.969 1 110719370.903 1     -1701.990          36.250                                                                  
G 9  23003810.754 1 120885781.486 1     -1799.317          30.000                                                                  
G21  20567075.470 1 108080662.761 1      1030.497          39.500                                                                  
G22  24952763.921 1                      1832.300          18.500                                                                  
G27  23223680.941 1 122041210.138 1     -2838.782          28.250                                                                  
G30  24088883.773 1                      3588.700          20.750                                                                  
J 1  37358520.595 1 196320426.09111      -143.104          26.000                                                                  
J 3  38636098.446 1                      -599.700          22.500                                                                  
R 9  21045850.921 1                      2894.700          25.750  
R15  23313714.012 1                     -2192.500          17.250  
> 2021  5 17  2 34  9.4446147  0 18                     
E 1  25353600.211 1                      1552.450          26.500    25351492.670 1  99484700.055 1      1158.807          26.500  
E13  25309933.941 1                     -1582.600          22.000                                                                  
E26  23005534.543 1 120894873.464 1      1168.711          32.500    23003412.612 1  90270345.337 1       872.885          27.500  
E27  27461455.374 1                     -1003.000          23.250    27459328.346 1                      -749.100          22.750  
G 1  21502548.139 1                      3294.350          22.750                                                                  
G 4  23685548.380 1 124468479.61311     -2641.847          28.750                                                                  
G 7  21037349.090 1 110552016.904 1      2425.809          31.750                                                                  
G 8  21069536.907 1 110721228.926 1     -1701.342          36.250                                                                  
G 9  23004185.178 1 120887736.902 1     -1798.815          30.000                                                                  
G21  20566900.974 1 108079788.488 1      1030.756          40.000                                                                  
G27  23224228.345 1 122044204.71711     -2837.888          29.250                                                                  
G30  24088278.775 1                      3584.550          23.750                                                                  
J 1  37358590.729 1 196320724.890 1      -142.073          28.500                                                                  
J 2  38510679.355 1                      1329.200          19.250                                                                  
J 3  38636224.942 1                      -597.450          21.500                                                                  
R 9  21045350.850 1                      2891.200          25.500  
R16  20171078.996 1                       303.150          14.500  
R18  22211438.585 1                     -3687.700          21.000  
> 2021  5 17  2 34 10.4446149  0 14                     
E 1  25353370.984 1                      1552.300          24.750    25351255.649 1  99483776.697 1      1159.073          27.500  
E26  23005371.271 1 120894019.942 1      1168.944          31.500    23003250.239 1  90269707.858 1       873.030          28.000  
E27  27461719.905 1                      -997.700          23.500    27459578.787 1                      -750.050          22.500  
G 1  21501995.436 1                      3302.200          22.500                                                                  
G 4  23686118.399 1 124471436.13611     -2640.931          29.000                                                                  
G 7  21036939.688 1 110549906.476 1      2425.816          30.500                                                                  
G 8  21069913.560 1 110723245.424 1     -1701.128          35.250                                                                  
G 9  23004570.525 1 120889850.760 1     -1798.424          28.500                                                                  
G21  20566765.882 1 108079073.110 1      1030.629          39.000                                                                  
G27  23224820.549 1 122047357.54011     -2837.098          28.500                                                                  
G30  24087692.196 1                      3581.100          22.250                                                                  
J 1  37358672.987 1 196321181.893 1      -141.532          26.750                                                                  
J 3  38636451.099 1                      -599.450          22.000                                                                  
R 9  21044856.307 1                      2895.550          25.250  
> 2021  5 17  2 34 11.4446150  0 17                     
E 1  25353099.616 1                      1547.450          25.500    25350993.873 1  99482737.057 1      1157.696          29.000  
E26  23005181.146 1 120893011.126 1      1166.626          32.250    23003058.315 1  90268954.522 1       871.231          28.500  
E27  27461944.393 1                     -1001.450          23.250    27459797.879 1                      -752.450          22.750  
G 1  21501417.080 1                      3297.500          23.000                                                                  
G 4  23686641.481 1 124474237.05611     -2642.802          27.750                                                                  
G 7  21036495.638 1 110547640.24311      2423.467          29.750                                                                  
G 8  21070268.458 1 110725106.514 1     -1703.179          34.500                                                                  
G 9  23004937.115 1 120891809.28811     -1800.681          29.750                                                                  
G16  24288099.500 1                     -1500.450          16.750                                                                  
G21  20566605.137 1 108078202.681 1      1028.159          38.250                                                                  
G27  23225389.199 1 122050354.18111     -2838.976          29.500                                                                  
G30  24086966.341 1                      3591.750          24.000                                                                  
J 1  37358723.895 1 196321483.27311      -143.206          26.250                                                                  
R 9  21044281.548 1                      2886.650          24.000  
R15  23314994.766 1                     -2191.350          20.750  
R16  20171039.781 1                       295.350          20.250  
R18  22212831.478 1                     -3688.950          19.250  
> 2021  5 17  2 34 12.4446152  0 17                     
E 1  25352870.160 1                      1548.150          22.500    25350756.624 1  99481814.488 1      1157.756          27.500  
E13  25310965.470 1                     -1581.950          20.000                                                                  
E26  23005016.746 1 120892159.542 1      1165.929          33.500    23002895.414 1  90268318.648 1       870.891          27.750  
E27  27462181.415 1                     -1003.350          26.750    27460051.089 1 107759137.69711      -748.764          23.500  
G 1  21500891.730 1                      3296.300          25.500                                                                  
G 4  23687213.371 1 124477195.26411     -2643.207          28.500                                                                  
G 7  21036084.209 1 110545532.313 1      2423.024          28.250                                                                  
G 8  21070648.781 1 110727124.644 1     -1703.539          34.500                                                                  
G 9  23005327.031 1 120893924.78711     -1801.338          28.500                                                                  
G21  20566464.420 1 108077489.722 1      1027.426          38.250                                                                  
G22  24951464.248 1                      1828.850          17.750                                                                  
G27  23225992.267 1 122053508.673 1     -2839.188          31.000                                                                  
G30  24086372.638 1                      3589.650          21.500                                                                  
J 1  37358821.513 1 196321941.77611      -143.235          27.000                                                                  
J 3  38636766.610 1                      -606.750          22.750                                                                  
R 9  21043854.530 1                      2885.500          23.250  
R15  23315482.115 1 124590866.66111     -2195.242          27.250  
> 2021  5 17  2 34 13.4446153  0 18                     
E 1                                                                  25350492.277 1  99480774.639 1      1157.887          26.000  
E13  25311285.719 1                     -1588.000          22.000                                                                  
E26  23004826.448 1 120891151.501 1      1165.805          33.000    23002703.917 1  90267565.876 1       870.600          28.000  
E27  27462424.617 1                      -999.900          28.000    27460270.008 1                      -745.000          22.500  
G 1  21500273.328 1                      3296.150          25.500                                                                  
G 4  23687746.172 1 124479995.923 1     -2642.794          28.500                                                                  
G 7  21035656.776 1 110543266.26311      2423.383          26.500                                                                  
G 8  21071011.600 1 110728986.060 1     -1703.603          34.750                                                                  
G 9  23005713.834 1 120895884.094 1     -1800.998          29.250                                                                  
G16  24288778.786 1                     -1501.700          19.000                                                                  
G21  20566302.003 1 108076620.409 1      1027.035          38.250                                                                  
G27  23226564.042 1 122056505.15511     -2838.985          30.500                                                                  
G30  24085640.016 1                      3586.200          22.000                                                                  
J 1  37358872.848 1 196322242.35611      -143.125          27.750                                                                  
J 3  38636909.382 1                      -604.800          24.750                                                                  
R 9  21043347.052 1                      2892.450          24.500  
R16  20171006.161 1                       292.900          20.500  
R18  22214329.497 1                     -3690.100          19.500  
> 2021  5 17  2 34 14.4446154  0 16                     
E 1  25352326.687 1                      1547.750          23.750    25350225.741 1  99479733.402 1      1157.527          25.250  
E26  23004637.558 1 120890142.025 1      1164.819          33.000    23002512.029 1  90266812.029 1       869.848          29.000  
E27  27462640.147 1                     -1003.700          27.500    27460487.337 1                      -747.700          22.500  
G 1  21499659.333 1 112981471.75411      3296.072          26.000                                                                  
G 4  23688274.086 1 124482794.13711     -2643.120          28.500                                                                  
G 7  21035213.962 1 110540999.91011      2421.856          28.750                                                                  
G 8  21071357.240 1 110730845.854 1     -1704.307          35.250                                                                  
G 9  23006053.178 1 120897840.70211     -1801.148          26.750                                                                  
G16  24289071.663 1                     -1503.800          22.000                                                                  
G21  20566134.399 1 108075749.850 1      1025.812          38.500                                                                  
G27  23227135.426 1 122059500.220 1     -2839.281          31.000                                                                  
J 1  37358942.379 1 196322541.41311      -143.465          27.500                                                                  
J 2  38509582.108 1                      1325.100          17.500                                                                  
J 3  38637063.754 1                      -602.500          24.000                                                                  
R 9  21042817.298 1                      2885.850          22.250  
R15  23316419.316 1                     -2192.950          21.750  
> 2021  5 17  2 34 15.4446156  0 17                     
E 1                                                                  25349995.134 1  99478813.674 1      1157.013          26.750  
E13  25311992.843 1                     -1591.100          21.000                                                                  
E26  23004478.602 1 120889295.715 1      1163.723          31.500    23002351.274 1  90266180.008 1       869.003          27.500  
E27  27462895.504 1                     -1004.700          26.250    27460742.994 1                      -751.250          22.250  
G 1  21499137.927 1                      3298.950          24.000                                                                  
G 4  23688835.831 1 124485755.67311     -2643.845          27.500                                                                  
G 7  21034810.674 1 110538896.75911      2421.123          26.750                                                                  
G 8  21071746.604 1 110732868.613 1     -1705.276          34.000                                                                  
G 9  23006435.047 1                     -1800.500          24.250                                                                  
G21  20566003.323 1 108075042.700 1      1024.485          37.500                                                                  
G22  24950553.762 1                      1836.550          17.500                                                                  
G27  23227731.946 1 122062658.131 1     -2840.166          30.000                                                                  
G30  24084374.805 1                      3577.400          19.500                                                                  
J 1  37359007.368 1 196323003.28111      -144.208          26.500                                                                  
J 3  38637236.069 1                      -605.150          21.000                                                                  
R 9  21042331.268 1                      2892.350          23.000  
R15  23316826.068 1                     -2201.050          25.750  
> 2021  5 17  2 34 16.4446157  0 14                     
E 1  25351839.552 1                      1544.450          20.750    25349727.214 1  99477772.715 1      1156.567          27.000  
E26  23004281.133 1 120888287.684 1      1162.233          31.250    23002159.501 1  90265427.235 1       868.275          27.500  
E27  27463109.950 1                     -1002.250          25.000    27460963.136 1                      -748.800          22.250  
G 1  21498565.118 1                      3288.750          24.500                                                                  
G 4  23689367.757 1 124488554.898 1     -2644.748          28.000                                                                  
G 7  21034363.778 1 110536327.15311      2419.324          26.500                                                                  
G 8  21072099.254 1 110734729.369 1     -1706.455          33.750                                                                  
G16  24289699.756 1                     -1498.700          21.500                                                                  
G21  20565838.232 1 108074173.920 1      1023.119          37.500                                                                  
G27  23228292.353 1 122065653.771 1     -2841.196          30.500                                                                  
J 1  37359093.203 1                      -145.900          25.000                                                                  
R 9  21041834.606 1                      2889.150          24.750  
R15  23317303.432 1                     -2203.100          25.750  
R18  22216526.084 1                     -3695.200          19.000  
> 2021  5 17  2 34 17.4446159  0 16                     
E 1  25351596.628 1                      1542.150          23.000    25349493.284 1  99476852.846 1      1155.777          26.000  
E26  23004126.647 1 120887442.269 1      1160.956          31.750    23001999.620 1  90264795.915 1       867.050          26.500  
E27  27463358.086 1                     -1002.150          26.000                                                                  
G 1  21497953.449 1                      3289.600          25.250                                                                  
G 4  23689928.577 1 124491516.24011     -2645.610          28.000                                                                  
G 7  21033977.853 1 110534224.777 1      2418.022          25.750                                                                  
G 8  21072483.496 1 110736752.469 1     -1707.426          34.500                                                                  
G 9  23007188.428 1                     -1806.750          18.750                                                                  
G16  24290056.417 1                     -1503.450          21.500                                                                  
G21  20565706.531 1 108073467.928 1      1021.492          37.500                                                                  
G27  23228916.129 1 122068811.543 1     -2842.085          29.750                                                                  
G30  24083143.260 1                      3582.500          19.500                                                                  
J 1  37359183.948 1 196323835.90811      -145.200          25.750                                                                  
J 3  38637528.968 1                      -606.800          20.500                                                                  
R 9  21041345.553 1                      2884.550          24.250  
R15  23317830.675 1                     -2198.600          25.000  
> 2021  5 17  2 34 18.4446160  0 15                     
E 1  25351328.438 1                      1544.950          22.250    25349226.893 1  99475815.358 1      1155.808          25.000  
E26  23003936.104 1 120886439.677 1      1160.435          32.500    23001808.776 1  90264047.268 1       866.916          28.500  
E27  27463580.056 1                     -1007.650          26.750    27461437.440 1                      -747.400          21.000  
G 1  21497360.884 1 112969393.65711      3291.586          27.250                                                                  
G 4  23690464.730 1 124494320.51511     -2645.247          27.000                                                                  
G 7  21033564.863 1 110531965.64511      2417.283          27.500                                                                  
G 8  21072840.374 1 110738618.309 1     -1707.608          34.000                                                                  
G16  24290324.556 1                     -1499.350          23.000                                                                  
G21  20565538.771 1 108072605.029 1      1020.919          37.250                                                                  
G27  23229482.861 1 122071812.216 1     -2841.805          30.250                                                                  
J 1  37359237.435 1                      -147.250          24.500                                                                  
R 9  21040854.917 1                      2890.700          25.000  
R15  23318232.521 1                     -2194.600          25.250  
R16  20170849.109 1                       297.250          16.500  
R18  22217944.135 1                     -3692.900          20.250  
> 2021  5 17  2 34 19.4446161  0 16                     
E 1                                                                  25348960.950 1  99474777.098 1      1157.655          25.000  
E26  23003744.810 1 120885436.57811      1162.871          32.500    23001616.883 1  90263298.219 1       868.234          28.000  
E27  27463800.977 1                     -1004.200          25.750    27461659.260 1                      -746.300          24.500  
G 1  21496741.186 1 112966259.10011      3293.357          26.250                                                                  
G 4  23690998.034 1 124497122.81311     -2642.679          28.500                                                                  
G 7  21033131.936 1 110529705.61911      2419.773          28.750                                                                  
G 8  21073201.897 1 110740483.410 1     -1705.125          33.750                                                                  
G 9  23007952.097 1                     -1800.550          20.500                                                                  
G16  24290681.282 1                     -1502.900          22.500                                                                  
G21  20565375.657 1 108071741.772 1      1022.951          37.500                                                                  
G22  24949330.409 1                      1832.050          17.250                                                                  
G27  23230043.146 1 122074811.528 1     -2839.127          30.250                                                                  
J 1  37359275.782 1                      -142.050          25.250                                                                  
J 3  38637850.743 1                      -609.200          21.500                                                                  
R 9  21040327.555 1                      2891.550          25.250  
R15  23318728.351 1                     -2198.150          25.000  
> 2021  5 17  2 34 20.4446163  0 16                     
E 1  25350841.605 1                      1553.550          21.000    25348727.169 1  99473849.369 1      1167.597          26.750  
E26  23003582.379 1 120884582.166 1      1174.445          32.250    23001455.951 1  90262660.129 1       877.801          28.000  
E27  27464047.463 1                      -988.500          25.750                                                                  
G 1  21496183.629 1                      3305.350          24.250                                                                  
G 4  23691562.000 1 124500073.70011     -2630.453          26.000                                                                  
G 7  21032738.666 1 110527594.11211      2431.783          28.500                                                                  
G 8  21073576.394 1 110742496.963 1     -1693.127          33.250                                                                  
G 9  23008375.461 1                     -1791.650          24.500                                                                  
G16  24291082.461 1                     -1484.050          22.000                                                                  
G21  20565236.910 1 108071027.388 1      1034.646          37.000                                                                  
G27  23230646.086 1 122077958.49611     -2826.883          30.250                                                                  
G30  24081171.979 1                      3581.250          18.500                                                                  
J 1  37359369.074 1 196324809.12211      -129.680          25.750                                                                  
R 9  21039879.122 1                      2902.700          26.500  
R15  23319162.807 1 124610535.13311     -2186.345          27.000  
R18  22219434.733 1                     -3689.650          19.500  
> 2021  5 17  2 34 21.4446164  0 18                     
E 1  25350572.710 1                      1557.550          21.750    25348458.873 1  99472800.25711      1162.136          25.500  
E13  25314024.712 1                     -1588.200          16.000                                                                  
E26  23003387.233 1 120883565.574 1      1167.359          31.000    23001262.903 1  90261900.999 1       871.742          28.500  
E27  27464262.133 1                     -1003.800          25.000    27462127.911 1                      -748.750          21.500  
G 1  21495548.388 1                      3296.200          24.250                                                                  
G 4  23692071.067 1                     -2635.600          24.750                                                                  
G 7  21032326.769 1 110525622.479 1      2424.438          29.750                                                                  
G 8  21073931.067 1 110744348.133 1     -1700.197          33.750                                                                  
G 9  23008792.191 1 120912018.72111     -1797.694          27.750                                                                  
G16  24291319.016 1                     -1498.250          23.000                                                                  
G21  20565070.244 1 108070150.997 1      1027.181          37.000                                                                  
G22  24948768.074 1                      1844.850          20.500                                                                  
G27  23231219.907 1 122080943.33611     -2833.941          29.500                                                                  
J 1  37359420.658 1                      -138.700          25.250                                                                  
J 3  38638145.815 1                      -593.550          20.750                                                                  
R 9  21039361.399 1 112349015.07211      2896.167          28.500  
R15  23319602.921 1                     -2194.000          24.500  
R16  20170915.712 1                       288.150          19.750  
> 2021  5 17  2 34 22.4446166  0 16                     
E 1  25350335.361 1                      1548.350          24.250    25348224.222 1  99471878.874 1      1156.232          24.750  
E26  23003225.431 1 120882720.53511      1159.501          30.250    23001101.102 1  90261269.970 1       865.834          29.500  
E27  27464520.941 1                     -1005.400          25.000    27462380.123 1                      -751.150          22.000  
G 1  21494985.764 1 112956912.25911      3290.699          27.000                                                                  
G 4  23692638.361 1                     -2643.100          24.500                                                                  
G 7  21031929.031 1 110523520.348 1      2416.427          29.750                                                                  
G 8  21074322.083 1 110746370.606 1     -1708.240          34.750                                                                  
G 9  23009182.307 1 120914138.544 1     -1805.492          28.500                                                                  
G16  24291714.529 1                     -1503.450          22.000                                                                  
G21  20564932.726 1 108069446.264 1      1019.078          37.500                                                                  
G22  24948450.380 1                      1833.450          24.250                                                                  
G27  23231813.583 1 122084099.211 1     -2841.130          28.750                                                                  
G30  24079846.402 1                      3581.000          19.750                                                                  
J 1  37359492.394 1                      -145.450          25.250                                                                  
R 9  21038852.438 1 112346447.04411      2887.847          29.500  
R15  23320074.581 1                     -2200.850          23.750  
> 2021  5 17  2 34 23.4446167  0 17                     
E 1  25350087.481 1                      1546.900          23.750    25347958.055 1  99470841.214 1      1155.753          23.750  
E26  23003036.911 1 120881719.15411      1159.927          30.000    23000911.682 1  90260522.386 1       866.568          29.250  
E27                                                                  27462602.618 1                      -749.750          23.000  
G 1  21494404.515 1 112953779.11711      3292.557          26.500                                                                  
G 4  23693206.516 1                     -2648.350          22.750                                                                  
G 7  21031479.391 1 110521262.94911      2415.462          29.000                                                                  
G 8  21074672.290 1 110748237.421 1     -1708.444          38.000                                                                  
G 9  23009591.573 1                     -1806.000          24.500                                                                  
G16  24291937.923 1                     -1499.900          23.750                                                                  
G21  20564769.988 1 108068585.477 1      1019.769          37.500                                                                  
G22  24948107.466 1 131103189.47111      1836.746          27.000                                                                  
G27  23232378.741 1 122087098.91711     -2840.986          26.250                                                                  
J 1  37359581.182 1 196325923.84511      -142.489          26.000                                                                  
J 3  38638468.527 1                      -607.200          22.250                                                                  
R 9  21038337.444 1 112343719.82011      2887.417          27.250  
R15  23320493.440 1                     -2197.500          25.750  
R18  22221623.672 1                     -3687.600          18.000  
> 2021  5 17  2 34 24.4446169  0 15                     
E 1  25349855.542 1                      1544.800          23.250    25347725.517 1                      1151.200          22.750  
E26  23002877.521 1 120880870.03011      1163.158          30.500    23000749.595 1  90259888.197 1       868.789          27.750  
E27  27464984.569 1                     -1008.700          20.750                                                                  
G 1  21493846.102 1 112950797.25511      3295.977          28.750                                                                  
G 4  23693815.795 1                     -2641.750          22.750                                                                  
G 7  21031097.556 1 110519159.54411      2415.883          29.500                                                                  
G 8  21075054.925 1 110750257.593 1     -1707.044          39.000                                                                  
G 9  23009940.332 1 120918052.22411     -1802.921          26.000                                                                  
G16  24292254.904 1                     -1498.050          22.000                                                                  
G21  20564636.081 1 108067876.663 1      1022.984          38.250                                                                  
G22  24947860.238 1                      1847.350          25.000                                                                  
G27  23232987.719 1                     -2837.550          24.500                                                                  
J 1  37359691.306 1                      -139.200          22.000                                                                  
J 3  38638677.582 1                      -601.650          22.000                                                                  
R 9  21037851.880 1 112341149.89711      2888.438          29.000  
> 2021  5 17  2 34 25.4446170  0 17                     
E 1                                                                  25347465.320 1  99468897.39011      1155.421          23.750  
E13  25315380.632 1                     -1586.850          20.000                                                                  
E26  23002676.683 1 120879862.659 1      1165.841          31.000    23000557.750 1  90259135.917 1       870.703          28.750  
E27  27465202.841 1                     -1001.100          23.750                                                                  
G 1  21493225.255 1 112947656.236 1      3299.774          31.000                                                                  
G 4  23694288.590 1                     -2637.750          22.750                                                                  
G 7  21030664.079 1 110516901.10411      2415.591          26.750                                                                  
G 8  21075411.102 1 110752121.960 1     -1706.912          40.500                                                                  
G 9  23010327.087 1                     -1796.750          25.250                                                                  
G21  20564470.618 1 108067009.255 1      1026.005          37.250                                                                  
G22  24947516.099 1 131100080.95611      1845.183          27.000                                                                  
G27  23233545.057 1                     -2833.850          25.500                                                                  
G30  24078113.774 1                      3582.300          21.000                                                                  
J 1  37359738.996 1                      -128.850          22.500                                                                  
J 3  38638784.331 1                      -597.050          21.000                                                                  
R 9  21037359.644 1 112338421.89111      2886.858          30.500  
R15  23321377.651 1                     -2194.450          24.000  
> 2021  5 17  2 34 26.4446171  0 18                     
E 1  25349343.604 1                      1546.100          23.750    25347202.486 1                      1159.950          22.750  
E26  23002485.500 1 120878856.62911      1166.571          29.500    23000366.567 1  90258384.546 1       871.340          29.000  
E27  27465425.371 1                      -998.800          24.000                                                                  
G 1  21492628.153 1 112944516.027 1      3300.643          33.250                                                                  
G 4  23694854.083 1                     -2638.000          25.000                                                                  
G 7  21030236.360 1                      2416.250          24.500                                                                  
G 8  21075769.438 1 110753988.821 1     -1706.418          37.500                                                                  
G 9  23010703.111 1 120922060.23311     -1801.149          26.000                                                                  
G16  24292929.245 1                     -1492.700          20.000                                                                  
G21  20564309.115 1 108066142.970 1      1026.427          38.000                                                                  
G22  24947174.420 1                      1850.050          25.000                                                                  
G27  23234132.734 1                     -2829.650          22.500                                                                  
J 1  37359769.659 1                      -136.400          21.000                                                                  
J 3                                                                  38636590.235 1                      -444.800          13.250  
R 9  21036855.777 1 112335697.513 1      2887.322          30.250  
R15  23321807.938 1 124624670.30011     -2191.629          28.750  
R16  20170892.072 1                       288.150          17.250  
R20  20850844.450 1                      3479.400          14.250  
> 2021  5 17  2 34 27.4446173  0 18                     
E 1  25349084.319 1 133210337.29911      1550.326          29.750                                                                  
E13  25316081.066 1                     -1580.100          20.000                                                                  
E26  23002329.044 1 120878002.934 1      1167.462          31.000    23000204.415 1  90257747.206 1       871.788          28.000  
E27  27465649.351 1                      -993.950          23.000                                                                  
G 1  21492063.379 1 112941528.31911      3301.230          31.000                                                                  
G 4  23695417.728 1 124520260.22211     -2636.566          29.000                                                                  
G 7  21029824.480 1                      2421.800          24.250                                                                  
G 8  21076156.205 1 110756007.802 1     -1704.348          35.750                                                                  
G 9  23011080.285 1 120924175.02111     -1800.726          30.250                                                                  
G16  24293255.154 1 127661916.71911     -1491.750          29.250                                                                  
G21  20564175.143 1 108065429.609 1      1026.925          38.500                                                                  
G22  24946916.634 1                      1846.700          24.750                                                                  
G27  23234718.564 1                     -2833.350          21.750                                                                  
G30  24076740.844 1                      3584.600          22.750                                                                  
J 1  37359840.445 1 196327286.59311      -130.166          28.250                                                                  
J 3  38639118.719 1                      -601.150          18.500                                                                  
R 9  21036370.448 1 112333127.31911      2890.847          28.000  
R15  23322269.953 1                     -2192.400          25.750  
> 2021  5 17  2 34 28.4446174  0 19                     
E 1  25348827.219 1                      1553.650          28.500                                                                  
E13  25316413.059 1                     -1583.550          24.500                                                                  
E26  23002139.098 1 120876993.615 1      1164.806          32.000    23000012.670 1  90256993.441 1       869.829          29.500  
E27  27465870.421 1 144334122.88411      -997.951          29.000                                                                  
G 1  21491457.321 1 112938385.431 1      3297.636          32.250                                                                  
G 4  23695963.173 1                     -2636.700          22.000                                                                  
G 7  21029414.786 1                      2416.200          25.250                                                                  
G 8  21076507.684 1 110757868.729 1     -1704.497          36.500                                                                  
G 9  23011431.165 1 120926131.309 1     -1800.214          30.500                                                                  
G16  24293554.769 1 127663565.497 1     -1493.551          30.000                                                                  
G21  20564004.383 1 108064560.799 1      1023.677          40.000                                                                  
G22  24946561.202 1                      1848.500          23.500                                                                  
G27  23235272.403 1                     -2834.250          22.250                                                                  
J 1  37359900.826 1 196327574.65011      -134.042          26.500                                                                  
J 3  38639249.251 1                      -597.150          22.250                                                                  
R 9  21035857.626 1                      2887.400          23.500  
R15  23322705.974 1 124629468.66311     -2193.755          27.750  
R16  20170840.964 1                       289.450          19.500  
R20  20849668.222 1                      3485.600          23.000  
> 2021  5 17  2 34 29.4446176  0 18                     
E 1                                                                  25346466.128 1                      1159.450          23.250  
E13  25316787.274 1                     -1588.000          27.750                                                                  
E26  23001975.785 1 120876146.173 1      1161.275          31.000    22999852.355 1  90256360.616 1       867.161          30.500  
E27  27466119.023 1 144335438.43111     -1001.916          31.000                                                                  
G 1  21490910.274 1 112935405.46111      3293.598          30.250                                                                  
G 4  23696546.943 1 124526194.56811     -2640.709          26.750                                                                  
G 7  21029043.118 1                      2420.400          25.500                                                                  
G 8  21076895.990 1 110759889.068 1     -1705.251          34.750                                                                  
G 9  23011838.357 1 120928247.926 1     -1802.126          30.000                                                                  
G16  24293898.406 1 127665375.98611     -1496.170          28.500                                                                  
G21  20563872.849 1 108063854.701 1      1019.827          41.000                                                                  
G22  24946330.436 1                      1843.100          24.750                                                                  
G27  23235857.672 1                     -2835.650          22.000                                                                  
G30  24075541.271 1                      3580.900          20.500                                                                  
J 1  37360007.327 1                      -136.850          24.750                                                                  
R 9  21035387.926 1 112327797.70111      2891.558          30.250  
R15  23323140.447 1 124631985.19111     -2198.696          28.000  
R20  20849084.001 1                      3481.350          22.000  
> 2021  5 17  2 34 30.4446177  0 18                     
E 1  25348307.806 1                      1552.200          21.250    25346200.565 1  99463934.13811      1158.826          27.000  
E13  25317129.690 1                     -1594.200          24.750                                                                  
E26  23001782.172 1 120875145.546 1      1158.774          31.500    22999662.639 1  90255613.348 1       865.559          30.750  
E27  27466335.526 1 144336601.251 1     -1004.431          31.000                                                                  
G 1  21490290.955 1 112932272.614 1      3291.163          30.500                                                                  
G 4  23697070.434 1 124528994.46411     -2641.642          27.000                                                                  
G 7  21028601.876 1                      2411.550          23.250                                                                  
G 8  21077249.198 1 110761754.328 1     -1706.860          34.000                                                                  
G 9  23012215.849 1                     -1805.950          25.000                                                                  
G16  24294224.633 1 127667032.90411     -1498.459          28.500                                                                  
G21  20563708.915 1 108062995.874 1      1016.874          41.000                                                                  
G22  24945924.270 1                      1837.900          23.250                                                                  
J 1  37360088.024 1                      -144.400          23.250                                                                  
J 2  38506205.083 1                      1334.550          19.750                                                                  
R 9  21034882.828 1 112325068.91511      2890.576          30.000  
R15  23323594.386 1 124634348.30411     -2201.765          28.250  
R16  20170758.649 1                       286.950          19.000  
R20  20848432.605 1                      3480.450          24.500  
> 2021  5 17  2 34 31.4446179  0 15                     
E 1  25348094.706 1 133205136.81211      1550.035          29.000    25345965.280 1  99463011.808 1      1157.093          24.750  
E13  25317477.802 1                     -1596.150          26.000                                                                  
E26  23001622.735 1 120874303.303 1      1157.541          31.000    22999500.804 1  90254984.420 1       864.662          30.000  
E27  27466598.497 1 144337921.69111     -1005.082          30.750                                                                  
G 1  21489748.084 1 112929298.042 1      3289.970          31.500                                                                  
G 4  23697621.505 1                     -2644.300          24.000                                                                  
G 8  21077632.985 1 110763778.069 1     -1708.876          31.250                                                                  
G 9  23012623.919 1 120932153.98511     -1805.530          27.750                                                                  
G16  24294595.828 1                     -1502.250          24.250                                                                  
G21  20563574.361 1 108062295.468 1      1015.491          41.250                                                                  
G22  24945647.615 1                      1841.850          23.750                                                                  
J 1  37360143.838 1 196328880.67611      -141.633          26.750                                                                  
R 9  21034363.640 1                      2888.350          25.500  
R15  23324059.117 1                     -2202.900          25.750  
R20  20847851.959 1                      3482.800          21.500  
> 2021  5 17  2 34 32.4446180  0 18                     
E 1  25347817.592 1 133203745.38411      1548.688          30.000    25345696.560 1  99461972.565 1      1156.743          24.000  
E13  25317802.971 1                     -1584.900          24.250                                                                  
E26  23001435.259 1 120873302.66211      1158.320          29.500    22999310.630 1  90254237.23611       864.559          29.250  
E27  27466811.843 1 144339082.59411     -1002.432          31.000    27464694.109 1                      -742.850          16.750  
G 1  21489126.808 1 112926165.43411      3289.600          28.000                                                                  
G 4  23698205.395 1                     -2646.500          23.750                                                                  
G 7  21027738.121 1                      2413.400          26.500                                                                  
G 8  21077986.634 1 110765644.47611     -1709.175          30.750                                                                  
G 9  23013005.149 1 120934117.58711     -1806.506          33.500                                                                  
G16  24294891.917 1 127670518.16711     -1498.964          26.000                                                                  
G21  20563407.870 1 108061436.689 1      1016.637          40.750                                                                  
G27  23237617.153 1                     -2840.100          20.500                                                                  
G30  24073547.351 1                      3587.400          18.500                                                                  
J 1  37360185.103 1                      -141.100          24.250                                                                  
J 2  38505777.226 1                      1337.150          19.000                                                                  
R 9  21033880.868 1 112319750.06711      2887.213          28.000  
R15  23324537.779 1                     -2205.450          25.250  
R20  20847238.478 1                      3476.100          25.750  
> 2021  5 17  2 34 33.4446181  0 17                     
E 1  25347560.198 1 133202355.28811      1544.585          30.500    25345432.571 1  99460934.08711      1153.772          25.750  
E13  25318139.166 1                     -1587.700          23.000                                                                  
E26  23001245.618 1 120872300.044 1      1159.878          32.750    22999120.389 1  90253488.420 1       866.177          31.000  
E27  27467031.419 1 144340238.09711      -995.878          29.750                                                                  
G 1  21488563.027 1                      3296.200          23.000                                                                  
G 4  23698703.778 1                     -2647.900          25.250                                                                  
G 7  21027306.248 1 110499239.86511      2407.963          29.500                                                                  
G 8  21078362.402 1 110767511.05811     -1711.541          26.000                                                                  
G 9  23013370.724 1 120936079.22811     -1803.756          31.250                                                                  
G16  24295213.723 1 127672172.64411     -1497.829          28.000                                                                  
G21  20563249.108 1 108060575.600 1      1018.487          40.000                                                                  
G22  24945018.372 1                      1848.000          24.000                                                                  
J 1  37360259.879 1                      -128.850          24.250                                                                  
J 3  38640022.618 1                      -602.300          16.750                                                                  
R 9  21033374.947 1                      2885.750          24.000  
R15  23324985.797 1 124641651.62511     -2197.766          27.000  
R20  20846597.950 1 111476127.54011      3478.139          27.000  
> 2021  5 17  2 34 34.4446183  0 18                     
E 1  25347321.954 1 133201126.61911      1541.985          30.750    25345197.625 1  99460016.83611      1152.717          33.500  
E13  25318479.821 1                     -1594.950          23.250                                                                  
E26  23001082.322 1 120871455.91111      1159.674          32.750    22998959.791 1  90252858.279 1       866.096          25.500  
E27  27467280.337 1                      -999.300          31.500                                                                  
G 1  21487974.325 1                      3287.700          23.500                                                                  
G 4  23699249.191 1                     -2654.400          24.000                                                                  
G 7  21026911.212 1 110497148.85811      2406.364          31.500                                                                  
G 8  21078760.318 1                     -1711.500          22.000                                                                  
G 9  23013772.237 1 120938201.64511     -1806.699          34.250                                                                  
G16  24295549.881 1 127673986.70411     -1500.286          26.000                                                                  
G21  20563118.789 1 108059872.58611      1018.587          32.500                                                                  
G22  24944710.576 1 131085338.01111      1851.566          26.500                                                                  
G27  23238813.244 1                     -2833.200          20.000                                                                  
J 1  37360336.417 1 196329892.89511      -127.317          25.750                                                                  
J 2  38505337.349 1                      1335.800          19.000                                                                  
R 9  21032907.061 1                      2882.350          24.750  
R15  23325461.958 1                     -2201.650          24.500  
R20  20845992.759 1                      3479.500          25.500  
> 2021  5 17  2 34 35.4446184  0 15                     
E 1  25347059.484 1 133199739.58211      1549.636          35.000    25344930.658 1  99458980.26711      1151.735          32.500  
E26  23000888.804 1 120870452.626 1      1159.342          32.000    22998767.772 1  90252109.130 1       865.413          29.500  
E27  27467493.638 1                     -1009.350          28.750    27465376.204 1                      -752.600          21.000  
G 1  21487388.678 1 112916988.90411      3293.298          29.000                                                                  
G 4  23699714.017 1                     -2626.500          24.500                                                                  
G 7  21026479.059 1 110494898.006 1      2408.003          34.500                                                                  
G 8  21079093.535 1                     -1708.000          21.750                                                                  
G 9  23014140.230 1                     -1811.900          35.250                                                                  
G21  20562957.049 1 108059010.58611      1017.446          32.500                                                                  
G22  24944377.655 1                      1857.350          24.250                                                                  
G27  23239421.072 1                     -2825.200          22.250                                                                  
G30  24071615.255 1                      3573.600          25.500                                                                  
R15  23325894.407 1                     -2198.250          26.000  
R18  22230447.369 1                     -3681.000          14.250  
R20  20845378.932 1                      3483.900          21.500  
> 2021  5 17  2 34 36.4446186  0 14                     
E 1  25346822.841 1 133198502.19611      1549.906          32.500    25344696.413 1  99458063.45911      1151.009          34.750  
E26  23000734.005 1                      1153.350          24.750    22998606.678 1  90251480.562 1       861.943          31.500  
E27  27467750.454 1                     -1015.200          23.750    27465627.923 1                      -764.400          22.000  
G 1  21486819.566 1 112914008.66111      3295.532          35.500                                                                  
G 4  23700274.223 1                     -2626.750          22.750                                                                  
G 7  21026086.525 1 110492804.25511      2409.169          33.000                                                                  
G 9  23014528.655 1                     -1795.450          30.500                                                                  
G21  20562820.537 1 108058309.80811      1011.402          28.000                                                                  
G27  23240013.055 1 122127092.73611     -2818.828          27.500                                                                  
G30  24070994.879 1 126493931.29011      3577.190          25.750                                                                  
J 2  38504923.078 1                      1330.550          19.750                                                                  
R 9  21031951.365 1                      2899.000          21.250  
R15  23326363.776 1 124649015.33711     -2207.864          27.250  
R20  20844836.801 1                      3495.500          23.500  
> 2021  5 17  2 34 37.4446187  0 16                     
E 1  25346563.893 1                      1546.300          24.250    25344432.669 1  99457029.356 1      1153.149          31.750  
E26  23000556.001 1 120868737.93111      1155.220          29.750    22998431.671 1                       858.500          27.750  
E27  27467987.662 1                     -1019.850          23.750                                                                  
G 1  21486225.450 1 112910869.64411      3299.060          33.500                                                                  
G 4  23700783.643 1                     -2619.200          21.000                                                                  
G 7  21025656.095 1 110490551.59311      2410.082          26.000                                                                  
G 8  21079822.297 1                     -1722.300          26.500                                                                  
G 9  23014927.751 1 120944261.58111     -1784.776          30.250                                                                  
G16  24296503.935 1                     -1518.150          21.000                                                                  
G21  20562673.711 1 108057458.38011      1008.777          30.500                                                                  
G27  23240577.037 1                     -2814.950          22.750                                                                  
G30  24070394.767 1                      3590.100          22.750                                                                  
J 2  38504686.614 1 202343492.86611      1319.477          32.250    38502348.833 1                       986.350          27.500  
J 3  38640658.683 1                      -619.650          32.000    38638328.996 1                      -458.750          19.000  
R15  23326820.432 1                     -2209.650          22.250  
R20  20844151.848 1                      3496.500          25.250  
> 2021  5 17  2 34 38.4446188  0 15                     
E 1  25346309.111 1                      1541.450          26.000    25344176.687 1  99455994.99411      1150.397          27.500  
E26  23000364.774 1                      1154.300          26.000    22998242.843 1                       858.550          26.750  
E27  27468187.964 1                     -1029.450          22.750                                                                  
G 1  21485639.696 1 112907731.21811      3291.707          30.500                                                                  
G 7  21025248.119 1                      2413.000          25.500                                                                  
G 8  21080181.489 1 110777100.76111     -1727.412          31.500                                                                  
G 9  23015268.356 1 120946199.86811     -1779.313          31.250                                                                  
G16  24296823.854 1                     -1535.400          25.500                                                                  
G21  20562516.062 1 108056607.557 1      1008.140          31.250                                                                  
G27  23241126.898 1 122132945.85111     -2814.937          25.750                                                                  
J 2  38504473.803 1 202342332.43311      1317.692          32.750    38502130.925 1                       986.200          26.250  
J 3  38640803.823 1 203058794.04311      -621.991          33.000    38638458.847 1 151625611.70411      -462.781          29.250  
R 9  21030957.966 1                      2900.000          20.000  
R15  23327244.380 1                     -2234.300          26.250  
R20  20843560.099 1                      3492.750          26.000  
> 2021  5 17  2 34 39.4446190  0 16                     
E 1  25346089.266 1                      1547.250          24.500    25343973.031 1                      1152.250          24.000  
E13  25320240.861 1                     -1578.200          19.000                                                                  
E26  23000207.287 1 120866905.08311      1152.760          30.000    22998082.658 1  90249415.46211       860.118          28.250  
G 1  21485061.900 1 112904756.77611      3292.551          31.750                                                                  
G 7  21024838.206 1                      2412.850          22.000                                                                  
G 8  21080574.421 1 110779145.716 1     -1729.845          32.000                                                                  
G 9  23015669.682 1 120948294.146 1     -1776.509          35.000                                                                  
G21  20562375.363 1 108055916.43311      1007.151          33.500                                                                  
G27  23241738.378 1                     -2811.850          25.000                                                                  
J 2  38504286.036 1 202341332.30911      1315.897          29.000    38501939.561 1                       983.200          22.500  
J 3  38640971.611 1 203059733.40811      -623.677          28.250    38638638.326 1                      -465.300          23.500  
R 9  21030485.996 1                      2905.700          23.750  
R15  23327778.814 1                     -2222.300          22.000  
R16  20170763.670 1                       275.500          16.500  
R18  22233449.702 1                     -3684.550          18.250  
R20  20842961.017 1 111456679.21211      3498.379          27.000  
> 2021  5 17  2 34 40.4446191  0 12                     
E 1  25345836.261 1                      1547.450          24.750    25343708.633 1                      1157.350          24.000  
E26  23000019.636 1 120865909.98711      1151.476          30.000    22997893.807 1  90248672.177 1       860.161          31.000  
G 1  21484466.531 1 112901616.10311      3299.903          27.250                                                                  
G 4  23702409.082 1                     -2618.250          18.000                                                                  
G 8  21080936.589 1 110781032.10811     -1730.640          27.750                                                                  
G 9  23016040.545 1 120950225.108 1     -1772.989          36.500                                                                  
G21  20562208.997 1 108055064.98311      1007.706          32.000                                                                  
G27  23242302.607 1                     -2809.350          24.500                                                                  
J 2  38504067.207 1                      1322.400          23.500    38501724.329 1                       986.150          21.750  
J 3  38641131.419 1                      -619.300          25.500    38638790.640 1 151626913.18911      -465.568          25.500  
R 9  21029960.779 1                      2903.150          24.000  
R20  20842359.952 1                      3502.900          24.500  
> 2021  5 17  2 34 41.4446193  0 14                     
E 1  25345586.320 1                      1550.900          21.750    25343473.383 1  99453232.43611      1150.893          23.250  
E26  22999855.136 1 120865073.60811      1150.799          30.500    22997732.606 1  90248047.59911       860.251          31.500  
E27  27468965.635 1                     -1020.950          20.000                                                                  
G 1  21483909.304 1 112898631.91811      3300.026          29.000                                                                  
G 7  21024018.080 1                      2424.250          21.500                                                                  
G 8  21081335.400 1                     -1701.250          24.750                                                                  
G 9  23016428.263 1 120952311.850 1     -1770.208          35.500                                                                  
G16  24297910.012 1                     -1483.400          19.000                                                                  
G21  20562087.068 1 108054373.988 1      1006.050          34.250                                                                  
G27  23242928.960 1 122142415.75311     -2803.931          26.250                                                                  
J 2  38503877.525 1 202339241.33011      1315.282          26.750                                                                  
J 3  38641316.778 1                      -621.700          25.250                                                                  
R 9  21029440.126 1                      2883.200          25.750  
R20  20841786.236 1                      3498.550          23.250  
> 2021  5 17  2 34 42.4446194  0 11                     
E26  22999668.305 1                      1148.100          28.500    22997544.575 1  90247306.195 1       858.152          30.000  
G 1  21483297.067 1 112895489.08911      3300.305          29.500                                                                  
G 7  21023597.111 1 110479748.42111      2424.410          26.500                                                                  
G 8  21081695.390 1 110785056.07711     -1696.626          26.500                                                                  
G 9  23016799.645 1 120954239.413 1     -1769.272          35.500                                                                  
G21  20561923.621 1 108053527.16611      1003.472          34.500                                                                  
G27  23243520.090 1                     -2807.200          23.000                                                                  
J 2  38503660.115 1 202338085.92311      1312.550          26.000    38501309.742 1                       984.600          22.000  
J 3  38641463.616 1 203062261.30011      -626.476          30.500    38639114.442 1                      -461.450          24.750  
R 9  21028976.287 1                      2922.850          23.250  
R16  20170798.191 1                       286.300          19.500  
> 2021  5 17  2 34 43.4446195  0 10                     
E26  22999479.227 1 120863079.59111      1143.040          32.250    22997356.096 1  90246566.45311       857.421          31.000  
G 1  21482683.183 1                      3301.550          23.000                                                                  
G 4  23704006.493 1                     -2609.500          20.250                                                                  
G 7  21023156.806 1                      2420.350          24.250                                                                  
G 8  21082062.127 1 110786914.93811     -1703.960          26.750                                                                  
G 9  23017166.682 1 120956166.368 1     -1767.676          36.000                                                                  
G21  20561769.318 1 108052682.643 1      1002.326          35.250                                                                  
J 2  38503437.759 1 202336932.76311      1310.361          33.500    38501087.686 1                       978.650          27.000  
J 3  38641612.703 1 203063048.03811      -628.528          31.000    38639265.928 1 151628778.77011      -469.380          30.000  
R 9  21028442.747 1                      2917.450          24.500  
> 2021  5 17  2 34 44.4446197  0 11                     
E13  25321965.992 1                     -1636.050          20.250                                                                  
E26  22999323.324 1                      1148.950          31.250    22997197.795 1  90245944.771 1       858.588          30.250  
G 1  21482163.931 1                      3291.700          21.500                                                                  
G 7  21022808.736 1                      2415.150          23.000                                                                  
G 8  21082451.846 1                     -1694.900          23.250                                                                  
G 9  23017566.294 1 120958249.152 1     -1765.656          36.000                                                                  
G21  20561639.797 1 108051996.540 1      1002.632          32.500                                                                  
J 2  38503246.781 1 202335938.09411      1311.726          31.750    38500901.804 1 151085807.64311       979.448          27.750  
J 3  38641789.870 1 203063992.976 1      -627.949          31.500    38639445.193 1 151629484.232 1      -468.813          29.750  
R 9  21027912.103 1                      2915.500          25.250  
R15  23330143.702 1                     -2224.350          17.500  
> 2021  5 17  2 34 45.4446198  0 14                     
E 1  25344567.602 1                      1563.950          19.750    25342460.661 1                      1141.850          19.000  
E13  25322285.528 1                     -1638.500          23.250                                                                  
E26  22999132.913 1                      1146.400          27.750    22997006.485 1  90245203.61211       854.919          28.250  
G 1  21481519.335 1                      3303.400          22.250                                                                  
G 4  23705097.684 1                     -2609.850          24.000                                                                  
G 7  21022338.319 1                      2424.050          25.250                                                                  
G 8  21082813.353 1                     -1694.000          24.000                                                                  
G 9  23017927.802 1 120960171.868 1     -1768.096          36.000                                                                  
G16  24299242.566 1                     -1477.050          18.250                                                                  
G21  20561476.667 1 108051150.14211      1000.642          31.750                                                                  
G27  23245268.217 1                     -2807.650          19.250                                                                  
J 2  38503044.378 1 202334782.71911      1310.597          28.500    38500680.815 1                       977.050          26.250  
J 3  38641946.019 1 203064776.95511      -628.432          28.500    38639594.147 1                      -465.500          26.500  
R 9  21027442.886 1                      2902.500          26.750  
> 2021  5 17  2 34 46.4446200  0 12                     
E 1  25344314.148 1                      1557.550          23.750    25342200.911 1                      1168.550          22.250  
E13  25322666.134 1                     -1641.900          23.750    25320542.704 1                     -1226.650          23.500  
G 1  21480967.587 1                      3305.500          20.500                                                                  
G 4  23705644.375 1                     -2608.550          24.750                                                                  
G 7  21021932.870 1                      2405.050          32.500                                                                  
G 8  21083192.761 1                     -1712.050          25.750                                                                  
G 9  23018324.897 1 120962257.851 1     -1771.535          35.750                                                                  
G27  23245789.426 1                     -2883.950          20.750                                                                  
J 2  38502846.685 1 202333788.72611      1309.083          30.000    38500491.216 1 151084196.85111       978.128          26.000  
J 3  38642113.173 1 203065721.875 1      -629.729          32.000    38639773.293 1                      -468.900          29.750  
R 9  21026974.780 1                      2917.250          26.000  
R16  20170674.884 1                       271.400          18.750  
> 2021  5 17  2 34 47.4446201  0 11                     
E 1                                                                  25341922.703 1                      1152.050          25.250  
E13  25323019.289 1                     -1633.550          23.250    25320884.767 1                     -1221.800          21.500  
G 1  21480368.901 1                      3297.550          21.250                                                                  
G 4  23706203.188 1                     -2610.900          22.000                                                                  
G 7  21021499.669 1 110468725.93211      2405.845          31.000                                                                  
G 8  21083548.014 1                     -1730.500          26.500                                                                  
G 9  23018690.343 1 120964185.84711     -1772.957          34.500                                                                  
G21  20561202.226 1                       996.350          21.500                                                                  
G30  24064020.776 1                      3579.950          16.750                                                                  
J 2  38502611.647 1 202332635.32911      1310.349          28.750    38500272.367 1                       978.150          27.250  
J 3  38642264.268 1 203066507.432 1      -629.290          32.500    38639922.289 1 151631354.38511      -469.807          29.250  
> 2021  5 17  2 34 48.4446203  0 12                     
E13  25323375.789 1                     -1636.050          24.500                                                                  
E26  22998644.767 1                      1146.250          20.250    22996503.349 1                       856.000          21.250  
E27                                                                  27468487.659 1                      -771.650          12.500  
G 1  21479819.428 1                      3263.450          27.500                                                                  
G 7  21021115.682 1 110466638.38711      2405.537          28.000                                                                  
G 8  21083928.497 1                     -1725.500          25.500                                                                  
G 9  23019084.317 1 120966276.579 1     -1768.854          34.500                                                                  
G16  24300397.282 1                     -1472.700          17.750                                                                  
G21  20561073.063 1                      1004.700          25.000                                                                  
G27  23247108.559 1                     -2797.600          28.000                                                                  
J 2  38502423.724 1 202331641.98111      1309.724          26.250    38500085.043 1 151082602.79511       982.379          24.250  
J 3  38642450.186 1 203067452.989 1      -623.533          32.500    38640100.712 1                      -465.350          29.250  
> 2021  5 17  2 34 49.4446204  0 13                     
E13  25323727.391 1                     -1631.950          27.000    25321595.267 1                     -1217.200          20.750  
E26  22998447.749 1                      1142.800          22.000    22996316.824 1                       854.900          24.000  
G 1  21479226.384 1                      3267.800          28.000                                                                  
G 7  21020661.142 1 110464383.34411      2415.895          28.500                                                                  
G 8  21084295.988 1 110798723.14711     -1730.190          29.500                                                                  
G 9  23019452.707 1 120968197.953 1     -1769.190          36.500                                                                  
G21  20560895.531 1 108048234.64911      1004.195          25.750                                                                  
G27  23247676.911 1 122167365.75511     -2797.970          32.000                                                                  
J 2  38502208.418 1                      1328.600          26.250    38499868.238 1                       992.600          22.500  
J 3  38642595.530 1 203068227.928 1      -622.395          34.250    38640248.455 1 151632633.79711      -464.919          30.000  
R 9  21025394.565 1                      2878.550          19.500  
R16  20170592.132 1                       276.000          19.000  
R20  20836790.633 1                      3500.700          16.000  
> 2021  5 17  2 34 50.4446206  0 14                     
E 1  25343356.248 1                      1539.350          19.500    25341223.824 1                      1153.300          18.500  
E13  25324092.184 1                     -1641.500          26.000    25321970.852 1                     -1221.500          22.750  
E26  22998284.007 1                      1146.000          24.500    22996163.275 1                       852.800          22.500  
G 1  21478634.539 1                      3289.700          24.000                                                                  
G 7  21020291.443 1                      2402.550          28.500                                                                  
G 8  21084701.253 1 110800778.34211     -1740.793          27.750                                                                  
G 9  23019852.876 1 120970289.49311     -1778.137          32.500                                                                  
G16  24300936.800 1                     -1487.200          19.500                                                                  
G21  20560758.771 1                       998.100          23.000                                                                  
G27  23248262.051 1                     -2807.250          22.750                                                                  
J 1  37361471.679 1                      -130.200          17.250                                                                  
J 2  38502026.989 1                      1310.950          25.000    38499676.617 1                       986.950          23.000  
J 3  38642774.152 1 203069173.42511      -630.836          29.000    38640429.176 1 151633340.29511      -471.063          27.250  
R20  20836213.478 1                      3491.000          23.500  
> 2021  5 17  2 34 51.4446207  0 13                     
E13  25324446.846 1                     -1636.600          23.750    25322313.822 1                     -1206.600          23.500  
E26  22998082.854 1                      1143.750          25.000    22995962.122 1  90241094.00111       853.192          25.250  
G 1  21478020.871 1 112867761.31311      3293.232          29.750                                                                  
G 7  21019849.257 1 110460052.40611      2400.395          31.000                                                                  
G 8  21085039.426 1 110802674.87511     -1740.998          26.250                                                                  
G 9  23020221.927 1 120972224.71611     -1777.182          33.250                                                                  
G16  24301310.348 1 127704246.84511     -1469.063          28.500                                                                  
G21  20560595.691 1                       998.400          23.750                                                                  
G22  24939466.562 1                      1843.700          18.250                                                                  
G27  23248843.656 1                     -2807.700          25.000                                                                  
J 2  38501810.547 1                      1311.700          25.250    38499454.178 1                       982.400          22.250  
J 3  38642923.456 1 203069960.40911      -629.812          28.750    38640579.379 1                      -466.300          27.500  
R 9  21024483.748 1                      2859.650          20.000  
> 2021  5 17  2 34 52.4446208  0 13                     
E13  25324777.730 1                     -1645.800          22.750    25322656.399 1                     -1224.600          23.000  
E26  22997901.693 1                      1137.250          25.000    22995776.165 1  90240357.26811       855.461          24.500  
G 1  21477411.606 1 112864629.29511      3290.940          34.500                                                                  
G 7  21019409.675 1 110457813.43711      2397.109          26.500                                                                  
G 8  21085434.766 1                     -1738.100          20.750                                                                  
G 9  23020587.588 1 120974158.744 1     -1774.451          37.500                                                                  
G16  24301622.346 1 127705873.03211     -1466.955          30.500                                                                  
G27  23249411.976 1 122176483.55811     -2806.939          29.250                                                                  
J 1  37361537.255 1                      -138.000          23.000                                                                  
J 2  38501604.203 1                      1312.850          24.000                                                                  
J 3  38643075.964 1 203070749.72811      -630.549          25.750    38640730.388 1                      -466.250          22.750  
R18  22243113.322 1                     -3666.750          23.000  
R20  20834978.853 1                      3491.800          24.000  
> 2021  5 17  2 34 53.4446210  0 16                     
E 1  25342578.659 1                      1545.150          19.250    25340437.541 1                      1148.850          21.250  
E13  25325176.306 1                     -1645.850          22.500    25323031.291 1                     -1228.700          22.500  
E26  22997737.259 1                      1143.950          28.000    22995616.227 1  90239738.14211       852.885          27.750  
G 1  21476849.648 1 112861647.809 1      3294.587          36.500                                                                  
G 7  21019023.694 1 110455726.99411      2400.585          35.250                                                                  
G 8  21085838.739 1                     -1690.750          23.000                                                                  
G 9  23020983.166 1 120976244.668 1     -1771.676          37.500                                                                  
G16  24301955.867 1 127707651.85311     -1466.123          29.500                                                                  
G21  20560326.244 1                       997.500          23.250                                                                  
G22  24938848.456 1                      1852.650          20.750                                                                  
G27  23249994.325 1 122179602.01211     -2802.252          29.000                                                                  
J 1  37361650.429 1                      -130.600          21.500                                                                  
J 2  38501391.502 1 202326177.37911      1309.775          29.000    38499045.626 1                       979.250          21.000  
J 3  38643253.893 1 203071693.207 1      -630.244          34.000    38640908.317 1 151635223.33811      -470.576          31.750  
R18  22243818.886 1                     -3667.100          24.500  
R20  20834405.203 1                      3493.850          25.500  
> 2021  5 17  2 34 54.4446211  0 17                     
E 1  25342298.559 1                      1539.850          22.000    25340173.630 1  99440283.30211      1149.122          29.250  
E13  25325496.391 1                     -1644.350          24.000    25323374.160 1                     -1229.350          26.000  
E26  22997555.491 1                      1143.550          27.000    22995429.063 1  90239003.712 1       852.765          28.000  
G 1  21476253.266 1 112858511.071 1      3295.319          37.000                                                                  
G 4  23709968.797 1                     -2617.300          16.750                                                                  
G 7  21018594.297 1 110453484.536 1      2401.539          35.750                                                                  
G 8  21086163.320 1                     -1741.850          31.250                                                                  
G 9  23021350.618 1 120978173.431 1     -1769.632          37.500                                                                  
G16  24302286.144 1                     -1473.200          23.500                                                                  
G22  24938512.594 1                      1843.100          23.000                                                                  
G27  23250568.933 1 122182560.37811     -2799.437          26.500                                                                  
G30  24059485.732 1                      3576.800          21.750                                                                  
J 1  37361674.618 1                      -129.200          24.500                                                                  
J 2  38501166.864 1 202325026.855 1      1309.332          32.750    38498822.487 1 151077648.36611       978.039          27.500  
J 3  38643405.194 1 203072481.631 1      -630.142          33.750    38641058.119 1 151635812.046 1      -470.584          30.500  
R 9  21022979.061 1                      2865.600          21.500  
R18  22244594.655 1                     -3656.250          22.750  
> 2021  5 17  2 34 55.4446212  0 19                     
E 1  25342035.604 1                      1540.700          23.250    25339912.774 1  99439254.278 1      1147.381          30.000  
E13  25325834.520 1                     -1650.350          26.000    25323714.388 1  99375694.00911     -1232.025          24.750  
E26  22997359.989 1                      1139.100          28.000    22995242.255 1  90238270.852 1       850.901          29.250  
E27  27472320.339 1                      -982.100          21.750    27470199.307 1                      -728.950          23.250  
G 1  21475654.544 1 112855375.650 1      3293.841          39.000                                                                  
G 4  23710511.985 1                     -2602.950          22.750                                                                  
G 7  21018170.054 1 110451243.458 1      2398.799          33.750                                                                  
G 8  21086519.737 1 110810408.34811     -1743.443          33.750                                                                  
G 9  23021723.523 1 120980102.480 1     -1770.608          38.500                                                                  
G16  24302591.297 1                     -1470.750          24.000                                                                  
G21  20559997.240 1                       994.000          24.250                                                                  
G22  24938202.272 1                      1846.100          24.250                                                                  
G27  23251178.674 1                     -2799.500          22.500                                                                  
G30  24058823.753 1                      3577.500          24.000                                                                  
J 2  38500943.782 1 202323877.918 1      1306.905          31.750    38498606.600 1                       976.450          28.000  
J 3  38643563.448 1 203073272.214 1      -632.572          32.000    38641208.279 1 151636402.412 1      -472.434          30.000  
R 9  21022472.076 1 112258827.84611      2861.141          27.500  
R15  23335098.378 1                     -2179.200          16.000  
R20  20833192.112 1                      3422.850          21.250  
> 2021  5 17  2 34 56.4446214  0 17                     
E 1  25341789.440 1                      1540.650          22.250    25339680.100 1  99438342.22611      1144.863          27.750  
E13  25326213.123 1                     -1652.550          26.750    25324090.593 1  99377161.099 1     -1233.427          23.500  
E26  22997208.860 1 120851148.35911      1138.665          28.750    22995084.230 1  90237654.496 1       850.343          29.500  
E27  27472569.132 1                      -973.950          21.500    27470452.597 1                      -735.400          22.500  
G 1  21475090.600 1 112852395.67611      3292.475          32.000                                                                  
G 4  23711062.069 1                     -2610.350          22.250                                                                  
G 7  21017763.501 1 110449158.65011      2397.397          31.750                                                                  
G 8  21086912.730 1 110812466.344 1     -1745.358          33.000                                                                  
G 9  23022117.116 1 120982186.677 1     -1770.587          38.750                                                                  
G21  20559866.497 1 108042827.19511       989.184          27.500                                                                  
G27  23251708.073 1                     -2809.900          25.250                                                                  
G30  24058215.140 1 126426773.66711      3572.117          27.750                                                                  
J 1  37361813.051 1                      -131.150          23.750                                                                  
J 2  38500758.475 1 202322885.194 1      1305.907          31.000    38498415.897 1 151076052.14811       975.143          27.750  
J 3  38643730.698 1 203074219.019 1      -633.784          32.250    38641389.619 1 151637109.366 1      -473.134          29.750  
R 9  21022005.564 1 112256285.94211      2858.206          27.000  
R15  23335729.107 1                     -2203.000          22.250  
> 2021  5 17  2 34 57.4446215  0 14                     
E 1  25341553.507 1                      1554.650          27.000    25339420.483 1                      1153.100          25.500  
E13  25326568.081 1                     -1655.300          24.000    25324432.959 1                     -1235.150          22.500  
E26  22997019.993 1                      1138.550          27.500    22994896.863 1  90236921.279 1       850.585          28.500  
E27  27472795.478 1                      -978.700          24.750                                                                  
G 4  23711545.937 1                     -2610.000          22.500                                                                  
G 7  21017354.587 1 110446919.22511      2396.276          29.000                                                                  
G 8  21087277.581 1 110814369.288 1     -1746.063          31.000                                                                  
G 9  23022487.662 1 120984114.108 1     -1769.934          38.250                                                                  
G21  20559691.721 1 108041994.55311       988.511          29.000                                                                  
G22  24937577.773 1                      1854.100          18.750                                                                  
G30  24057566.992 1 126423359.44111      3571.297          27.500                                                                  
J 2  38500539.930 1 202321736.430 1      1305.935          30.000    38498197.352 1                       976.800          26.250  
J 3  38643872.203 1 203075009.772 1      -633.572          31.000    38641539.518 1 151637699.908 1      -473.147          29.500  
R 9  21021526.499 1                      2906.700          26.500  
> 2021  5 17  2 34 58.4446217  0 15                     
E 1  25341315.092 1                      1551.550          24.000    25339184.167 1  99436400.29911      1145.089          29.000  
E13  25326928.951 1                     -1655.500          25.500    25324810.917 1                     -1235.700          22.250  
E26  22996864.321 1                      1139.400          28.000    22994740.292 1  90236306.74911       849.443          30.000  
E27  27473033.134 1                     -1046.600          24.250                                                                  
G 1  21473966.002 1                      3302.500          19.750                                                                  
G 4  23712133.750 1                     -2609.800          21.500                                                                  
G 7  21016949.188 1 110444838.74611      2395.231          31.500                                                                  
G 8  21087670.528 1 110816430.916 1     -1747.113          30.000                                                                  
G 9  23022880.311 1 120986199.180 1     -1770.628          36.500                                                                  
G21  20559576.820 1 108041321.563 1       988.480          30.000                                                                  
G30  24056954.136 1 126420103.98711      3570.419          28.750                                                                  
J 2  38500350.381 1 202320745.964 1      1305.106          31.000    38498009.002 1 151074455.61611       974.820          27.250  
J 3  38644082.277 1 203075958.982 1      -634.477          29.500    38641721.112 1 151638408.766 1      -473.851          27.250  
R 9  21021005.680 1                      2861.350          29.500  
R15  23336499.796 1                     -2223.000          22.500  
> 2021  5 17  2 34 59.4446218  0 13                     
E 1  25341061.421 1                      1533.800          24.500                                                                  
E13  25327283.259 1                     -1655.300          24.250                                                                  
E26  22996682.600 1                      1145.000          24.250    22994565.166 1                       851.000          22.750  
G 1  21473401.146 1                      3286.300          21.750                                                                  
G 7  21016553.415 1                      2394.700          23.750                                                                  
G 8  21088031.432 1 110818335.476 1     -1747.029          28.750                                                                  
G 9  23023243.613 1 120988128.264 1     -1772.275          36.500                                                                  
G21  20559413.687 1 108040488.87511       991.560          28.000                                                                  
J 2  38500135.683 1 202319598.042 1      1305.598          30.250    38497788.608 1                       978.850          26.750  
J 3  38644208.743 1 203076750.878 1      -634.374          30.750    38641869.763 1                      -475.600          27.250  
R 9  21020496.885 1                      2860.000          24.000  
R15  23336995.607 1                     -2237.400          25.250  
R16  20170644.626 1                       246.200          16.750  
> 2021  5 17  2 35  0.4446219  0 11                     
E 1                                                                  25338687.675 1                      1154.050          20.000  
E13  25327637.025 1                     -1645.700          23.000    25325496.507 1                     -1231.500          21.250  
E26  22996505.134 1                      1134.850          23.500    22994383.803 1                       849.950          23.000  
G 1  21472740.115 1                      3292.700          23.750                                                                  
G 7  21016090.247 1                      2405.800          21.500                                                                  
G 8  21088383.999 1 110820240.06411     -1746.591          27.000                                                                  
G 9  23023613.568 1 120990058.734 1     -1773.074          35.750                                                                  
G21  20559266.200 1 108039656.45211       989.084          29.750                                                                  
J 2  38499910.850 1                      1307.800          23.750    38497567.672 1                       974.400          21.250  
J 3  38644378.437 1                      -633.800          24.000    38642021.169 1                      -471.350          22.750  
R 9  21019999.841 1                      2855.750          21.500  
> 2021  5 17  2 35  1.4446221  0 10                     
E13  25327988.778 1                     -1652.550          24.250                                                                  
E26  22996344.242 1                      1137.900          23.500    22994223.211 1  90234269.82711       849.479          23.750  
G 1  21472168.807 1                      3270.850          22.500                                                                  
G 7  21015722.498 1                      2396.450          24.250                                                                  
G 8  21088779.822 1                     -1736.300          22.750                                                                  
G 9  23024013.587 1 120992147.839 1     -1774.314          36.750                                                                  
G21  20559143.681 1 108038981.84111       990.012          29.000                                                                  
J 2  38499730.471 1 202317448.97611      1308.329          27.250    38497384.895 1 151072007.01111       976.872          26.250  
J 3  38644551.814 1 203078490.04611      -631.455          29.000    38642201.741 1                      -474.050          28.250  
R20  20829464.142 1                      3491.650          20.750  
> 2021  5 17  2 35  2.4446222  0 12                     
E13  25328343.291 1                     -1651.200          24.500    25326213.566 1                     -1231.650          21.000  
E26  22996170.221 1                      1134.350          22.250    22994028.504 1  90233538.62411       847.337          25.000  
G 1  21471587.967 1                      3289.200          27.500                                                                  
G 4  23714232.817 1                     -2610.200          19.000                                                                  
G 7  21015281.062 1                      2395.300          24.500                                                                  
G 8  21089150.823 1                     -1745.450          23.750                                                                  
G 9  23024378.293 1 120994080.746 1     -1776.957          36.000                                                                  
G21  20558959.467 1 108038150.01311       987.524          25.750                                                                  
G30  24054923.861 1                      3612.050          19.500                                                                  
J 2  38499498.890 1 202316298.96211      1306.470          29.250    38497166.205 1                       978.300          27.500  
J 3  38644694.973 1 203079279.827 1      -632.673          30.000    38642351.795 1                      -472.300          29.250  
R20  20828854.522 1 111381244.80911      3487.364          26.750  
> 2021  5 17  2 35  3.4446223  0 15                     
E13  25328688.901 1                     -1653.500          24.250                                                                  
E26  22995969.310 1 120844634.01311      1136.204          30.500    22993839.284 1  90232810.434 1       848.973          28.250  
E27  27474240.267 1                      -987.400          19.000                                                                  
G 1  21470973.642 1 112830728.03011      3290.762          35.750                                                                  
G 4  23714769.095 1                     -2611.750          24.500                                                                  
G 7  21014854.707 1 110433806.23011      2392.127          29.750                                                                  
G 8  21089521.016 1                     -1739.150          22.750                                                                  
G 9  23024746.987 1 120996018.338 1     -1777.362          37.500                                                                  
G21  20558807.122 1 108037324.511 1       986.301          30.750                                                                  
G27  23255768.254 1                     -2881.450          21.500                                                                  
G30  24054245.080 1 126405911.00211      3614.230          25.750                                                                  
J 1  37362325.488 1                      -127.600          16.750                                                                  
J 2  38499291.983 1 202315150.645 1      1309.400          30.500    38496945.807 1 151070283.65211       977.880          27.000  
J 3  38644855.011 1 203080071.790 1      -630.845          30.250    38642501.641 1                      -469.900          28.250  
R20  20828225.507 1 111377920.63511      3487.772          27.000  
> 2021  5 17  2 35  4.4446225  0 15                     
E13  25329064.664 1                     -1648.500          23.500                                                                  
E26  22995807.244 1                      1137.350          26.750    22993682.915 1  90232196.503 1       848.308          30.000  
G 1  21470411.354 1 112827751.47711      3292.827          28.750                                                                  
G 4  23715329.229 1 124624895.75611     -2612.204          26.000                                                                  
G 9  23025148.232 1 120998111.371 1     -1780.387          37.000                                                                  
G21  20558682.530 1 108036651.45011       986.366          29.750                                                                  
G22  24935464.148 1                      1851.950          17.250                                                                  
G27  23256385.350 1                     -2888.650          22.750                                                                  
J 1  37362338.202 1                      -130.150          21.500                                                                  
J 2  38499105.634 1 202314155.27311      1309.417          25.750    38496753.462 1                       981.350          25.250  
J 3  38645038.906 1 203081016.618 1      -631.273          28.500    38642682.538 1 151642185.39811      -471.221          27.000  
R 9  21018103.080 1                      2895.850          18.750  
R15  23339254.580 1                     -2196.250          17.500  
R16  20170631.772 1                       240.000          17.250  
R20  20827626.944 1 111374754.70311      3484.883          27.000  
> 2021  5 17  2 35  5.4446226  0 15                     
E13  25329403.089 1                     -1651.950          27.500    25327276.961 1                     -1226.450          20.000  
E26  22995624.330 1                      1133.650          25.500    22993497.603 1  90231465.405 1       846.802          30.750  
G 1  21469820.722 1                      3275.750          27.750                                                                  
G 4  23715844.832 1 124627664.84811     -2614.399          27.500                                                                  
G 8  21090271.778 1                     -1742.700          20.000                                                                  
G 9  23025515.437 1 121000048.725 1     -1781.775          34.000                                                                  
G21  20558517.005 1 108035822.91311       984.188          26.500                                                                  
G22  24935138.832 1                      1824.750          25.000                                                                  
G27  23256973.802 1 122216221.71911     -2887.722          27.250                                                                  
G30  24052998.325 1                      3609.900          19.000                                                                  
J 1  37362443.388 1                      -153.900          21.750                                                                  
J 2  38498912.227 1                      1311.500          23.750    38496536.972 1 151068679.57411       976.761          26.500  
J 3  38645186.664 1                      -628.400          24.250    38642830.895 1                      -470.850          25.500  
R15  23339728.812 1                     -2209.050          23.500  
R20  20827039.011 1 111371429.349 1      3483.685          27.000  
> 2021  5 17  2 35  6.4446228  0 13                     
E13  25329776.618 1                     -1651.000          27.750                                                                  
E26  22995467.226 1                      1133.700          26.500    22993342.897 1  90230854.927 1       846.394          31.500  
G 1  21469274.188 1 112821797.01011      3283.662          29.000                                                                  
G 4  23716446.203 1                     -2618.050          25.000                                                                  
G 8  21090694.473 1                     -1722.250          24.000                                                                  
G 9  23025912.949 1 121002146.68411     -1779.179          31.500                                                                  
G21  20558415.362 1                       982.900          23.750                                                                  
G27  23257586.865 1                     -2888.900          25.250                                                                  
J 1  37362520.422 1                      -170.100          21.250                                                                  
J 2  38498703.559 1                      1309.100          23.500    38496350.488 1                       976.500          26.000  
J 3  38645385.713 1 203082872.13111      -634.906          26.000    38643012.556 1 151643480.96211      -472.926          23.250  
R15  23340142.213 1                     -2228.550          26.000  
R20  20826458.000 1                      3481.950          26.250  
> 2021  5 17  2 35  7.4446229  0 13                     
E13  25330133.807 1                     -1577.000          32.500    25328005.880 1                     -1177.700          26.000  
E26  22995291.085 1                      1135.150          26.500    22993156.862 1  90230125.57511       846.042          29.500  
G 1  21468677.137 1 112818669.52711      3285.580          27.250                                                                  
G 7  21013242.628 1                      2395.000          20.500                                                                  
G 8  21091012.689 1                     -1725.950          22.000                                                                  
G 9  23026298.918 1 121004082.46811     -1780.730          30.750                                                                  
G16  24306654.347 1                     -1475.100          14.500                                                                  
G21  20558245.216 1 108034307.01611       982.002          25.750                                                                  
G27  23258154.208 1                     -2885.250          21.500                                                                  
J 2  38498468.058 1 202310814.49011      1305.567          27.000    38496128.778 1 151067077.52411       976.109          24.750  
J 3  38645519.857 1 203083662.829 1      -633.777          28.250    38643163.188 1                      -472.000          27.750  
R15  23340605.528 1                     -2243.850          31.000  
R20  20825793.197 1                      3480.850          24.250  
> 2021  5 17  2 35  8.4446230  0 11                     
E13  25330465.394 1                     -1656.200          23.250                                                                  
E26  22995086.943 1                      1131.800          26.750    22992971.608 1                       846.050          27.500  
G 1  21468087.463 1                      3278.900          25.000                                                                  
G 4  23717504.624 1                     -2614.450          20.500                                                                  
G 8  21091362.564 1                     -1722.900          20.500                                                                  
G 9  23026651.492 1 121006021.563 1     -1781.643          37.750                                                                  
G21  20558077.350 1                       979.700          25.500                                                                  
J 2  38498269.014 1 202309665.82911      1306.534          29.250    38495913.544 1                       978.700          28.000  
J 3  38645664.973 1 203084454.78711      -634.690          31.500    38643316.999 1 151644675.51511      -473.660          28.500  
R15  23341063.029 1 124727563.52011     -2245.476          29.500  
R20  20825197.227 1                      3473.000          23.250  
> 2021  5 17  2 35  9.4446232  0 13                     
E13                                                                  25328717.752 1                     -1232.150          20.250  
E26  22994935.097 1                      1130.750          27.250    22992816.463 1  90228749.77411       843.449          31.000  
G 1  21467508.112 1 112812515.56911      3282.045          26.000                                                                  
G 4  23718042.600 1 124639154.61811     -2619.342          27.500                                                                  
G 8  21091771.329 1                     -1722.800          22.750                                                                  
G 9  23027048.565 1 121008117.199 1     -1781.472          37.000                                                                  
G16  24307362.622 1                     -1479.650          20.000                                                                  
G21  20557961.478 1 108032816.27011       979.338          27.500                                                                  
G27  23259555.004 1                     -2804.000          28.000                                                                  
J 2  38498065.603 1 202308673.84711      1305.178          30.500    38495722.725 1 151065484.49811       975.881          24.250  
J 3  38645851.892 1 203085403.64511      -635.061          30.500    38643496.423 1                      -474.200          29.250  
R15  23341649.271 1                     -2183.500          29.250  
R20  20824613.979 1                      3477.550          24.500  
> 2021  5 17  2 35 10.4446233  0 14                     
E13                                                                  25329065.602 1                     -1240.900          22.250  
E26  22994762.207 1                      1128.350          27.500    22992627.385 1  90228026.409 1       842.409          26.500  
E27  27476022.095 1                      -978.250          17.250                                                                  
G 4  23718614.095 1                     -2622.900          20.750                                                                  
G 7  21011965.469 1                      2390.400          21.000                                                                  
G 8  21092173.741 1                     -1728.200          22.500                                                                  
G 9  23027418.899 1 121010058.725 1     -1781.781          32.750                                                                  
G21  20557808.975 1                       977.900          25.000                                                                  
J 1  37362878.467 1                      -127.350          18.500                                                                  
J 2  38497842.048 1 202307529.07511      1304.899          29.750    38495505.765 1                       972.650          28.000  
J 3  38645987.189 1 203086199.104 1      -635.866          30.000    38643644.311 1 151645960.08611      -474.874          27.000  
R15  23342099.350 1                     -2181.550          25.250  
R16  20170621.319 1                       234.350          17.250  
R20  20823953.027 1                      3477.800          26.500  
> 2021  5 17  2 35 11.4446234  0 11                     
E13  25331540.368 1                     -1651.900          22.000    25329406.146 1  99398029.78711     -1237.000          24.000  
E26  22994576.015 1                      1131.700          24.500    22992443.891 1  90227299.960 1       843.372          26.500  
G 7  21011551.135 1 110416445.55211      2387.716          32.750                                                                  
G 8  21092504.392 1                     -1736.000          21.000                                                                  
G 9  23027790.022 1 121011995.980 1     -1780.129          33.250                                                                  
G21  20557665.953 1 108031262.93911       976.599          26.000                                                                  
G27  23260664.306 1                     -2807.300          24.000                                                                  
G30  24048660.687 1                      3569.150          22.500                                                                  
J 2  38497630.674 1 202306379.70211      1305.839          29.250    38495285.697 1 151063768.81811       975.100          23.750  
J 3  38646149.656 1 203086990.58811      -635.635          28.750    38643797.784 1                      -473.000          24.000  
R20  20823392.394 1                      3477.850          24.750  
> 2021  5 17  2 35 12.4446236  0 18                     
E 1                                                                  25335687.732 1                      1145.200          18.000  
E13                                                                  25329780.322 1                     -1239.400          23.000  
E26  22994410.565 1                      1130.650          25.000    22992290.432 1                       840.500          21.750  
G 1  21465808.394 1                      3286.350          20.750                                                                  
G 7  21011146.150 1 110414374.35211      2388.672          33.000                                                                  
G 8  21092980.497 1                     -1689.250          22.500                                                                  
G 9  23028188.781 1 121014091.811 1     -1778.682          34.750                                                                  
G16  24308381.721 1                     -1481.200          19.000                                                                  
G21  20557524.186 1                       984.150          25.250                                                                  
G22  24933124.921 1                      1873.350          16.000                                                                  
G30  24048023.064 1 126373213.98211      3570.372          27.000                                                                  
J 2  38497448.135 1 202305390.44011      1306.311          28.750    38495096.263 1                       981.550          24.000  
J 3  38646325.969 1 203087941.61111      -633.639          29.500    38643977.395 1 151647266.91711      -472.873          26.250  
R 9  21014189.643 1                      2901.250          16.500  
R15  23342996.044 1                     -2181.250          20.000  
R16  20170572.467 1                       261.350          21.250  
R18  22258065.726 1                     -3671.600          22.500  
R20  20822830.918 1                      3472.150          22.250  
> 2021  5 17  2 35 13.4446237  0 17                     
E 1  25337562.300 1                      1543.250          22.000    25335412.488 1  99421599.69111      1145.732          29.500  
E13                                                                  25330127.147 1  99400859.21111     -1238.816          25.500  
E26                                                                  22992103.028 1                       845.750          22.000  
G 1  21465148.816 1 112800117.92111      3279.160          27.500                                                                  
G 7  21010733.601 1 110412142.414 1      2387.020          35.500                                                                  
G 8  21093316.830 1                     -1707.000          21.500                                                                  
G 9  23028553.594 1 121016027.772 1     -1781.165          34.500                                                                  
G16  24308688.375 1                     -1484.500          23.500                                                                  
G21  20557390.144 1                       972.700          23.000                                                                  
G27  23261837.994 1                     -2808.200          21.250                                                                  
G30  24047453.124 1                      3567.050          21.250                                                                  
J 1  37362980.976 1                      -131.700          18.750                                                                  
J 2  38497222.957 1 202304241.17611      1303.702          26.000    38494874.982 1                       979.200          20.750  
J 3  38646475.831 1 203088733.22611      -637.316          26.500    38644126.357 1                      -470.650          24.000  
R 9  21013649.383 1                      2862.900          23.500  
R18  22258774.700 1                     -3675.700          24.000  
R20  20822135.665 1                      3477.550          25.500  
> 2021  5 17  2 35 14.4446238  0 15                     
E 1                                                                  25335194.024 1                      1141.950          21.250  
E13  25332655.382 1                     -1585.350          20.500    25330475.891 1                     -1237.450          22.750  
E26  22994047.266 1                      1125.350          22.500    22991920.539 1                       843.100          25.000  
G 1  21464549.016 1 112796996.130 1      3278.378          36.750                                                                  
G 7  21010315.475 1 110409914.76511      2384.222          27.250                                                                  
G 8  21093629.298 1                     -1750.400          27.250                                                                  
G 9  23028930.218 1 121017968.294 1     -1782.922          35.500                                                                  
G21  20557204.957 1 108028841.10511       971.502          27.000                                                                  
G27  23262449.655 1                     -2811.150          23.500                                                                  
J 2  38497006.591 1 202303096.22411      1302.450          31.500    38494656.818 1                       969.900          23.500  
J 3  38646625.512 1 203089528.84511      -638.059          32.750    38644279.336 1 151648451.87111      -476.394          28.000  
R 9  21013092.153 1 112208739.48511      2854.308          31.250  
R15  23343901.767 1                     -2199.050          19.750  
R18  22259439.425 1                     -3682.300          21.750  
R20  20821448.925 1                      3484.800          22.250  
> 2021  5 17  2 35 15.4446240  0 15                     
E 1                                                                  25334960.825 1                      1140.150          22.500  
E13  25332968.404 1                     -1667.400          22.250    25330850.970 1  99403699.29111     -1240.800          25.000  
E26  22993895.611 1                      1123.700          25.750    22991768.883 1  90224638.47611       839.193          26.500  
E27  27477213.574 1                      -986.950          18.500                                                                  
G 1  21463986.345 1 112794032.852 1      3279.163          34.500                                                                  
G 4  23721279.353 1                     -2614.800          21.000                                                                  
G 7  21009908.097 1 110407845.522 1      2383.863          32.750                                                                  
G 8  21094012.172 1 110849781.25611     -1753.804          33.750                                                                  
G 9  23029325.083 1 121020066.700 1     -1782.985          36.000                                                                  
G21  20557083.880 1 108028185.78211       970.819          29.000                                                                  
G22  24932055.950 1                      1845.150          18.750                                                                  
J 2  38496823.757 1 202302109.575 1      1302.145          30.500    38494471.885 1                       973.050          24.500  
J 3  38646802.129 1 203090482.375 1      -638.044          31.500    38644460.450 1                      -477.750          25.750  
R 9  21012636.807 1                      2855.000          26.500  
R16  20170544.976 1                       239.800          19.000  
> 2021  5 17  2 35 16.4446241  0 13                     
E 1  25336821.967 1                      1523.650          19.250                                                                  
E13  25333326.687 1                     -1660.400          23.500    25331198.161 1                     -1244.250          22.750  
E26  22993708.571 1                      1126.100          26.250    22991581.843 1  90223918.230 1       839.435          26.000  
G 1  21463381.994 1 112790912.06711      3281.136          26.500                                                                  
G 7  21009493.814 1 110405621.944 1      2382.245          28.500                                                                  
G 8  21094376.451 1 110851697.78811     -1759.265          28.000                                                                  
G 9  23029698.955 1 121022009.09811     -1781.603          32.500                                                                  
G21  20556939.411 1                       970.050          25.250                                                                  
J 1  37363212.870 1                      -128.400          17.750                                                                  
J 2  38496602.541 1 202300966.84011      1301.864          28.500    38494254.866 1 151059723.64411       972.420          24.250  
J 3  38646973.341 1 203091280.02511      -638.485          30.500    38644613.375 1 151649762.48011      -476.643          25.250  
R 9  21012180.554 1                      2887.150          26.000  
R20  20820317.878 1                      3476.350          24.500  
> 2021  5 17  2 35 17.4446242  0 10                     
E13  25333666.717 1                     -1658.500          23.250    25331543.586 1                     -1238.250          21.250  
E26  22993535.656 1                      1122.950          26.000    22991400.234 1  90223194.635 1       839.614          26.000  
G 7  21009070.572 1                      2385.600          24.500                                                                  
G 8  21094742.563 1                     -1698.800          27.000                                                                  
G 9  23030067.465 1 121023945.28511     -1782.175          33.000                                                                  
G21  20556783.884 1 108026628.34811       970.808          26.500                                                                  
J 2  38496378.961 1 202299819.55411      1301.622          27.750    38494033.984 1                       975.550          23.000  
J 3  38647105.615 1 203092073.438 1      -638.962          30.250    38644764.535 1                      -482.700          25.250  
R 9  21011721.337 1                      2893.350          25.500  
R16  20170617.921 1                       220.800          22.000  
> 2021  5 17  2 35 18.4446244  0 13                     
E13  25334067.286 1                     -1629.950          26.750    25331922.871 1                     -1238.950          22.250  
E26  22993363.022 1                      1126.150          22.750    22991245.888 1  90222592.44811       837.530          24.000  
G 1  21462270.176 1                      3259.000          21.500                                                                  
G 7  21008679.390 1                      2380.800          22.250                                                                  
G 8  21095137.436 1                     -1747.750          23.500                                                                  
G 9  23030462.639 1 121026044.577 1     -1782.065          36.750                                                                  
G21  20556657.119 1 108025975.04811       969.116          26.000                                                                  
G27  23264761.837 1                     -2815.500          19.000                                                                  
G30  24044317.262 1                      3605.050          18.500                                                                  
J 2  38496186.841 1                      1297.200          24.500    38493853.856 1                       974.650          21.750  
J 3  38647311.319 1                      -643.950          25.000                                                                  
R 9  21011152.378 1 112198381.00711      2893.779          32.500  
R20  20819136.508 1                      3473.700          20.500  
> 2021  5 17  2 35 19.4446245  0 13                     
E 1  25336033.311 1                      1562.350          23.000    25333940.759 1                      1149.900          18.500  
E13  25334441.113 1                     -1624.400          28.250    25332288.603 1  99409340.70911     -1230.984          23.500  
E26  22993190.327 1                      1124.200          26.000    22991063.300 1  90221870.406 1       838.351          28.000  
G 1  21461684.667 1                      3281.700          22.500                                                                  
G 7  21008265.362 1 110399179.51111      2380.821          26.000                                                                  
G 8  21095509.165 1 110857648.34511     -1752.179          26.750                                                                  
G 9  23030834.966 1 121027982.626 1     -1782.262          34.750                                                                  
G16  24310688.542 1                     -1489.900          17.000                                                                  
J 2  38495946.393 1 202297563.61911      1301.025          25.750    38493631.095 1 151057275.81711       971.678          24.000  
J 3  38647455.505 1 203093748.70911      -639.830          27.500    38645096.138 1                      -475.600          23.750  
R 9  21010645.415 1 112195648.71711      2888.555          29.250  
R15  23346273.293 1                     -2196.450          17.500  
R20  20818493.439 1                      3474.050          23.750  
> 2021  5 17  2 35 20.4446246  0 14                     
E 1  25335791.797 1                      1546.250          26.000    25333676.761 1                      1143.400          24.000  
E13  25334779.997 1                     -1618.600          23.500                                                                  
E26  22993004.574 1                      1121.000          25.750    22990877.847 1  90221150.785 1       837.656          28.000  
G 1  21461077.405 1 112778722.49111      3278.659          27.000                                                                  
G 7  21007822.088 1 110396959.39011      2377.748          27.500                                                                  
G 8  21095845.051 1                     -1758.500          25.500                                                                  
G 9  23031202.930 1 121029922.905 1     -1782.222          34.750                                                                  
G16  24310995.648 1                     -1488.000          22.750                                                                  
J 2  38495761.539 1 202296421.40811      1300.409          27.750    38493414.464 1                       972.600          23.750  
J 3  38647593.828 1 203094547.295 1      -640.624          28.000    38645246.753 1                      -474.450          23.500  
R 9  21010160.169 1                      2849.200          22.250  
R15  23346598.087 1                     -2250.700          24.750  
R16  20170588.992 1                       226.350          19.750  
R20  20817958.128 1                      3478.150          22.000  
> 2021  5 17  2 35 21.4446248  0 12                     
E13                                                                  25332988.786 1                     -1245.850          20.250  
E26  22992866.719 1                      1123.450          24.500    22990722.903 1  90220548.901 1       837.523          25.750  
G 1  21460498.855 1                      3274.450          25.500                                                                  
G 7  21007424.612 1 110394895.13911      2379.032          27.500                                                                  
G 8  21096258.214 1 110861584.25811     -1758.468          28.250                                                                  
G 9  23031598.405 1 121032020.590 1     -1782.538          32.500                                                                  
G21  20556213.279 1                       968.200          19.000                                                                  
J 2  38495575.717 1                      1298.650          24.500    38493228.342 1 151055695.16811       971.733          23.500  
J 3  38647779.448 1 203095502.23711      -639.560          27.500    38645428.776 1 151652963.11311      -477.585          23.500  
R 9  21009714.427 1                      2890.850          23.500  
R15  23347100.888 1                     -2251.900          22.250  
R16  20170621.419 1                       220.900          22.250  
> 2021  5 17  2 35 22.4446249  0 12                     
E 1  25335335.370 1                      1540.350          21.250    25333211.340 1                      1154.450          22.000  
E13  25335475.073 1                     -1593.700          20.250                                                                  
E26  22992673.461 1                      1123.700          28.500    22990539.838 1  90219827.579 1       838.521          27.000  
G 1  21459888.886 1                      3280.500          22.750                                                                  
G 8  21096627.367 1 110863497.33811     -1756.001          27.000                                                                  
G 9  23031973.554 1 121033959.12911     -1781.990          30.000                                                                  
G21  20556067.688 1 108022864.17411       968.900          33.750                                                                  
G27  23267100.779 1                     -2825.350          17.500                                                                  
J 2  38495339.889 1 202294376.03611      1302.917          26.750    38493008.103 1                       976.600          23.250  
J 3  38647931.551 1 203096297.34311      -638.149          27.000    38645584.476 1                      -476.400          21.250  
R 9  21009186.601 1 112187883.53811      2893.832          27.000  
R16  20170621.827 1                       215.750          23.000  
> 2021  5 17  2 35 23.4446250  0 11                     
E 1  25335085.108 1                      1533.150          22.250                                                                  
E13  25335819.600 1                     -1659.900          22.500    25333683.279 1                     -1247.800          21.500  
E26  22992502.345 1                      1117.250          28.750    22990355.231 1                       835.400          22.000  
G 1  21459312.750 1                      3273.100          22.500                                                                  
G 8  21096995.277 1 110865412.06911     -1757.485          27.500                                                                  
G 9  23032338.467 1 121035900.183 1     -1785.012          31.500                                                                  
G21  20555913.060 1 108022054.39711       966.698          32.500                                                                  
G30  24041052.548 1                      3565.950          17.250                                                                  
J 2  38495144.788 1                      1305.100          24.500                                                                  
J 3  38648071.919 1 203097093.77811      -639.900          26.500    38645734.138 1 151654161.42211      -477.708          23.500  
R 9  21008672.222 1 112185150.59011      2892.998          26.500  
> 2021  5 17  2 35 24.4446252  0 12                     
E 1                                                                  25332722.562 1                      1153.900          19.750  
E13  25336203.752 1                     -1661.550          22.500    25334064.433 1                     -1245.350          22.000  
E26  22992338.477 1                      1119.350          28.500    22990220.743 1                       838.750          21.250  
G 1  21458771.143 1                      3279.950          22.500                                                                  
G 7  21006161.878 1                      2387.350          19.250                                                                  
G 8  21097404.312 1                     -1757.500          25.500                                                                  
G 9  23032738.508 1 121038002.738 1     -1788.161          31.500                                                                  
G21  20555778.572 1 108021404.95611       964.759          28.500                                                                  
J 2  38494966.231 1                      1306.100          22.750    38492602.967 1                       976.450          19.250  
J 3  38648253.712 1                      -635.100          22.750                                                                  
R 9  21008267.920 1                      2845.450          23.000  
R15  23348663.398 1                     -2193.100          23.250  
> 2021  5 17  2 35 25.4446253  0 13                     
E13                                                                  25334411.847 1                     -1243.100          21.500  
E26  22992161.253 1                      1120.100          26.500                                                                  
G 7  21005772.101 1 110386077.31511      2377.937          26.750                                                                  
G 8  21097753.824 1 110869443.75811     -1755.245          26.750                                                                  
G 9  23033109.905 1 121039951.060 1     -1790.977          34.000                                                                  
G16  24312871.444 1                     -1478.950          17.750                                                                  
G21  20555646.017 1 108020596.60311       967.667          26.500                                                                  
G27  23269025.584 1                     -2818.650          20.000                                                                  
J 2  38494731.447 1                      1308.000          24.500    38492396.963 1 151052433.00111       975.786          23.250  
J 3  38648408.658 1 203098757.35311      -639.202          26.000    38646068.478 1                      -477.050          21.250  
R 9  21007855.059 1                      2894.650          23.250  
R15  23349117.537 1                     -2199.800          25.250  
R16  20170559.007 1                       227.400          19.500  
> 2021  5 17  2 35 26.4446254  0 12                     
E13                                                                  25334756.720 1                     -1234.500          25.750  
E27  27479962.425 1                      -987.150          17.750                                                                  
G 7  21005347.708 1 110383852.080 1      2383.013          34.500                                                                  
G 8  21098097.798 1                     -1745.950          24.500                                                                  
G 9  23033486.557 1 121041899.30411     -1796.113          28.500                                                                  
G16  24313158.758 1                     -1482.350          23.750                                                                  
G27  23269557.228 1                     -2823.450          21.250                                                                  
J 2  38494515.409 1 202290042.84411      1303.140          31.000    38492172.831 1                       977.600          25.250  
J 3  38648563.763 1 203099550.682 1      -637.224          32.000    38646220.885 1 151656071.14611      -475.968          27.500  
R 9  21007234.002 1                      2893.700          22.000  
R15  23349537.059 1 124772846.36411     -2197.443          30.250  
R16  20170507.256 1 107747228.30011       222.066          26.500  
> 2021  5 17  2 35 27.4446256  0 15                     
E 1  25334031.523 1                      1543.450          23.000                                                                  
E13  25337251.894 1                     -1659.600          21.250    25335134.160 1  99420508.06311     -1236.671          26.500  
E26  22991816.005 1                      1113.100          27.000    22989700.970 1                       837.850          18.000  
G 7  21004955.580 1 110381782.826 1      2387.103          38.250                                                                  
G 8  21098491.127 1                     -1746.200          21.750                                                                  
G 9  23033874.189 1 121044013.04111     -1796.869          27.500                                                                  
G16  24313511.315 1 127768363.59011     -1479.827          26.750                                                                  
G21  20555380.215 1                       964.750          21.500                                                                  
G22  24928439.009 1                      1866.700          13.250                                                                  
G27  23270161.311 1                     -2814.250          25.000                                                                  
J 2  38494329.239 1 202289055.29111      1304.499          29.500    38491981.564 1 151050803.15511       974.001          29.500  
J 3  38648745.439 1 203100503.239 1      -635.444          31.000    38646400.462 1 151656782.634 1      -474.677          31.000  
R 9  21006793.908 1                      2893.850          23.000  
R15  23350021.525 1 124775364.67511     -2195.853          29.250  
R16  20170555.823 1                       226.750          25.000  
> 2021  5 17  2 35 28.4446257  0 14                     
E 1  25333771.936 1 133129870.42011      1547.206          30.250    25331638.613 1                      1157.700          22.250  
E13  25337605.382 1                     -1653.600          26.000    25335475.357 1  99421860.799 1     -1234.633          27.750  
E26  22991631.067 1                      1111.000          27.000                                                                  
G 7  21004526.610 1 110379551.628 1      2387.927          38.000                                                                  
G 8  21098887.785 1                     -1734.450          22.500                                                                  
G 9  23034253.759 1 121045967.37411     -1800.957          28.500                                                                  
G16  24313841.419 1                     -1479.350          22.250                                                                  
G21  20555208.467 1 108018349.38511       952.020          27.000                                                                  
G27  23270739.644 1                     -2824.200          23.750                                                                  
J 2  38494112.222 1 202287907.45911      1304.176          27.250    38491762.749 1 151049945.956 1       973.841          32.000  
J 3  38648894.768 1 203101295.226 1      -635.550          31.000    38646551.890 1 151657374.078 1      -474.809          32.750  
R 9  21006254.314 1                      2886.750          24.750  
R15  23350495.530 1                     -2199.150          24.500  
R16  20170582.238 1                       233.000          25.500  
> 2021  5 17  2 35 29.4446258  0 15                     
E 1  25333534.482 1                      1556.000          24.000    25331378.375 1  99405769.49011      1159.156          28.250  
E13  25337944.129 1 133151795.49311     -1649.500          30.500    25335818.901 1  99423211.755 1     -1231.685          28.750  
E26  22991450.573 1                      1109.750          24.000                                                                  
E27  27480678.645 1                      -988.300          21.500                                                                  
G 7  21004106.283 1 110377319.62311      2393.342          29.500                                                                  
G 8  21099219.637 1 110877146.87011     -1738.988          26.500                                                                  
G 9  23034629.081 1 121047929.80111     -1807.835          32.500                                                                  
G21  20555025.575 1                       963.100          21.500                                                                  
G27  23271245.675 1                     -2833.250          26.000                                                                  
J 2  38493898.152 1 202286760.05611      1306.328          27.750    38491544.781 1 151049089.143 1       975.328          32.500  
J 3  38649046.445 1 203102087.53811      -633.157          28.500    38646702.967 1 151657965.780 1      -473.230          30.750  
R 9  21005688.887 1                      2876.850          31.500  
R15  23350923.615 1                     -2208.950          24.500  
R16  20170572.027 1                       219.700          23.750  
R19  19392215.472 1                     -1044.750          16.250  
> 2021  5 17  2 35 30.4446260  0 14                     
E 1  25333352.275 1                      1559.050          22.750    25331143.704 1  99404847.690 1      1158.166          29.250  
E26  22991294.448 1                      1103.350          23.500    22989179.412 1                       832.100          18.500  
G 7  21003714.821 1                      2391.050          27.750                                                                  
G 8  21099618.728 1 110879203.479 1     -1738.608          31.000                                                                  
G 9  23035034.467 1 121050056.95311     -1810.857          30.250                                                                  
G16  24314459.939 1                     -1489.600          20.500                                                                  
G21  20554950.094 1                       947.150          22.250                                                                  
G27  23271889.996 1                     -2827.000          23.500                                                                  
J 2  38493706.651 1 202285769.03111      1309.182          27.000    38491356.278 1 151048349.579 1       977.376          31.000  
J 3  38649202.104 1                      -630.300          22.000    38646885.008 1 151658674.742 1      -471.331          28.250  
R 9  21005199.992 1 112166595.88111      2873.898          34.750  
R15  23351378.467 1                     -2213.400          26.000  
R16  20170589.481 1                       227.900          24.500  
R20  20811940.283 1                      3435.250          17.250  
> 2021  5 17  2 35 31.4446261  0 14                     
E 1  25333309.833 1                      1542.250          27.500    25330878.816 1  99403807.84411      1156.737          25.000  
E26  22991124.894 1                      1110.900          23.750                                                                  
G 7  21003303.334 1                      2385.750          23.500                                                                  
G 8  21099981.605 1 110881097.810 1     -1737.532          31.750                                                                  
G 9  23035478.588 1                     -1841.650          28.000                                                                  
G16  24314750.567 1                     -1491.650          22.500                                                                  
G21  20554809.620 1                       962.400          23.250                                                                  
G27  23272460.030 1                     -2835.300          23.750                                                                  
G30  24035959.170 1                      3544.950          16.000                                                                  
J 2  38493484.633 1 202284615.08111      1311.961          28.000    38491136.959 1 151047487.834 1       979.939          31.250  
J 3  38649380.609 1                      -622.250          21.500    38647034.433 1 151659261.87011      -469.172          28.750  
R 9  21004705.463 1 112163877.96811      2884.294          30.250  
R16  20170550.637 1                       225.850          24.500  
R20  20811228.705 1                      3433.900          25.750  
> 2021  5 17  2 35 32.4446262  0 15                     
E 1                                                                  25330615.296 1  99402769.68111      1153.544          26.250  
E13  25339137.196 1                     -1611.150          21.750                                                                  
E26  22990936.022 1                      1106.150          22.000    22988820.387 1                       826.450          20.500  
G 1  21454119.238 1                      3248.950          17.500                                                                  
G 7  21002862.337 1                      2378.450          25.250                                                                  
G 8  21100338.655 1 110882994.90411     -1737.713          29.500                                                                  
G 9  23035850.928 1                     -1839.300          23.750                                                                  
G21  20554669.614 1                       958.250          23.250                                                                  
G27  23273018.240 1 122300535.78911     -2842.422          27.500                                                                  
J 2  38493261.285 1 202283460.51011      1314.862          26.500    38490916.009 1 151046626.121 1       981.475          31.500  
J 3  38649587.163 1                      -622.100          21.500    38647182.228 1 151659849.346 1      -468.106          27.750  
R 9  21004258.170 1                      2870.600          27.750  
R16  20170529.049 1                       230.250          23.000  
R19  19392936.065 1                     -1050.950          18.250  
R20  20810597.939 1                      3429.450          23.500  
> 2021  5 17  2 35 33.4446264  0 14                     
E 1  25332522.759 1                      1543.700          21.750    25330379.543 1  99401851.520 1      1150.515          28.500  
E26  22990773.719 1                      1110.750          23.250    22988664.679 1                       833.800          23.500  
G 7  21002489.579 1 110368827.63411      2375.407          26.500                                                                  
G 8  21100747.456 1                     -1735.350          23.000                                                                  
G 9  23036276.518 1 121056449.81311     -1840.613          26.500                                                                  
G16  24315443.269 1                     -1509.900          19.750                                                                  
G21  20554519.302 1                       954.550          23.000                                                                  
G27  23273605.718 1                     -2849.800          22.000                                                                  
J 2  38493081.894 1 202282456.98311      1318.175          27.500    38490725.525 1 151045877.179 1       983.463          30.250  
J 3  38649720.156 1                      -620.050          23.750    38647360.789 1                      -469.350          29.750  
R 9  21003725.324 1 112158721.19711      2868.377          30.500  
R15  23352755.424 1                     -2231.000          20.250  
R16  20170519.940 1                       235.350          23.500  
R20  20810022.521 1                      3426.350          24.750  
> 2021  5 17  2 35 34.4446265  0 13                     
E 1  25332265.636 1                      1539.300          27.500    25330117.323 1  99400821.737 1      1148.217          27.250  
E26  22990614.028 1                      1112.650          27.750    22988487.000 1                       830.600          21.750  
G 1  21452978.811 1                      3253.000          21.000                                                                  
G 7  21002049.582 1 110366614.38611      2371.164          27.500                                                                  
G 8  21101095.914 1 110887006.87311     -1739.053          28.250                                                                  
G 9  23036650.757 1 121058448.79411     -1837.954          30.500                                                                  
G16  24315738.663 1 127780068.63411     -1516.679          28.750                                                                  
G21  20554356.014 1                       960.250          24.000                                                                  
G30  24034023.690 1                      3551.400          18.500                                                                  
J 2  38492840.360 1 202281298.42911      1319.309          29.000    38490505.276 1 151045011.680 1       985.620          30.000  
J 3  38649877.945 1 203106479.05511      -621.697          26.000    38647510.184 1 151661130.63911      -464.567          28.750  
R 9  21003184.896 1 112156017.835 1      2865.076          33.500  
R20  20809390.657 1                      3420.150          24.500  
> 2021  5 17  2 35 35.4446266  0 16                     
E 1  25331994.740 1                      1537.050          28.500    25329853.922 1  99399791.051 1      1147.596          27.000  
E13  25340199.161 1                     -1625.800          20.500                                                                  
E26  22990433.669 1 120815406.92811      1111.280          29.250    22988303.044 1                       829.000          22.500  
G 4  23732009.587 1                     -2655.450          23.250                                                                  
G 7  21001643.480 1 110364400.432 1      2370.063          28.750                                                                  
G 8  21101460.878 1 110888903.212 1     -1739.889          30.500                                                                  
G 9  23037019.619 1 121060441.969 1     -1836.691          31.500                                                                  
G16  24316048.165 1 127781743.739 1     -1518.752          30.750                                                                  
G21  20554251.503 1                       959.300          25.000                                                                  
G27  23274732.253 1                     -2854.000          19.750                                                                  
J 2  38492635.418 1 202280134.634 1      1320.512          29.750    38490284.746 1 151044142.490 1       986.089          31.000  
J 3  38650030.656 1 203107256.87911      -621.834          26.000    38647659.597 1                      -463.200          29.250  
R 9  21002705.945 1 112153312.303 1      2864.454          32.500  
R15  23353691.291 1                     -2244.350          22.000  
R16  20170473.687 1                       237.800          20.000  
R20  20808858.342 1                      3421.300          24.250  
> 2021  5 17  2 35 36.4446267  0 15                     
E 1  25331747.659 1                      1537.800          27.500    25329590.653 1  99398761.087 1      1147.191          27.750  
E13  25340381.082 1                     -1630.650          21.500                                                                  
E26  22990257.939 1 120814453.14611      1110.706          28.750    22988120.718 1                       828.050          21.750  
G 1  21451854.953 1                      3247.700          22.500                                                                  
G 4  23732552.159 1                     -2658.600          24.250                                                                  
G 7  21001214.425 1 110362188.181 1      2369.106          27.750                                                                  
G 8  21101813.981 1 110890801.351 1     -1740.817          30.500                                                                  
G 9  23037390.110 1 121062436.906 1     -1837.521          32.000                                                                  
G16  24316376.086 1 127783419.878 1     -1519.150          29.500                                                                  
G21  20554113.547 1                       954.550          24.250                                                                  
J 2  38492408.723 1 202278972.12011      1319.999          29.000    38490063.147 1 151043273.987 1       985.711          33.000  
J 3  38650159.215 1                      -622.400          24.750    38647807.943 1 151662298.76611      -464.666          30.000  
R 9  21002199.843 1 112150608.048 1      2863.844          31.250  
R15  23354194.591 1                     -2245.250          24.500  
R20  20808217.334 1                      3421.300          25.500  
> 2021  5 17  2 35 37.4446269  0 16                     
E 1  25331530.835 1                      1535.050          27.500    25329358.239 1  99397849.572 1      1145.983          26.500  
E26  22990099.574 1 120813658.198 1      1108.696          29.000                                                                  
G 1  21451271.483 1                      3244.600          24.500                                                                  
G 4  23733120.192 1                     -2658.550          25.250                                                                  
G 7  21000838.411 1 110360134.878 1      2366.966          29.000                                                                  
G 8  21102195.543 1 110892857.632 1     -1742.550          30.500                                                                  
G 9  23037797.154 1 121064590.015 1     -1839.473          32.500                                                                  
G16  24316736.363 1 127785254.590 1     -1520.977          29.000                                                                  
G21  20553958.780 1                       955.750          24.750                                                                  
G27  23275957.679 1                     -2860.300          20.000                                                                  
J 2  38492226.375 1 202277967.534 1      1318.581          28.500    38489872.405 1 151042523.828 1       984.499          33.500  
J 3  38650355.505 1 203108988.49911      -624.027          27.500    38647987.144 1 151662999.053 1      -466.031          29.500  
R 9  21001704.212 1 112148064.37011      2861.904          30.000  
R15  23354625.319 1                     -2249.650          22.250  
R16  20170506.838 1                       237.950          20.500  
R20  20807625.170 1                      3417.100          24.250  
> 2021  5 17  2 35 38.4446270  0 14                     
E 1  25331246.566 1                      1533.850          26.250    25329097.354 1  99396821.560 1      1145.090          26.500  
E26  22989917.534 1                      1108.200          28.500    22987792.306 1                       819.650          20.500  
G 1  21450690.419 1                      3244.000          24.750                                                                  
G 4  23733651.358 1                     -2659.500          24.000                                                                  
G 7  21000398.550 1 110357926.076 1      2365.400          29.000                                                                  
G 8  21102554.629 1 110894757.85311     -1744.133          30.250                                                                  
G 9  23038174.827 1 121066587.456 1     -1840.699          32.500                                                                  
G16  24317022.299 1 127786933.434 1     -1521.984          29.000                                                                  
G21  20553802.222 1                       952.500          25.500                                                                  
G30  24031492.467 1                      3555.900          17.500                                                                  
J 2  38491991.572 1 202276807.044 1      1317.228          29.250    38489651.092 1 151041657.194 1       983.749          33.750  
J 3  38650497.241 1 203109769.85011      -624.697          28.000    38648134.276 1 151663582.903 1      -466.623          29.500  
R 9  21001199.895 1 112145363.45311      2861.360          27.750  
R20  20807008.731 1                      3414.050          24.750  
> 2021  5 17  2 35 39.4446271  0 17                     
E 1  25331010.089 1                      1532.550          27.000    25328833.895 1  99395795.559 1      1145.669          26.750  
E13  25341589.465 1                     -1638.200          22.000                                                                  
E26  22989744.613 1 120811923.80811      1106.784          29.000    22987612.789 1                       828.250          23.250  
G 1  21450117.575 1 112721128.43211      3246.711          26.500                                                                  
G 4  23734212.329 1 124724126.68411     -2658.698          26.500                                                                  
G 7  20999989.392 1 110355720.486 1      2365.291          30.250                                                                  
G 8  21102928.828 1 110896661.501 1     -1743.767          32.000                                                                  
G 9  23038554.123 1 121068587.842 1     -1840.632          34.500                                                                  
G16  24317362.622 1 127788615.03811     -1521.475          29.500                                                                  
G21  20553666.175 1 108010244.28011       952.339          27.500                                                                  
G22  24924667.794 1                      1854.100          14.250                                                                  
G27  23277101.680 1                     -2859.950          19.500                                                                  
J 2  38491791.969 1 202275649.226 1      1317.834          31.000    38489431.403 1 151040792.579 1       984.091          32.250  
J 3  38650646.296 1 203110554.46611      -624.749          29.000    38648283.632 1 151664168.827 1      -466.553          29.250  
R 9  21000716.089 1 112142664.45311      2861.084          26.500  
R16  20170495.738 1                       235.900          22.000  
R20  20806406.207 1                      3418.300          26.250  
> 2021  5 17  2 35 40.4446272  0 18                     
E 1  25330716.854 1                      1534.500          27.500    25328573.038 1  99394767.462 1      1145.303          26.500  
E13  25341958.171 1                     -1636.500          24.000                                                                  
E26  22989563.500 1 120810974.39311      1106.159          29.000    22987429.877 1  90207611.52011       830.349          23.500  
G 1  21449542.235 1 112718039.97311      3244.710          25.750                                                                  
G 4  23734763.009 1 124726943.44911     -2659.854          27.500                                                                  
G 7  20999565.447 1 110353512.67311      2364.390          30.000                                                                  
G 8  21103300.233 1 110898562.714 1     -1744.543          32.750                                                                  
G 9  23038926.727 1 121070585.828 1     -1841.277          34.500                                                                  
G16  24317674.368 1 127790294.016 1     -1522.037          29.250                                                                  
G21  20553489.859 1 108009449.34911       951.641          26.500                                                                  
G22  24924395.844 1                      1831.000          21.000                                                                  
G30  24030195.886 1                      3556.650          19.000                                                                  
J 1  37364946.430 1                      -154.500          15.500                                                                  
J 2  38491565.887 1 202274488.660 1      1317.599          31.000    38489209.519 1 151039926.014 1       983.618          32.250  
J 3  38650783.563 1 203111336.305 1      -624.841          27.500    38648431.691 1 151664752.718 1      -466.810          28.750  
R 9  21000180.621 1 112139963.82911      2860.213          26.750  
R16  20170460.625 1                       231.550          23.750  
R20  20805792.793 1                      3418.100          25.000  
> 2021  5 17  2 35 41.4446274  0 14                     
E 1  25330477.202 1                      1531.250          26.500    25328340.281 1  99393856.378 1      1144.968          26.000  
E26  22989415.285 1 120810182.07411      1104.639          28.750    22987279.864 1                       820.850          23.000  
G 4  23735344.789 1 124729916.21811     -2659.409          26.500                                                                  
G 7  20999178.298 1 110351461.756 1      2363.268          28.500                                                                  
G 8  21103701.538 1 110900620.657 1     -1745.323          31.500                                                                  
G 9  23039343.621 1 121072740.550 1     -1842.198          33.500                                                                  
G16  24318008.819 1 127792129.589 1     -1522.973          29.000                                                                  
G21  20553362.629 1                       947.250          24.250                                                                  
G22  24924089.338 1                      1831.900          21.500                                                                  
J 2  38491380.198 1 202273484.715 1      1316.714          30.000    38489017.534 1 151039176.244 1       983.197          32.000  
J 3  38650965.719 1 203112274.79611      -625.806          28.750    38648610.850 1 151665453.502 1      -467.181          29.750  
R 9  20999711.928 1                      2860.850          25.750  
R16  20170538.153 1                       229.200          21.750  
R20  20805186.795 1 111254683.54311      3415.559          26.750  
> 2021  5 17  2 35 42.4446275  0 15                     
E 1  25330220.025 1                      1533.400          27.000    25328077.708 1  99392830.091 1      1143.837          25.250  
E13  25342668.008 1                     -1641.450          22.500                                                                  
E26  22989225.862 1 120809235.96911      1103.236          29.000    22987098.534 1                       821.750          23.000  
G 4  23735855.681 1 124732734.67711     -2661.784          26.500                                                                  
G 7  20998772.424 1 110349257.14111      2361.572          28.500                                                                  
G 8  21104060.135 1 110902525.148 1     -1746.932          30.500                                                                  
G 9  23039711.511 1 121074741.236 1     -1843.559          33.000                                                                  
G16  24318350.328 1 127793810.982 1     -1524.246          27.250                                                                  
G21  20553210.980 1                       945.200          25.250                                                                  
G22  24923775.501 1                      1833.050          22.500                                                                  
J 2  38491166.192 1 202272326.370 1      1315.588          28.750    38488797.831 1 151038311.281 1       982.444          32.250  
J 3  38651114.162 1 203113058.99011      -626.990          28.250    38648759.592 1 151666039.137 1      -468.219          29.750  
R 9  20999243.098 1 112134786.36111      2858.130          27.000  
R16  20170424.277 1                       231.550          22.500  
R20  20804622.631 1                      3416.800          25.750  
> 2021  5 17  2 35 43.4446276  0 16                     
E 1  25329962.821 1                      1529.000          28.000    25327816.007 1  99391804.240 1      1143.655          26.500  
E13  25343010.088 1                     -1640.000          24.500                                                                  
E26  22989044.804 1 120808291.03511      1102.201          28.750    22986919.876 1  90205609.89411       823.429          23.250  
G 1  21447854.348 1                      3244.400          21.250                                                                  
G 4  23736400.421 1 124735554.44411     -2662.208          25.750                                                                  
G 7  20998344.038 1 110347053.66911      2361.085          26.500                                                                  
G 8  21104413.907 1 110904430.199 1     -1747.533          29.500                                                                  
G 9  23040103.657 1 121076743.032 1     -1844.240          33.000                                                                  
G16  24318663.629 1 127795493.20111     -1524.770          26.000                                                                  
G21  20553056.604 1 108007041.19511       947.458          26.000                                                                  
G22  24923459.537 1                      1833.150          21.000                                                                  
J 2  38490928.774 1 202271168.838 1      1315.267          29.250    38488578.700 1 151037446.886 1       982.029          32.250  
J 3  38651261.977 1 203113844.04011      -627.392          28.250    38648909.506 1 151666625.328 1      -468.362          30.250  
R 9  20998708.286 1                      2859.300          25.750  
R16  20170481.255 1                       231.900          23.250  
R20  20804012.271 1 111248402.36611      3411.946          27.500  
> 2021  5 17  2 35 44.4446277  0 16                     
E 1  25329698.026 1 133108461.21711      1530.994          29.000    25327554.810 1  99390779.385 1      1143.397          26.500  
E13  25343341.281 1                     -1647.650          24.500                                                                  
E26  22988867.549 1 120807347.946 1      1101.604          29.750    22986739.023 1  90204905.669 1       822.618          23.250  
G 4  23736905.193 1                     -2661.850          25.500                                                                  
G 7  20997903.865 1 110344852.09211      2359.910          27.000                                                                  
G 8  21104755.293 1 110906336.681 1     -1747.843          28.000                                                                  
G 9  23040492.410 1 121078746.301 1     -1844.762          34.000                                                                  
G16  24318990.025 1 127797176.77911     -1524.983          27.500                                                                  
G21  20552886.844 1 108006252.805 1       946.313          28.000                                                                  
G22  24923150.973 1                      1827.050          21.250                                                                  
J 1  37365195.125 1                      -161.500          16.750                                                                  
J 2  38490713.744 1 202270012.600 1      1315.176          29.250    38488357.675 1 151036583.430 1       981.958          31.750  
J 3  38651414.194 1 203114630.343 1      -627.581          28.750    38649059.024 1 151667212.532 1      -468.913          30.500  
R 9  20998126.011 1                      2857.250          25.500  
R19  19395757.507 1                     -1059.250          14.250  
R20  20803404.214 1                      3414.900          25.500  
> 2021  5 17  2 35 45.4446279  0 15                     
E 1  25329486.477 1                      1531.150          28.250    25327324.673 1  99389870.810 1      1143.269          27.750  
E13  25343710.430 1                     -1638.100          24.500                                                                  
E26  22988720.755 1                      1100.200          28.500    22986587.732 1  90204318.059 1       822.175          24.000  
G 4  23737482.099 1                     -2663.050          25.500                                                                  
G 7  20997522.033 1 110342806.54911      2359.261          27.250                                                                  
G 8  21105140.331 1 110908399.196 1     -1748.486          29.000                                                                  
G 9  23040903.830 1 121080905.499 1     -1845.283          33.750                                                                  
G16  24319339.087 1 127799016.092 1     -1525.438          26.500                                                                  
G21  20552781.121 1                       945.500          25.500                                                                  
G22  24922837.194 1                      1837.700          21.500                                                                  
G30  24027109.194 1                      3553.500          17.000                                                                  
J 2  38490526.778 1 202269011.976 1      1314.834          29.750    38488168.311 1 151035836.189 1       981.830          31.750  
J 3  38651595.972 1 203115572.298 1      -627.915          28.750    38649238.404 1 151667915.950 1      -469.056          29.750  
R 9  20997610.472 1                      2848.200          25.250  
R20  20802778.951 1                      3412.500          24.000  
> 2021  5 17  2 35 46.4446280  0 15                     
E 1  25329211.471 1 133105904.37211      1531.468          29.250    25327063.758 1  99388846.323 1      1143.617          28.000  
E26  22988535.687 1                      1100.950          28.000    22986409.859 1  90203614.745 1       822.132          23.500  
G 4  23737992.549 1                     -2662.050          25.000                                                                  
G 7  20997106.725 1 110340606.23011      2359.496          27.750                                                                  
G 8  21105535.361 1 110910306.622 1     -1748.241          29.500                                                                  
G 9  23041287.468 1 121082909.638 1     -1844.938          34.000                                                                  
G16  24319665.465 1 127800699.63911     -1524.218          26.000                                                                  
G21  20552616.739 1                       945.150          24.000                                                                  
G22  24922558.591 1                      1829.200          22.500                                                                  
J 1  37365317.748 1                      -162.500          19.250                                                                  
J 2  38490306.335 1 202267856.019 1      1315.358          30.250    38487947.268 1 151034973.052 1       982.177          32.500  
J 3  38651750.269 1 203116359.056 1      -627.673          28.750    38649387.605 1 151668503.519 1      -468.747          29.250  
R 9  20997144.499 1                      2859.600          25.500  
R16  20170433.519 1                       223.500          19.250  
R20  20802179.870 1                      3408.150          23.000  
> 2021  5 17  2 35 47.4446281  0 16                     
E 1  25328960.965 1 133104527.488 1      1534.781          29.000    25326801.260 1  99387817.970 1      1146.333          27.500  
E13  25344403.275 1                     -1643.050          23.500                                                                  
E26  22988352.335 1                      1102.250          28.500    22986231.303 1  90202908.157 1       824.529          24.500  
E27  27484907.035 1                     -1035.200          16.500                                                                  
G 4  23738538.592 1                     -2656.750          25.000                                                                  
G 7  20996681.140 1 110338401.448 1      2362.548          27.500                                                                  
G 8  21105896.132 1 110912209.423 1     -1744.950          29.250                                                                  
G 9  23041666.526 1 121084909.170 1     -1841.856          35.000                                                                  
G16  24320011.846 1 127802378.90911     -1521.419          25.750                                                                  
G21  20552487.949 1                       948.250          24.250                                                                  
G22  24922220.246 1                      1832.300          20.500                                                                  
J 2  38490087.607 1 202266695.228 1      1318.725          30.500    38487726.142 1 151034106.206 1       984.674          32.250  
J 3  38651899.986 1 203117140.912 1      -624.200          28.500    38649536.722 1 151669087.324 1      -465.978          29.500  
R 9  20996600.496 1                      2858.550          23.000  
R15  23359364.988 1                     -2247.250          14.500  
R20  20801622.976 1                      3414.800          22.750  
> 2021  5 17  2 35 48.4446283  0 16                     
E 1  25328722.761 1 133103311.61711      1530.872          29.250    25326569.351 1  99386910.016 1      1143.176          27.750  
E26  22988211.263 1                      1103.350          28.000    22986083.936 1  90202322.291 1       821.054          24.250  
G 4  23739135.909 1 124750000.34611     -2661.700          27.000                                                                  
G 7  20996287.043 1 110336357.74411      2358.763          26.500                                                                  
G 8  21106289.590 1 110914273.528 1     -1748.957          29.500                                                                  
G 9  23042075.274 1 121087070.025 1     -1845.823          34.500                                                                  
G16  24320362.734 1                     -1524.950          24.500                                                                  
G21  20552353.472 1                       941.800          24.250                                                                  
G22  24921940.670 1                      1831.200          23.000                                                                  
G27  23282310.662 1                     -2863.750          19.750                                                                  
J 1  37365464.897 1                      -154.950          18.750                                                                  
J 2  38489897.369 1 202265695.444 1      1315.018          30.000    38487536.204 1 151033359.606 1       981.910          32.000  
J 3  38652061.705 1 203118083.861 1      -627.876          28.500    38649717.328 1 151669791.484 1      -468.740          29.250  
R 9  20996139.845 1                      2854.900          24.000  
R16  20170431.971 1                       226.950          20.500  
R20  20801073.587 1                      3403.500          23.000  
> 2021  5 17  2 35 49.4446284  0 14                     
E 1  25328463.652 1 133101938.001 1      1528.337          29.500    25326307.545 1  99385884.365 1      1141.084          28.000  
E26  22988036.996 1                      1096.850          28.250    22985901.874 1  90201618.922 1       818.563          24.000  
G 1  21444232.949 1                      3238.500          16.000                                                                  
G 4  23739679.944 1 124752819.19211     -2665.212          27.250                                                                  
G 7  20995853.456 1                      2353.000          25.250                                                                  
G 8  21106641.459 1 110916180.227 1     -1752.318          28.500                                                                  
G 9  23042463.717 1 121089073.451 1     -1849.133          35.500                                                                  
G16  24320668.734 1                     -1526.050          25.500                                                                  
G21  20552193.295 1                       939.450          25.250                                                                  
G22  24921626.699 1                      1830.050          22.750                                                                  
G27  23282904.763 1                     -2864.600          24.000                                                                  
J 2  38489680.531 1 202264537.980 1      1311.926          29.750    38487316.668 1 151032495.244 1       979.701          33.000  
J 3  38652224.105 1 203118869.17211      -630.919          28.750    38649865.637 1 151670377.924 1      -471.164          29.500  
R 9  20995631.909 1                      2848.800          24.500  
> 2021  5 17  2 35 50.4446285  0 17                     
E 1  25328188.097 1 133100567.485 1      1528.841          28.750    25326048.778 1  99384860.951 1      1141.419          27.000  
E13  25345460.939 1                     -1647.200          24.000                                                                  
E26  22987860.971 1                      1095.750          27.000    22985725.550 1  90200918.329 1       818.631          24.000  
G 4  23740237.212 1 124755642.18811     -2664.847          27.500                                                                  
G 7  20995446.291 1                      2353.050          25.500                                                                  
G 8  21106978.979 1 110918090.327 1     -1752.300          27.750                                                                  
G 9  23042834.214 1 121091080.257 1     -1848.815          35.000                                                                  
G16  24321000.258 1                     -1526.200          23.750                                                                  
G21  20552057.143 1                       937.400          25.000                                                                  
G22  24921283.091 1                      1823.500          22.500                                                                  
G27  23283463.530 1                     -2866.450          25.000                                                                  
J 1  37365606.565 1                      -163.500          20.250                                                                  
J 2  38489445.148 1 202263383.16711      1312.347          29.750    38487096.574 1 151031633.241 1       980.152          32.500  
J 3  38652375.753 1 203119657.70111      -630.491          28.250    38650016.387 1 151670966.669 1      -470.805          30.000  
R 9  20995223.545 1                      2855.450          25.500  
R16  20170464.514 1                       220.500          21.750  
R20  20799761.561 1                      3400.250          20.000  
> 2021  5 17  2 35 51.4446286  0 16                     
E 1  25327935.343 1                      1529.250          28.500    25325787.630 1  99383837.698 1      1142.284          27.250  
E13  25345788.883 1                     -1638.600          24.500                                                                  
E26  22987677.170 1                      1094.300          26.500    22985543.847 1                       818.000          22.750  
G 1  21443036.703 1                      3231.750          20.500                                                                  
G 4  23740768.416 1 124758465.21811     -2663.844          27.500                                                                  
G 7  20995020.258 1 110329575.30511      2354.045          25.750                                                                  
G 8  21107349.494 1 110920000.20711     -1751.304          28.750                                                                  
G 9  23043216.421 1 121093087.469 1     -1848.145          34.750                                                                  
G16  24321315.012 1                     -1528.200          21.000                                                                  
G21  20551910.816 1 108001019.32711       939.771          26.750                                                                  
G22  24920965.583 1                      1830.000          25.000                                                                  
G27  23284045.099 1                     -2859.750          25.000                                                                  
J 2  38489229.569 1 202262228.960 1      1313.173          30.750    38486876.798 1 151030771.342 1       980.759          32.500  
J 3  38652528.919 1 203120446.247 1      -629.471          27.500    38650166.255 1 151671555.572 1      -470.080          30.750  
R 9  20994693.784 1 112110492.84911      2854.552          27.250  
R16  20170405.427 1                       221.900          24.000  
> 2021  5 17  2 35 52.4446288  0 21                     
E 1  25327689.866 1                      1529.050          27.000    25325555.943 1  99382930.209 1      1141.509          27.500  
E13  25346165.776 1                     -1647.200          24.250                                                                  
E26  22987523.430 1                      1096.100          26.750    22985397.002 1  90199634.26511       817.789          23.500  
E27  27485970.719 1                     -1043.050          17.750                                                                  
G 4  23741327.882 1 124761442.92111     -2664.110          27.250                                                                  
G 7  20994647.669 1 110327535.604 1      2354.208          25.750                                                                  
G 8  21107754.267 1 110922066.101 1     -1752.576          29.500                                                                  
G 9  23043642.179 1 121095250.067 1     -1849.253          34.250                                                                  
G16  24321650.233 1                     -1527.000          22.250                                                                  
G21  20551808.940 1 108000393.42811       939.250          25.750                                                                  
G22  24920698.820 1                      1824.450          24.500                                                                  
G27  23284622.552 1                     -2866.600          25.000                                                                  
G30  24022633.038 1                      3550.250          15.500                                                                  
J 1  37365731.303 1                      -159.850          19.250                                                                  
J 2  38489045.549 1 202261229.880 1      1312.479          31.000    38486686.782 1 151030025.272 1       979.919          32.000  
J 3  38652709.447 1 203121390.03311      -630.447          27.250    38650345.883 1 151672260.363 1      -470.858          29.500  
R 9  20994193.783 1 112107958.29211      2853.047          27.500  
R15  23361557.691 1                     -2266.050          19.000  
R16  20170475.931 1                       222.100          23.250  
R18  22287710.400 1                     -3741.400          14.500  
R20  20798573.808 1                      3404.650          20.500  
> 2021  5 17  2 35 53.4446289  0 17                     
E 1  25327431.913 1                      1526.800          25.750    25325294.393 1  99381906.033 1      1141.207          27.750  
E13  25346504.409 1                     -1643.800          23.500                                                                  
E26  22987342.523 1                      1092.600          26.000    22985216.995 1                       813.900          23.000  
G 1  21441965.765 1                      3232.900          21.000                                                                  
G 4  23741849.389 1 124764264.85411     -2665.370          26.500                                                                  
G 7  20994219.434 1 110325339.216 1      2352.974          26.000                                                                  
G 8  21108127.976 1 110923975.978 1     -1753.469          29.250                                                                  
G 9  23044018.587 1 121097256.659 1     -1850.069          33.500                                                                  
G21  20551668.505 1 107999610.64011       937.595          25.750                                                                  
G22  24920387.804 1                      1824.650          24.750                                                                  
G27  23285197.123 1                     -2864.100          25.000                                                                  
J 2  38488810.380 1 202260074.440 1      1312.167          29.250    38486466.603 1 151029162.467 1       979.922          31.500  
J 3  38652840.924 1 203122177.573 1      -630.973          29.000    38650496.547 1 151672848.437 1      -470.926          29.750  
R 9  20993712.784 1 112105264.49611      2853.375          27.500  
R15  23362029.133 1                     -2261.400          24.000  
R16  20170484.793 1                       220.900          21.000  
R20  20797990.280 1                      3404.850          23.750  
> 2021  5 17  2 35 54.4446290  0 18                     
E 1  25327161.063 1                      1528.900          23.500    25325036.734 1  99380883.374 1      1140.709          27.250  
E26  22987160.712 1                      1092.250          25.500    22985042.078 1                       819.600          23.000  
G 1  21441389.427 1                      3237.200          25.000                                                                  
G 4  23742386.480 1 124767089.18511     -2665.671          25.750                                                                  
G 7  20993816.975 1 110323145.81411      2351.691          25.750                                                                  
G 8  21108494.785 1 110925888.597 1     -1754.376          29.500                                                                  
G 9  23044403.084 1 121099265.485 1     -1850.996          33.000                                                                  
G16  24322340.986 1                     -1533.400          19.750                                                                  
G21  20551496.287 1 107998833.33511       935.880          26.000                                                                  
G22  24920059.094 1                      1832.000          25.500                                                                  
G27  23285751.302 1                     -2867.250          25.000                                                                  
G30  24021296.294 1                      3543.100          20.500                                                                  
J 1  37365889.025 1                      -170.150          19.500                                                                  
J 2  38488594.392 1 202258921.55211      1311.497          30.000    38486247.317 1 151028301.150 1       979.323          31.500  
J 3  38652993.082 1 203122967.157 1      -631.851          28.500    38650647.206 1 151673438.066 1      -471.758          29.500  
R 9  20993202.700 1 112102572.47111      2851.591          27.000  
R15  23362555.131 1                     -2259.950          24.750  
R16  20170414.804 1                       218.800          22.000  
