     3.03           OBSERVATION DATA    M: Mixed            RINEX VERSION / TYPE
RTKCONV demo5 b33c                      20210520 080405 UTC PGM / RUN BY / DATE 
log: C:\Users\Ivan_PolyU_Dktp\Dropbox\HUAWEI Exp\20210517_  COMMENT             
format: RINEX                                               COMMENT             
                                                            MARKER NAME         
                                                            MARKER NUMBER       
                                                            MARKER TYPE         
                                                            OBSERVER / AGENCY   
                                                            REC # / TYPE / VERS 
                                                            ANT # / TYPE        
 -2419258.6916  5385453.5205  2405358.8546                  APPROX POSITION XYZ 
        0.0000        0.0000        0.0000                  ANTENNA: DELTA H/E/N
G   12 C1C L1C D1C S1C C2L L2L D2L S2L C2S L2S D2S S2S      SYS / # / OBS TYPES 
R    8 C1C L1C D1C S1C C2C L2C D2C S2C                      SYS / # / OBS TYPES 
E    8 C1C L1C D1C S1C C7Q L7Q D7Q S7Q                      SYS / # / OBS TYPES 
J    8 C1C L1C D1C S1C C2L L2L D2L S2L                      SYS / # / OBS TYPES 
S    4 C1C L1C D1C S1C                                      SYS / # / OBS TYPES 
C    8 C2I L2I D2I S2I C7I L7I D7I S7I                      SYS / # / OBS TYPES 
  2021     5    17     2    33   13.0060000     GPS         TIME OF FIRST OBS   
  2021     5    17     2    46   18.0060000     GPS         TIME OF LAST OBS    
G                                                           SYS / PHASE SHIFT   
R                                                           SYS / PHASE SHIFT   
E                                                           SYS / PHASE SHIFT   
J                                                           SYS / PHASE SHIFT   
S                                                           SYS / PHASE SHIFT   
C                                                           SYS / PHASE SHIFT   
  0                                                         GLONASS SLOT / FRQ #
 C1C    0.000 C1P    0.000 C2C    0.000 C2P    0.000        GLONASS COD/PHS/BIS 
                                                            END OF HEADER       
> 2021  5 17  2 33 13.0060000  0 26                     
G 9  24787911.239 2                     -2521.411          28.000    24787916.110 9                     -1967.167          24.000                                                                  
G16  26074319.119 8                     -2231.832          25.000                                                                                                                                  
G21  22381276.788 1 117614401.950 3       329.798          35.000                                                                                                                                  
C10  39154822.095 8                      -425.682          25.000    39154823.906 8                      -329.220          23.000  
C30  24337549.860 1 126732003.110 4      1236.901          35.000                                                                  
C 9  38460205.711 9                     -1822.827          19.000                                                                  
C16  39893987.535 9                     -2117.830          17.000                                                                  
R 9  22877760.592 9                      2160.087          19.000                                                                  
R19  21165700.991 2 113222211.584 5     -1666.725          33.000    21165700.962 4                     -1296.517          31.000  
G 8  22854294.297 2 120100129.097 5     -2424.628          33.000    22854296.461 9                     -1890.296          24.000                                                                  
G27  24996591.031 2 131357967.271 4     -3573.646          33.000    24996592.645 4                     -2785.816          27.000                                                                  
G 1  23341274.181 8                      2581.585          26.000                                                                                                                                  
S28  39117680.087 1 205564794.688 2      -510.000          41.000  
E26  24821540.520 2 130438106.099 5       457.934          32.000    24821543.653 1                       350.365          28.000  
C 7  38627662.133 8                      -319.061          24.000    38627644.649 1 155537510.454 5      -246.479          29.000  
C27  23425651.738 1 121983507.817 1     -1601.225          45.000                                                                  
E27  29254054.114 9                     -1735.221          13.000                                                                  
E21  26456300.628 2                      -480.629          29.000    26456302.174 8                      -368.505          25.000  
E13  27096119.575 1 142391057.051 3     -2299.538          36.000    27096122.020 1                     -1762.270          30.000  
E 1  27173507.554 9                       812.047          23.000                                                                  
J 3  40432786.310 4                     -1341.521          30.000    40432785.268 8                     -1043.885          26.000  
E18  21627366.178 8                      2082.949          25.000    21627360.573 2                      1595.792          26.000  
J 2  40327966.110 8                       596.132          27.000                                                                  
C 8                                                                  40345549.883 4                       955.264          26.000  
R20                                                                  22700259.004 9                      2162.588          21.000  
J 7                                                                  38312286.459 9                      -396.049          23.000  
> 2021  5 17  2 33 14.0060000  0 26                     
G 9  24788390.885 2                     -2521.963          28.000    24788395.434 9                     -1966.371          24.000                                                                  
G16  26074745.921 9                     -2232.135          25.000                                                                                                                                  
G21  22381214.167 1 117614072.596 3       328.941          35.000                                                                                                                                  
C10  39154904.700 8                      -426.374          25.000    39154906.532 8                      -329.108          24.000  
C30  24337312.508 1 126730766.987 4      1235.894          35.000                                                                  
C 9  38460554.822 9                     -1821.579          19.000                                                                  
C16  39894390.975 9                     -2122.559          17.000                                                                  
R 9  22877359.364 9                      2160.738          20.000                                                                  
R19  21166012.554 2 113223879.060 4     -1668.047          34.000    21166012.637 4                     -1297.742          30.000  
G 8  22854755.605 2 120102553.630 5     -2424.889          33.000    22854757.226 8                     -1891.243          24.000                                                                  
G27  24997271.018 2 131361541.752 4     -3574.802          33.000    24997272.712 4                     -2785.529          27.000                                                                  
G 1  23340784.295 8                      2581.986          26.000                                                                                                                                  
S28  39117777.221 1 205565304.872 2      -510.203          41.000  
E26  24821453.489 2 130437648.632 5       457.992          32.000    24821456.579 1                       349.880          28.000  
C 7  38627722.202 8                      -318.081          25.000    38627705.825 1                      -246.739          28.000  
C27  23425959.343 1 121985109.384 1     -1601.493          44.000                                                                  
E27  29254383.489 9                     -1732.673          13.000                                                                  
E21  26456391.728 2                      -480.542          29.000    26456392.751 8                      -368.503          25.000  
E13  27096557.363 1 142393357.309 3     -2300.317          36.000    27096559.612 2                     -1762.408          30.000  
E 1  27173353.315 8                       814.052          23.000                                                                  
J 3  40433041.294 4                     -1340.108          30.000    40433041.013 8                     -1044.383          26.000  
E18  21626969.013 8                      2082.039          25.000    21626964.158 1                      1595.009          26.000  
J 2  40327853.841 8                       595.978          27.000                                                                  
C 8                                                                  40345312.203 4                       955.157          26.000  
R20                                                                  22699739.391 9                      2162.521          21.000  
J 7                                                                  38312383.556 9                      -398.986          23.000  
> 2021  5 17  2 33 15.0060000  0 27                     
G 7  22865923.513 9                      1718.742          20.000                                                                                                                                  
G 9  24788870.628 2                     -2522.345          28.000    24788875.452 8                     -1965.470          24.000                                                                  
G16  26075169.814 9                     -2229.815          25.000                                                                                                                                  
G21  22381151.572 1 117613743.635 4       328.649          35.000                                                                                                                                  
C10  39154987.455 8                      -427.233          25.000    39154988.596 8                      -331.857          23.000  
C30  24337075.152 1 126729531.002 3      1236.026          35.000                                                                  
C 9  38460904.397 9                     -1824.369          19.000                                                                  
C16  39894797.518 9                     -2116.346          18.000                                                                  
R 9  22876958.095 9                      2143.232          19.000                                                                  
R19  21166324.292 2 113225547.114 5     -1668.887          33.000    21166324.545 4                     -1297.776          31.000  
G 8  22855216.986 2 120104978.131 5     -2424.495          33.000    22855217.573 9                     -1890.150          23.000                                                                  
G27  24997951.069 2 131365115.940 5     -3574.586          33.000    24997952.454 8                     -2785.087          27.000                                                                  
G 1  23340294.273 8                      2581.789          26.000                                                                                                                                  
S28  39117874.239 1 205565814.689 2      -509.458          41.000  
E26  24821366.587 4                       456.977          32.000    24821369.648 1                       350.701          27.000  
C 7  38627784.532 8                      -319.031          25.000    38627766.919 1                      -246.456          29.000  
C27  23426267.017 1 121986711.155 1     -1601.992          44.000                                                                  
E27  29254713.032 9                     -1732.673          12.000                                                                  
E21  26456482.575 2                      -480.731          29.000    26456483.954 8                      -369.099          24.000  
E13  27096995.108 1 142395657.659 3     -2300.262          36.000    27096997.365 1                     -1763.455          30.000  
E 1  27173196.838 8                       813.804          23.000                                                                  
J 3  40433296.498 2                     -1340.393          30.000    40433297.035 8                     -1044.292          26.000  
E18  21626571.345 8                      2080.439          25.000    21626568.147 2                      1595.182          26.000  
J 2  40327741.449 8                       596.191          27.000                                                                  
C 8                                                                  40345074.321 4                       954.984          26.000  
R20                                                                  22699219.218 9                      2159.735          21.000  
J 7                                                                  38312481.489 9                      -398.581          23.000  
> 2021  5 17  2 33 16.0060000  0 27                     
G 7  22865588.116 9                      1718.742          21.000                                                                                                                                  
G 9  24789350.529 2                     -2522.557          27.000    24789355.131 8                     -1964.277          25.000                                                                  
G16  26075597.933 8                     -2231.535          26.000                                                                                                                                  
G21  22381089.089 1 117613415.238 3       327.948          35.000                                                                                                                                  
C10  39155068.799 8                      -426.502          25.000    39155070.371 8                      -331.174          23.000  
C30  24336837.727 1 126728295.347 3      1236.250          35.000                                                                  
C 9  38461251.714 9                     -1830.460          19.000                                                                  
C16  39895203.453 9                     -2113.382          18.000                                                                  
R 9  22876557.035 9                      2152.818          19.000                                                                  
R19  21166636.233 2 113227215.863 4     -1669.020          33.000    21166636.603 4                     -1299.120          31.000  
G 8  22855678.138 2 120107402.843 5     -2424.244          33.000    22855678.416 9                     -1883.785          24.000                                                                  
G27  24998631.349 2 131368690.052 4     -3574.335          33.000    24998632.598 8                     -2784.995          27.000                                                                  
G 1  23339804.421 8                      2581.684          26.000                                                                                                                                  
S28  39117971.107 1 205566324.420 2      -509.818          41.000  
E26  24821279.291 4 130436734.494 5       456.713          31.000    24821282.656 1                       349.775          27.000  
C 7  38627845.053 8                      -319.333          25.000    38627827.975 2                      -246.316          29.000  
C27  23426574.605 1 121988313.255 1     -1602.090          44.000                                                                  
E27  29255043.232 9                     -1732.673          10.000                                                                  
E21  26456573.601 2                      -480.765          29.000    26456574.719 8                      -367.704          23.000  
E13  27097432.851 1 142397958.305 3     -2300.663          36.000    27097435.183 2                     -1762.681          30.000  
E 1  27173040.038 9                       812.935          22.000                                                                  
J 3  40433551.983 2                     -1339.269          30.000    40433552.345 8                     -1044.173          26.000  
E18  21626174.527 8                      2081.289          26.000    21626172.150 1                      1594.414          26.000  
J 2  40327629.831 8                       596.771          28.000                                                                  
C 8                                                                  40344837.100 4                       955.904          26.000  
R20                                                                  22698700.572 9                      2157.112          20.000  
J 7                                                                  38312579.287 9                      -403.580          23.000  
> 2021  5 17  2 33 17.0060000  0 27                     
G 7  22865258.997 9                      1718.742          21.000                                                                                                                                  
G 9  24789830.424 2                     -2522.052          28.000    24789833.971 8                     -1965.292          24.000                                                                  
G16  26076023.114 8                     -2232.207          26.000                                                                                                                                  
G21  22381026.673 1 117613087.366 4       327.179          35.000                                                                                                                                  
C10  39155151.085 8                      -423.836          25.000    39155151.611 8                      -330.098          23.000  
C30  24336600.447 1 126727060.025 3      1235.453          36.000                                                                  
C 9  38461604.090 9                     -1830.493          19.000                                                                  
C16  39895608.536 9                     -2116.363          17.000                                                                  
R 9  22876155.052 9                      2152.463          19.000                                                                  
R19  21166948.327 2 113228885.400 4     -1669.788          34.000    21166948.755 4                     -1299.048          30.000  
G 8  22856139.579 2 120109827.758 5     -2425.915          33.000    22856138.887 9                     -1887.718          23.000                                                                  
G27  24999311.554 2 131372264.055 5     -3573.976          33.000    24999312.605 8                     -2785.000          27.000                                                                  
G 1  23339313.666 8                      2581.540          26.000                                                                                                                                  
S28  39118068.171 1 205566834.118 2      -509.979          41.000  
E26  24821192.036 2 130436277.965 5       456.318          31.000    24821195.617 1                       349.847          27.000  
C 7  38627905.318 8                      -319.026          24.000    38627889.003 2                      -246.108          29.000  
C27  23426882.140 1 121989915.697 1     -1602.670          44.000                                                                  
E27  29255373.453 9                     -1732.673           8.000                                                                  
E21  26456664.651 2                      -481.218          29.000    26456667.100 8                      -368.441          23.000  
E13  27097870.807 1 142400259.202 3     -2301.022          36.000    27097873.125 1                     -1762.633          30.000  
E 1  27172885.173 9                       812.876          22.000                                                                  
J 3  40433806.927 4                     -1340.447          30.000    40433807.018 8                     -1043.746          25.000  
E18  21625781.361 8                      2079.820          26.000    21625776.397 1                      1593.416          26.000  
J 2  40327517.236 8                       596.100          28.000                                                                  
C 8                                                                  40344599.964 4                       954.912          26.000  
R20                                                                  22698182.217 9                      2154.625          20.000  
J 7                                                                  38312675.978 9                      -394.835          23.000  
> 2021  5 17  2 33 18.0060000  0 25                     
G 7  22864927.631 9                      1718.742          21.000                                                                                                                                  
G 9  24790310.442 2                     -2522.659          28.000    24790313.304 8                     -1965.272          24.000                                                                  
G16  26076449.070 8                     -2232.020          26.000                                                                                                                                  
G21  22380964.533 1 117612760.183 4       326.746          35.000                                                                                                                                  
C10  39155231.378 8                      -426.996          25.000    39155233.979 8                      -328.750          23.000  
C30  24336363.298 1 126725825.176 3      1235.082          35.000                                                                  
C 9  38461952.580 9                     -1831.417          19.000                                                                  
C16  39896013.312 9                     -2105.948          17.000                                                                  
R 9  22875753.061 9                      2145.380          19.000                                                                  
R19  21167260.490 2 113230555.808 4     -1670.648          33.000    21167261.019 4                     -1299.474          31.000  
G 8  22856601.113 2 120112252.888 4     -2425.401          33.000    22856599.404 8                     -1890.222          23.000                                                                  
G27  24999992.005 2 131375838.108 4     -3573.644          33.000    24999992.764 4                     -2785.195          27.000                                                                  
G 1  23338822.308 8                      2580.884          25.000    23338792.265 9                      2009.849          25.000                                                                  
S28  39118165.181 1 205567343.862 2      -509.707          41.000  
E26  24821105.420 4                       456.510          31.000    24821108.859 1                       349.437          27.000  
C 7  38627967.408 8                      -316.056          24.000    38627950.199 2                      -246.190          29.000  
C27  23427190.068 1 121991518.609 1     -1602.969          44.000                                                                  
E21  26456755.316 2 139031193.203 5      -481.030          29.000    26456758.998 8                      -368.874          23.000  
E13  27098308.683 1 142402560.508 3     -2301.269          36.000    27098310.987 2                     -1763.117          30.000  
J 3  40434061.969 2                     -1340.651          30.000    40434062.859 8                     -1044.587          26.000  
E18  21625385.881 8                      2079.399          27.000    21625380.531 2                      1593.101          26.000  
J 2  40327405.760 8                       596.542          28.000                                                                  
C 8                                                                  40344363.164 4                       955.178          26.000  
R20                                                                  22697661.973 9                      2156.018          19.000  
J 7                                                                  38312773.279 9                      -400.073          23.000  
> 2021  5 17  2 33 19.0060000  0 25                     
G 7  22864590.296 9                      1718.742          21.000                                                                                                                                  
G 9  24790790.361 2                     -2523.070          29.000    24790792.876 9                     -1968.635          24.000                                                                  
G16  26076874.664 8                     -2231.358          26.000                                                                                                                                  
G21  22380902.243 1 117612433.531 4       326.175          35.000                                                                                                                                  
C10  39155311.982 8                      -427.004          25.000    39155314.653 8                      -329.673          24.000  
C30  24336126.208 1 126724590.660 3      1234.550          36.000                                                                  
C 9  38462302.523 9                     -1816.853          19.000                                                                  
C16  39896418.215 9                     -2110.230          15.000                                                                  
R 9  22875351.762 9                      2148.914          19.000                                                                  
R19  21167573.017 2 113232227.028 4     -1671.893          33.000    21167573.672 4                     -1300.140          31.000  
G 8  22857062.733 2 120114678.245 4     -2425.465          33.000    22857058.905 8                     -1890.469          23.000                                                                  
G27  25000672.097 2 131379412.119 5     -3573.765          33.000    25000672.320 8                     -2784.830          27.000                                                                  
G 1  23338329.322 8                      2580.029          25.000    23338301.884 8                      2011.109          26.000                                                                  
S28  39118262.164 1 205567853.616 2      -509.832          41.000  
E26  24821019.116 2 130435366.307 5       455.452          31.000    24821022.066 1                       348.578          27.000  
C 7  38628028.297 8                      -317.166          24.000    38628011.185 2                      -246.195          28.000  
C27  23427497.892 1 121993121.917 1     -1603.521          44.000                                                                  
E21  26456846.294 2 139031673.967 5      -480.675          29.000    26456850.823 4                      -368.958          23.000  
E13  27098746.656 1 142404862.145 3     -2301.917          36.000    27098749.093 2                     -1764.299          30.000  
J 3  40434316.925 2                     -1340.209          30.000    40434317.204 8                     -1044.157          26.000  
E18  21624989.057 8                      2078.277          27.000    21624984.910 2                      1592.586          26.000  
J 2  40327293.609 8                       595.929          28.000                                                                  
C 8                                                                  40344126.622 4                       956.188          26.000  
R20                                                                  22697144.933 9                      2144.051          18.000  
J 7                                                                  38312870.842 9                      -400.979          23.000  
> 2021  5 17  2 33 20.0060000  0 26                     
G 7  22864261.606 9                      1718.742          21.000                                                                                                                                  
G 9  24791270.532 2                     -2523.374          29.000    24791272.640 9                     -1965.640          24.000                                                                  
G16  26077300.352 8                     -2230.899          25.000                                                                                                                                  
G21  22380840.269 1 117612107.694 4       325.740          35.000                                                                                                                                  
C10  39155394.868 8                      -425.840          24.000    39155395.917 8                      -328.086          24.000  
C30  24335889.351 1 126723356.728 3      1233.857          36.000                                                                  
C 9  38462653.888 9                     -1834.848          18.000                                                                  
C16  39896822.887 9                     -2116.613          14.000                                                                  
R 9  22874949.949 9                      2156.929          20.000                                                                  
R19  21167885.580 2 113233899.205 4     -1672.827          34.000    21167886.514 4                     -1300.313          31.000  
G 8  22857524.385 2 120117103.961 4     -2425.589          33.000    22857519.120 8                     -1891.783          23.000                                                                  
G27  25001352.528 2 131382986.316 5     -3573.969          32.000    25001352.835 8                     -2785.160          27.000                                                                  
G 1  23337836.093 8                      2580.102          25.000    23337812.283 8                      2010.114          26.000                                                                  
S28  39118359.165 1 205568363.565 2      -509.934          41.000  
E26  24820932.224 2 130434911.283 5       454.209          31.000    24820935.663 1                       348.259          27.000  
S37  38312961.613 9                      -461.359          26.000  
C 7  38628090.193 8                      -318.374          24.000    38628072.366 2                      -246.328          28.000  
C27  23427805.895 1 121994725.788 1     -1604.107          44.000                                                                  
E21  26456937.677 2 139032155.054 5      -480.970          29.000    26456940.965 8                      -369.211          23.000  
E13  27099184.651 1 142407164.273 3     -2302.084          36.000    27099187.164 1                     -1764.302          30.000  
J 3  40434571.942 2                     -1340.865          30.000    40434572.664 8                     -1044.219          26.000  
E18  21624592.686 8                      2077.984          27.000    21624589.436 2                      1590.836          26.000  
J 2  40327181.752 8                       596.278          28.000                                                                  
C 8                                                                  40343889.597 4                       955.064          26.000  
R20                                                                  22696625.410 9                      2153.549          17.000  
J 7                                                                  38312968.334 9                      -402.598          23.000  
> 2021  5 17  2 33 21.0060000  0 27                     
G 7  22863932.981 9                      1718.742          20.000                                                                                                                                  
G 9  24791750.618 2                     -2519.233          32.000    24791752.385 9                     -1966.525          23.000                                                                  
G16  26077720.435 8                     -2233.263          25.000                                                                                                                                  
G21  22380778.268 1 117611782.578 3       324.939          37.000                                                                                                                                  
C10  39155475.683 8                      -426.279          24.000    39155477.748 8                      -330.594          23.000  
C30  24335652.305 1 126722122.463 4      1234.647          34.000                                                                  
C 9  38463004.370 9                     -1823.762          17.000                                                                  
C16  39897227.500 9                     -2112.590          15.000                                                                  
R 9  22874548.053 9                      2154.773          20.000                                                                  
R19  21168198.423 2 113235572.745 4     -1674.259          33.000    21168199.525 4                     -1301.479          31.000  
G 8  22857986.376 2 120119530.801 5     -2427.685          33.000    22857980.820 9                     -1889.983          23.000                                                                  
G27  25002033.043 2 131386561.842 5     -3577.508          29.000    25002033.167 8                     -2787.302          27.000                                                                  
G 1  23337344.118 9                      2579.930          24.000                                                                                                                                  
S28  39118456.106 1 205568873.055 2      -508.982          41.000  
E26  24820845.897 2 130434456.650 4       454.819          32.000    24820849.056 1                       348.725          27.000  
S37  38313060.609 9                      -554.932          27.000  
C 7  38628150.498 9                      -319.418          24.000    38628133.604 2                      -246.976          28.000  
C27  23428114.002 1 121996330.631 1     -1605.032          44.000                                                                  
E21  26457029.610 2                      -482.772          29.000    26457031.594 8                      -369.606          23.000  
E13  27099623.041 1 142409467.983 3     -2305.254          36.000    27099625.430 2                     -1765.352          30.000  
E 1  27172264.228 9                       813.821          29.000                                                                  
J 3  40434827.285 2                     -1341.822          31.000    40434827.431 8                     -1045.414          26.000  
E18  21624196.704 9                      2077.605          24.000    21624194.147 2                      1591.068          25.000  
J 2  40327069.111 8                       594.944          27.000                                                                  
C 8                                                                  40343653.344 4                       955.464          26.000  
R20                                                                  22696106.045 9                      2165.533          17.000  
J 7                                                                  38313064.700 9                      -401.282          23.000  
> 2021  5 17  2 33 22.0060000  0 25                     
G 7  22863606.640 9                      1718.742          20.000                                                                                                                                  
G 9  24792230.053 2                     -2516.538          30.000    24792230.858 9                     -1958.315          22.000                                                                  
G16  26078143.796 9                     -2238.002          23.000                                                                                                                                  
G21  22380716.598 1 117611458.084 4       324.421          33.000                                                                                                                                  
C10  39155557.956 9                      -427.903          23.000    39155559.977 9                      -328.743          22.000  
C30  24335414.777 1 126720886.138 4      1238.214          36.000                                                                  
C 9  38463355.750 9                     -1822.241          17.000                                                                  
C16  39897634.915 9                     -2115.950          14.000                                                                  
R 9  22874147.305 9                      2137.055          20.000                                                                  
R19  21168511.521 2 113237247.722 4     -1675.662          33.000    21168512.605 4  88073419.070 5     -1303.688          31.000  
G 8  22858448.685 2                     -2430.440          32.000    22858444.083 8                     -1893.640          26.000                                                                  
G27  25002713.713 2                     -3580.848          33.000    25002713.950 8                     -2788.931          26.000                                                                  
G 1  23336844.992 9                      2582.491          31.000                                                                                                                                  
S28  39118552.558 1 205569379.912 2      -504.738          41.000  
E26  24820759.539 4                       455.234          32.000    24820762.554 9                       345.850          25.000  
C 7  38628208.441 9                      -319.593          23.000    38628194.983 2                      -248.016          27.000  
C27  23428422.235 1 121997936.764 1     -1606.928          43.000                                                                  
E21  26457122.559 2                      -486.774          30.000    26457124.597 8                      -371.396          25.000  
E13  27100061.731 1 142411774.713 4     -2309.506          36.000    27100064.525 2                     -1769.643          30.000  
J 3  40435082.672 4                     -1341.718          29.000    40435082.553 9                     -1049.789          25.000  
E18  21623801.001 9                      2077.601          26.000    21623799.244 9                      1586.535          24.000  
J 2  40326957.494 9                       593.505          26.000                                                                  
C 8                                                                  40343415.679 9                       962.031          23.000  
R20                                                                  22695588.390 9                      2162.068          18.000  
J 7                                                                  38313164.406 9                      -392.453          23.000  
> 2021  5 17  2 33 23.0060000  0 26                     
G 7  22863278.570 9                      1718.742          19.000                                                                                                                                  
G 9  24792708.678 4                     -2510.541          30.000    24792710.072 9                     -1962.139          22.000                                                                  
G16  26078569.060 9                     -2233.962          24.000                                                                                                                                  
G21  22380655.022 2                       324.425          29.000                                                                                                                                  
C10  39155640.569 9                      -424.769          22.000    39155641.835 9                      -322.942          20.000  
C30  24335176.718 1 126719646.496 4      1240.861          36.000                                                                  
C 9  38463704.592 9                     -1816.459          20.000                                                                  
C16  39898040.113 9                     -2106.897          12.000                                                                  
R16  21977008.329 9                      -428.415          17.000                                                                  
R 9  22873745.673 9                      2146.380          21.000                                                                  
R19  21168825.061 4                     -1677.875          33.000    21168826.060 4                     -1305.932          31.000  
G 8  22858911.360 2                     -2434.474          32.000    22858907.868 8                     -1896.127          25.000                                                                  
G27  25003395.301 4                     -3585.981          31.000    25003395.520 8                     -2795.513          26.000                                                                  
G 1  23336345.738 9                      2584.593          26.000                                                                                                                                  
S28  39118648.174 1 205569882.573 2      -500.578          40.000  
E26  24820673.459 4                       453.895          32.000    24820676.669 9                       352.849          23.000  
C 7  38628269.353 8                      -323.280          25.000    38628256.866 2                      -250.169          28.000  
C27  23428730.820 1 121999545.079 2     -1609.663          45.000                                                                  
E21  26457215.883 2                      -490.480          33.000    26457217.962 8                      -376.368          25.000  
E13  27100501.630 2 142414086.699 5     -2314.980          32.000    27100504.380 2                     -1773.801          29.000  
J 3  40435336.131 8                     -1346.527          29.000    40435339.018 9                     -1056.391          23.000  
E18  21623407.165 9                      2077.091          24.000    21623404.398 9                      1598.629          20.000  
J 2  40326845.900 9                       590.640          25.000                                                                  
C 8                                                                  40343177.977 9                       959.012          23.000  
R20                                                                  22695070.023 9                      2141.653          18.000  
J 7                                                                  38313261.835 9                      -387.087          21.000  
> 2021  5 17  2 33 24.0060000  0 26                     
G 9  24793186.215 4                     -2505.488          31.000    24793188.546 9                     -1959.615          21.000                                                                  
G16  26078995.799 9                     -2243.056          26.000                                                                                                                                  
G21  22380593.528 4                       323.198          29.000                                                                                                                                  
C10  39155721.069 9                      -426.536          20.000    39155722.926 9                      -327.993          18.000  
C30  24334937.894 1 126718403.391 4      1244.335          37.000                                                                  
C 8  40342947.424 9                      1237.817          26.000    40342940.327 9                       958.630          24.000  
C 9  38464052.447 9                     -1816.545          22.000                                                                  
C16  39898443.415 9                     -2114.293          14.000                                                                  
R16  21977090.622 9                      -446.363          18.000                                                                  
R 9  22873346.518 9                      2146.838          19.000                                                                  
R19  21169139.081 4                     -1682.193          32.000    21169140.321 4                     -1307.568          31.000  
G 8  22859374.783 4                     -2436.385          31.000    22859373.114 9                     -1899.288          25.000                                                                  
G27  25004078.891 4                     -3592.012          29.000    25004078.141 9                     -2801.625          23.000                                                                  
G 1  23335853.079 9                      2568.029          26.000                                                                                                                                  
S28  39118743.075 1 205570381.039 3      -496.302          38.000  
E26  24820590.533 8                       454.601          35.000    24820592.477 9                       346.774          22.000  
S37  38313397.171 9                      -506.219          31.000  
C 7  38628329.478 8                      -324.687          25.000    38628319.415 2                      -252.738          26.000  
C27  23429040.035 1 122001155.573 1     -1611.223          44.000                                                                  
E21  26457309.864 2 139034102.128 5      -494.399          33.000    26457313.185 4                      -379.204          28.000  
E13  27100942.779 1 142416403.933 5     -2318.570          35.000    27100945.273 1                     -1777.526          30.000  
J 3  40435593.393 8                     -1347.604          28.000    40435595.602 9                     -1049.864          23.000  
E18  21623013.441 9                      2079.554          22.000    21623008.913 9                      1591.047          18.000  
J 2  40326733.408 9                       582.253          23.000                                                                  
J 7  38313371.775 9                      -511.810          25.000    38313359.253 9                      -399.959          23.000  
R20                                                                  22694552.750 9                      2139.565          16.000  
> 2021  5 17  2 33 25.0060000  0 26                     
G 9  24793663.513 2                     -2505.623          32.000    24793665.601 9                     -1954.652          21.000                                                                  
G16  26079421.131 8                     -2249.540          32.000                                                                                                                                  
G21  22380533.394 9                       321.959          25.000                                                                                                                                  
C10  39155802.957 9                      -415.073          18.000    39155807.815 9                      -347.691          14.000  
C30  24334698.734 1 126717158.067 3      1245.513          37.000                                                                  
C 9  38464399.308 9                     -1804.547          23.000                                                                  
C16  39898850.441 9                     -2122.909          14.000                                                                  
R16  21977172.730 9                      -445.274          20.000                                                                  
R 9  22872944.581 9                      2142.834          21.000                                                                  
R19  21169453.706 4                     -1682.221          32.000    21169454.620 4                     -1308.954          33.000  
G 8  22859839.023 9                     -2442.203          22.000    22859836.497 9                     -1900.686          22.000                                                                  
G27  25004761.380 8                     -3592.672          28.000    25004761.757 9                     -2796.115          22.000                                                                  
G 1  23335359.304 9                      2591.034          26.000                                                                                                                                  
S28  39118837.376 1 205570876.634 4      -495.534          34.000  
E26  24820499.778 9                       449.784          30.000    24820505.139 8                       346.986          24.000  
S37  38313490.012 9                      -574.463          28.000  
C 7  38628393.326 9                      -325.557          22.000    38628382.414 9                      -244.374          23.000  
C27  23429349.682 1 122002767.528 1     -1612.074          43.000                                                                  
E21  26457404.283 2                      -494.302          32.000    26457406.703 4                      -379.543          30.000  
E13  27101384.300 1 142418724.700 5     -2320.566          36.000    27101387.099 2                     -1778.391          31.000  
J 3  40435849.094 8                     -1348.275          28.000    40435852.083 9                     -1048.790          23.000  
E18  21622619.025 9                      2071.972          20.000    21622616.630 9                      1573.800          17.000  
J 2  40326621.435 9                       587.142          25.000                                                                  
J 7  38313462.123 9                      -511.810          24.000    38313456.332 9                      -401.528          22.000  
C 8                                                                  40342703.274 8                       952.463          25.000  
R20                                                                  22694034.976 9                      2151.913          14.000  
> 2021  5 17  2 33 26.0060000  0 23                     
G 9  24794140.481 2                     -2507.260          32.000    24794143.221 9                     -1956.283          23.000                                                                  
G16  26079846.784 8                     -2248.838          32.000                                                                                                                                  
C10  39155882.562 9                      -415.073          13.000    39155895.332 9                      -347.691          10.000  
C30  24334459.597 1 126715913.389 3      1244.008          38.000                                                                  
C 9  38464747.734 9                     -1823.101          24.000                                                                  
C16  39899258.654 9                     -2111.756          14.000                                                                  
R16  21977254.918 9                      -442.847          22.000    21977241.213 9                      -347.707          15.000  
R 9  22872544.934 9                      2138.973          20.000                                                                  
R19  21169768.063 4                     -1682.894          33.000    21169768.977 4                     -1308.276          32.000  
G 8  22860303.300 9                     -2433.465          21.000    22860300.040 9                     -1896.716          19.000                                                                  
G27  25005443.772 9                     -3576.043          26.000    25005446.455 9                     -2801.763          21.000                                                                  
G 1  23334866.990 9                      2580.354          25.000                                                                                                                                  
S28  39118931.924 4                      -497.920          30.000  
E26  24820412.281 8                       453.104          31.000    24820417.491 4                       346.505          26.000  
C 7  38628456.883 9                      -330.023          20.000    38628444.426 9                      -250.246          20.000  
C27  23429659.398 1 122004379.671 2     -1612.733          36.000                                                                  
E21  26457498.515 2 139035091.537 5      -494.774          33.000    26457502.576 4                      -379.303          31.000  
E13  27101826.059 1 142421045.322 4     -2320.397          37.000    27101828.669 1 109127832.344 5     -1778.233          32.000  
J 3  40436107.365 8                     -1350.446          28.000    40436106.846 8                     -1049.293          25.000  
E18  21622225.272 9                      2079.132          20.000    21622223.374 9                      1584.862          14.000  
J 2  40326509.990 8                       587.064          37.000                                                                  
J 7  38313561.584 9                      -511.810          22.000    38313553.412 9                      -393.673          23.000  
C 8                                                                  40342465.847 9                       952.371          23.000  
> 2021  5 17  2 33 27.0060000  0 24                     
G 9  24794617.470 4                     -2506.794          25.000    24794620.914 9                     -1956.291          22.000                                                                  
G16  26080275.279 8                     -2251.461          31.000                                                                                                                                  
G21  22380409.741 8                       318.489          34.000                                                                                                                                  
C30  24334220.589 1 126714668.755 3      1245.090          38.000                                                                  
C 9  38465094.242 8                     -1809.903          25.000                                                                  
C16  39899661.742 9                     -2096.159          13.000                                                                  
R16  21977338.050 9                      -437.123          23.000    21977326.656 9                      -350.593          17.000  
R 9  22872142.648 9                      2144.325          19.000                                                                  
R19  21170082.823 4                     -1683.266          32.000    21170083.665 4  88079955.866 4     -1309.127          33.000  
G 8  22860766.625 9                     -2412.247          21.000    22860764.272 9                     -1885.604          15.000                                                                  
G27  25006126.957 9                     -3598.080          23.000    25006129.872 9                     -2794.418          21.000                                                                  
G 1  23334374.451 9                      2586.603          31.000                                                                                                                                  
S28  39119026.457 8                      -494.355          30.000  
E26  24820327.914 8                       450.195          32.000    24820333.221 4                       347.636          28.000  
C 7  38628520.155 9                      -322.353          16.000    38628506.003 9                      -228.617          16.000  
C27  23429969.135 1 122005992.380 3     -1612.404          40.000                                                                  
E21  26457593.032 1 139035586.286 4      -494.890          35.000    26457595.326 2                      -379.380          31.000  
E13  27102268.003 1 142423366.573 4     -2321.171          35.000    27102270.228 1 109129610.913 4     -1778.539          34.000  
J 3  40436361.905 4                     -1347.336          36.000    40436363.328 9                     -1052.188          25.000  
E18  21621829.896 9                      2066.558          21.000    21621829.466 9                      1584.862          13.000  
J 2  40326400.385 4 211916664.17935       588.809          36.000    40326409.978 9                       457.400          21.000  
J 7  38313659.658 9                      -511.810          22.000    38313650.884 9                      -395.078          22.000  
C10                                                                  39155983.210 9                      -347.691           9.000  
C 8                                                                  40342226.865 9                       966.504          21.000  
> 2021  5 17  2 33 28.0060000  0 24                     
G 7  22861626.927 9                      1698.014          38.000                                                                                                                                  
G 9  24795097.833 9                     -2511.069          23.000    24795097.772 9                     -1947.798          21.000                                                                  
G16  26080705.885 9                     -2237.119          25.000                                                                                                                                  
G21  22380349.723 9                       324.427          26.000                                                                                                                                  
C30  24333981.843 1 126713425.186 5      1241.979          30.000                                                                  
C 8  40341993.532 9                      1248.570          31.000    40341988.167 9                       965.475          23.000  
C 9  38465442.967 9                     -1816.042          24.000                                                                  
C16  39900065.717 9                     -2109.206          15.000                                                                  
R16  21977420.601 9                      -444.321          26.000    21977411.045 9                      -343.456          19.000  
R 9  22871741.865 9                      2155.574          21.000                                                                  
R19  21170397.741 4                     -1683.294          26.000    21170398.704 4  88081265.860 5     -1310.095          27.000  
G 8  22861230.528 9                     -2432.396          20.000    22861223.840 9                     -1863.180          15.000                                                                  
G27  25006810.122 9                     -3559.455          19.000    25006813.474 9                     -2795.955          20.000                                                                  
G 1  23333884.171 9                      2591.457          24.000                                                                                                                                  
S28  39119120.732 2 205572367.17135      -497.823          33.000  
E26  24820239.844 9                       458.997          26.000    24820250.665 9                       332.364          24.000  
C 7  38628584.147 9                      -317.201          17.000    38628567.923 9                      -262.149          15.000  
C27  23430278.867 1 122007605.999 4     -1613.772          39.000                                                                  
E21  26457687.131 2                      -493.119          27.000    26457689.699 4                      -379.182          23.000  
E13  27102710.091 4                     -2321.493          23.000    27102712.196 9                     -1781.483          21.000  
E18  21621427.043 8 113621365.91715      2068.242          45.000    21621430.794 9                      1585.158          39.000  
J 2  40326287.319 9                       587.894          30.000    40326290.886 9                       457.497          30.000  
J 7  38313753.965 9                      -511.810          20.000    38313747.522 9                      -385.430          22.000  
J 3                                                                  40436618.390 9                     -1048.017          25.000  
> 2021  5 17  2 33 29.0060000  0 25                     
G 7  22861281.709 9                      1691.059          29.000    22861272.239 9                      1318.630          27.000                                                                  
G 9  24795582.557 9                     -2516.671          22.000    24795576.601 9                     -1981.930          19.000                                                                  
G16  26081128.895 9                     -2238.279          25.000                                                                                                                                  
G21  22380283.481 8                       329.575          42.000                                                                                                                                  
C10  39156069.610 9                      -435.877          27.000                                                                  
C30  24333746.858 9                      1237.767          21.000                                                                  
C 8  40341752.336 8                      1254.275          31.000    40341747.203 8                       968.483          29.000  
C 9  38465791.031 9                     -1816.042          20.000                                                                  
C16  39900471.609 9                     -2104.054          17.000                                                                  
R16  21977504.333 9                      -409.817          24.000    21977493.123 9                      -338.319          17.000  
R 9  22871341.871 9                      2149.892          22.000                                                                  
R19  21170715.652 9                     -1693.123          22.000    21170714.296 9                     -1315.085          14.000  
G 8  22861694.329 9                     -2433.589          19.000    22861683.282 9                     -1885.739          15.000                                                                  
G27  25007498.031 9                     -3579.563          22.000    25007495.727 9                     -2790.215          19.000                                                                  
G 1  23333392.397 9                      2589.826          31.000                                                                                                                                  
S28  39119214.715 9                      -491.553          27.000  
E26  24820153.309 9                       461.359          27.000    24820159.985 9                       355.461          24.000  
C 7  38628644.956 9                      -309.491          16.000    38628633.347 9                      -262.149          12.000  
C27  23430591.495 9                     -1640.856          25.000                                                                  
E21  26457781.718 9                      -460.268          23.000    26457782.388 9                      -370.758          20.000  
E18  21621039.810 8                      2062.357          27.000                                                                  
J 2  40326176.190 9                       592.438          22.000                                                                  
J 7  38313847.636 9                      -511.810          32.000    38313842.685 9                      -392.280          33.000  
E13                                                                  27103154.810 9                     -1763.919          18.000  
J 3                                                                  40436874.121 9                     -1048.462          22.000  
> 2021  5 17  2 33 30.0060000  0 24                     
G 9  24796058.891 9                     -2528.450          38.000    24796056.685 9                     -1965.074          28.000                                                                  
G16  26081550.949 9                     -2218.762          26.000                                                                                                                                  
G21  22380217.173 4 117608834.36134       332.146          42.000                                                                                                                                  
G30  25920420.406 9                      2831.196          31.000    25920429.635 9                      2206.086          27.000                                                                  
C30  24333506.587 8                      1228.710          35.000                                                                  
C 8  40341510.047 8                      1253.640          32.000    40341505.047 8                       969.681          29.000  
C 9  38466140.804 9                     -1817.873          16.000                                                                  
C16  39900879.116 9                     -2089.154          19.000                                                                  
R16  21977586.745 9                      -427.417          36.000    21977575.500 9                      -332.164          29.000  
R 9  22870940.752 9                      2149.340          22.000                                                                  
R19  21171030.361 9                     -1681.606          30.000    21171030.197 9                     -1306.375          29.000  
G27  25008181.765 9                     -3580.566          22.000    25008175.848 9                     -2781.667          17.000                                                                  
G 1  23332902.525 8                      2591.721          31.000    23332897.808 9                      2019.601          25.000                                                                  
E26  24820063.067 8 130430326.16815       460.065          41.000    24820065.579 8                       352.204          36.000  
S37  38313928.118 9                      -497.375          40.000  
C 7  38628706.616 9                      -307.533          17.000    38628699.594 9                      -234.982          13.000  
C27  23430898.056 8                     -1610.590          44.000                                                                  
E21  26457873.202 8                      -479.726          40.000    26457875.125 8                      -366.330          33.000  
E18  21620643.828 9                      2064.790          39.000                                                                  
J 2  40326055.730 9                       602.582          37.000    40326061.010 9                       469.553          33.000  
J 3  40437128.865 9                     -1335.821          38.000    40437128.395 9                     -1041.523          33.000  
J 7  38313934.698 9                      -499.144          35.000    38313934.753 8                      -388.425          35.000  
E13                                                                  27103591.202 9                     -1766.536          33.000  
G 8                                                                  22862147.355 9                     -1887.633          16.000                                                                  
> 2021  5 17  2 33 31.0060000  0 26                     
G 7  22860628.549 9                      1691.193          39.000    22860627.918 9                      1319.037          34.000                                                                  
G16  26081976.409 9                     -2220.960          23.000                                                                                                                                  
G21  22380155.469 4 117608510.24623       332.355          42.000                                                                                                                                  
G30  25919887.229 9                      2828.251          32.000    25919893.776 9                      2206.119          27.000                                                                  
C10  39156236.620 9                      -442.060          30.000                                                                  
C30  24333273.967 8                      1230.922          26.000                                                                  
C 8  40341267.573 4                      1254.112          27.000    40341263.023 8                       970.178          28.000  
C 9  38466492.551 9                     -1823.130          16.000                                                                  
C16  39901287.853 9                     -2103.269          21.000                                                                  
R16  21977665.499 8 117400743.90335      -426.484          34.000    21977655.457 9                      -330.154          29.000  
R19  21171345.133 8                     -1682.990          31.000    21171342.244 9                     -1309.405          31.000  
G27  25008859.475 9                     -3571.679          31.000    25008856.916 9                     -2783.893          29.000                                                                  
G 1  23332396.674 8                      2592.919          40.000    23332401.554 8                      2020.168          32.000                                                                  
S28  39119407.669 9                      -498.141          31.000  
E26  24819974.101 4 130429866.314 3       459.768          41.000    24819977.853 4  99939766.56614       352.559          36.000  
S37  38314021.877 9                      -498.438          38.000  
C 7  38628765.753 9                      -325.478          38.000    38628763.067 9                      -249.642          35.000  
C27  23431206.281 4 122012445.19633     -1611.094          44.000                                                                  
E13  27104025.110 9                     -2304.846          37.000    27104030.246 4 109136697.78115     -1766.350          33.000  
E21  26457966.049 8 139037541.02514      -479.905          39.000    26457965.108 4                      -366.806          34.000  
E18  21620249.962 8 113615179.58914      2062.715          43.000    21620251.564 8  87055793.21115      1580.294          39.000  
J 2  40325944.535 8 211914268.39435       602.505          41.000    40325949.658 8 165128008.53915       468.818          37.000  
J 3  40437384.495 9 212499881.72934     -1336.341          43.000    40437383.516 8 165584321.61215     -1041.156          36.000  
J 7  38314029.159 4 201341584.21035      -498.634          35.000    38314029.041 8 156889546.87914      -388.918          36.000  
G 9                                                                  24796539.467 9                     -1967.455          17.000                                                                  
G 8                                                                  22862614.081 9                     -1899.506          30.000                                                                  
> 2021  5 17  2 33 32.0060000  0 27                     
G 7  22860305.295 8 120131723.27333      1689.360          42.000    22860304.829 9  93609131.59315      1316.492          34.000                                                                  
G16  26082398.909 9                     -2250.644          19.000                                                                                                                                  
G21  22380088.966 4 117608176.92222       334.630          42.000                                                                                                                                  
C10  39156317.731 9                      -443.641          31.000    39156313.590 9                      -343.487          29.000  
C30  24333039.484 9                      1238.445          23.000                                                                  
C 9  38466843.696 9                     -1822.559          17.000                                                                  
C16  39901695.566 9                     -2120.194          20.000                                                                  
R16  21977742.789 8 117401169.90524      -426.229          35.000    21977736.445 9                      -331.555          29.000  
R19  21171659.111 8                     -1683.856          32.000    21171658.923 8                     -1309.777          32.000  
G 8  22863084.489 8                     -2437.618          42.000    22863085.250 8                     -1901.510          35.000                                                                  
G27  25009538.995 8                     -3575.469          34.000    25009540.808 9                     -2786.519          29.000                                                                  
G 1  23331898.485 4 122609977.36935      2596.907          40.000    23331902.811 8                      2023.063          33.000                                                                  
S28  39119510.100 9                      -482.080          28.000  
E26  24819884.717 4 130429405.425 2       461.962          41.000    24819889.370 2  99939413.454 3       353.686          35.000  
S37  38314116.254 8 201342039.23134      -495.551          38.000  
C 7  38628826.494 8                      -326.274          37.000    38628821.739 9                      -250.540          34.000  
C27  23431516.744 2 122014056.36822     -1611.787          43.000                                                                  
E13  27104469.698 9                     -2303.563          31.000    27104468.423 4                     -1766.264          29.000  
E21  26458057.061 4 139038020.007 4      -479.614          40.000    26458056.275 4                      -367.410          33.000  
E18  21619858.041 4 113613117.499 2      2061.404          43.000    21619859.162 2  87054213.163 3      1579.512          39.000  
J 2  40325828.174 4 211913664.99024       603.619          40.000    40325831.069 8 165127538.297 5       471.133          37.000  
J 3  40437639.149 9 212501216.99213     -1334.971          42.000    40437638.086 8 165585362.448 5     -1041.527          35.000  
J 7  38314122.743 4 201342081.540 4      -496.078          35.000    38314122.122 4 156889934.398 4      -386.127          35.000  
C 8                                                                  40341024.031 9                       971.975          25.000  
G 9                                                                  24797020.171 9                     -1951.576          16.000                                                                  
R 9                                                                  22870074.803 9                      1655.150          13.000  
G30                                                                  25919359.072 9                      2200.957          25.000                                                                  
> 2021  5 17  2 33 33.0060000  0 27                     
G 7  22859984.483 8 120130035.35622      1686.593          42.000    22859980.882 8                      1313.599          33.000                                                                  
G16  26082827.177 9                     -2242.202          17.000                                                                                                                                  
G21  22380026.074 4 117607841.95723       335.729          40.000                                                                                                                                  
C10  39156402.371 8                      -446.332          31.000    39156395.579 9                      -345.338          29.000  
C30  24332805.221 9                      1232.309          22.000                                                                  
C 9  38467193.787 9                     -1831.088          16.000                                                                  
C16  39902102.073 9                     -2083.257          20.000                                                                  
R16  21977823.723 8 117401595.77115      -426.207          33.000    21977819.687 9                      -331.317          29.000  
R18  23990755.088 9                     -4437.282          34.000    23990741.586 9                     -3453.427          31.000  
R19  21171973.299 8 113255789.01615     -1686.382          32.000    21171974.103 8                     -1312.345          32.000  
G 8  22863550.221 8                     -2439.593          43.000    22863551.871 8                     -1902.439          35.000                                                                  
G27  25010217.349 9                     -3583.975          34.000    25010222.898 9                     -2792.406          29.000                                                                  
G 1  23331405.089 4 122607379.24725      2600.165          38.000    23331406.906 8                      2026.792          32.000                                                                  
S28  39119628.207 9                      -650.928          27.000  
E26  24819798.319 4 130428943.238 2       462.884          41.000    24819802.070 2  99939059.323 3       354.142          36.000  
S37  38314211.240 4 201342533.95423      -493.531          38.000  
C 7  38628890.249 4                      -328.127          37.000    38628883.816 9                      -253.698          33.000  
C27  23431825.013 2 122015668.32012     -1612.932          43.000                                                                  
E13  27104912.956 9                     -2305.057          26.000    27104908.969 9                     -1768.832          21.000  
E21  26458147.867 4 139038500.022 4      -480.221          40.000    26458147.600 4                      -367.961          33.000  
E18  21619464.716 4 113611057.148 2      2059.232          43.000    21619467.120 1  87052634.471 2      1577.615          39.000  
J 2  40325714.241 4 211913061.40423       603.377          41.000    40325716.252 8                       468.940          30.000  
J 3  40437892.345 4 212502552.893 4     -1335.309          39.000    40437891.841 4                     -1041.204          35.000  
J 7  38314216.513 4 201342576.224 5      -493.634          35.000    38314215.663 4 156890319.926 4      -385.309          35.000  
C 8                                                                  40340782.198 9                       968.713          22.000  
G 9                                                                  24797505.755 9                     -2004.399          15.000                                                                  
R 9                                                                  22869678.327 9                      1663.034          19.000  
> 2021  5 17  2 33 34.0060000  0 27                     
G 7  22859664.306 8 120128349.67922      1684.728          42.000    22859660.445 8                      1312.275          34.000                                                                  
G16  26083258.007 9                     -2256.425          17.000                                                                                                                                  
G21  22379962.200 2 117607505.89222       335.990          42.000                                                                                                                                  
G30  25918279.280 9                      2818.720          26.000                                                                                                                                  
C10  39156489.297 4 203898113.43914      -448.632          37.000    39156483.649 4 157666938.96415      -346.542          34.000  
C30  24332574.638 9                      1236.680          20.000                                                                  
C 9  38467546.540 9                     -1815.279          14.000                                                                  
C16  39902504.007 9                     -2099.493          19.000                                                                  
R16  21977906.383 8                      -428.822          34.000    21977901.697 8                      -333.638          29.000  
R18  23991593.043 9                     -4442.708          30.000    23991579.916 9                     -3452.933          30.000  
R19  21172291.417 8 113257475.897 5     -1687.529          32.000    21172287.354 8  88089135.55015     -1312.912          32.000  
G 8  22864016.775 4                     -2440.713          43.000    22864018.694 8                     -1901.689          37.000                                                                  
G27  25010902.631 9                     -3584.386          34.000    25010903.166 8                     -2792.541          33.000                                                                  
G 1  23330910.357 8                      2595.605          34.000    23330912.490 9                      2030.773          25.000                                                                  
E26  24819710.061 2 130428480.092 2       463.188          41.000    24819715.070 2  99938704.439 4       354.739          36.000  
S37  38314305.122 2 201343026.52524      -491.385          39.000  
C 7  38628953.363 4                      -329.397          34.000    38628948.211 8                      -254.428          34.000  
C27  23432136.008 2 122017282.301 2     -1614.509          44.000                                                                  
E13  27105343.348 9                     -2310.504          37.000    27105347.722 8                     -1770.330          31.000  
E21  26458237.681 4 139038981.591 4      -482.188          39.000    26458239.257 2                      -368.862          34.000  
E18  21619072.837 4 113608998.452 2      2057.764          43.000    21619074.337 1  87051057.015 2      1577.051          39.000  
J 2  40325598.215 4 211912458.23924       603.170          37.000    40325601.718 8                       472.090          32.000  
J 3  40438147.260 4 212503889.354 5     -1338.683          39.000    40438147.097 4 165587444.835 5     -1040.480          35.000  
J 7  38314310.363 4 201343068.764 4      -490.898          35.000    38314309.396 4 156890703.766 4      -383.662          35.000  
C 8                                                                  40340543.045 9                       972.668          17.000  
G 9                                                                  24797991.301 9                     -1985.095          14.000                                                                  
R 9                                                                  22869281.716 9                      1655.693          21.000  
> 2021  5 17  2 33 35.0060000  0 29                     
G 7  22859341.412 4 120126666.21623      1682.268          42.000    22859338.494 8  93605190.991 5      1310.920          34.000                                                                  
G 4  25474479.526 9                     -3388.893          21.000                                                                                                                                  
G16  26083687.049 9                     -2253.273          16.000                                                                                                                                  
G21  22379898.144 2 117607168.94623       338.051          42.000                                                                                                                                  
G30  25917743.391 8                      2814.046          32.000    25917745.479 9                      2193.928          29.000                                                                  
C10  39156574.379 4 203898562.853 4      -450.327          37.000    39156571.492 4 157667286.494 4      -348.463          34.000  
C30  24332347.965 9                      1254.561          19.000                                                                  
C 9  38467898.114 9                     -1813.107          15.000                                                                  
C16  39902879.432 9                     -2095.835          29.000    39902871.086 9                     -1618.162          29.000  
R16  21977986.672 9                      -438.602          20.000    21977983.509 9                      -333.370          25.000  
R18  23992428.515 9                     -4445.288          36.000    23992417.302 9                     -3456.217          33.000  
R 9  22868948.383 9                      2115.836          30.000    22868884.061 9                      1647.597          21.000  
R19  21172606.372 8                     -1687.769          32.000    21172602.217 8  88090448.564 5     -1313.304          31.000  
G 8  22864479.140 4 120153648.21735     -2444.747          42.000    22864486.033 8                     -1902.072          37.000                                                                  
G27  25011584.090 8                     -3581.152          34.000    25011584.264 8                     -2791.640          32.000                                                                  
G 1  23330423.709 8                      2600.542          30.000    23330422.048 9                      2027.086          25.000                                                                  
E26  24819622.980 2 130428016.335 3       464.119          41.000    24819625.984 2  99938349.082 4       355.537          36.000  
S37  38314398.707 2 201343517.65024      -489.876          38.000  
C 7  38629016.787 4 201151431.43515      -330.821          37.000    38629009.061 4                      -254.669          34.000  
C27  23432446.089 2 122018897.221 3     -1614.737          43.000                                                                  
E13  27105782.897 8 142441850.22615     -2309.768          38.000    27105788.109 4                     -1770.650          32.000  
E21  26458327.268 4 139039463.336 4      -481.514          39.000    26458331.310 2 106536738.92815      -369.337          34.000  
E18  21618681.458 2 113606941.448 3      2056.329          43.000    21618683.859 2  87049480.864 3      1575.786          39.000  
J 2  40325487.031 8                       589.646          23.000                                                                  
J 3  40438401.528 2 212505225.577 5     -1335.315          41.000    40438401.350 4 165588486.066 5     -1040.592          35.000  
J 7  38314403.476 4                      -490.187          35.000    38314401.337 4 156891086.405 5      -382.360          35.000  
C 8                                                                  40340301.555 9                       975.029          15.000  
G 9                                                                  24798472.686 9                     -1949.453          16.000                                                                  
R20                                                                  22688785.009 9                      2160.481          17.000  
> 2021  5 17  2 33 36.0060000  0 28                     
G 7  22859024.225 4 120124984.75223      1680.642          42.000    22859019.571 4  93603880.779 5      1309.651          34.000                                                                  
G 4  25475124.517 9                     -3388.893          20.000                                                                                                                                  
G 9  24798966.227 9                     -2517.820          22.000    24798954.198 9                     -1942.203          16.000                                                                  
G16  26084114.639 9                     -2217.816          15.000                                                                                                                                  
G21  22379834.177 2 117606830.94025       338.839          42.000                                                                                                                                  
G30  25917206.675 4                      2812.981          33.000    25917206.786 9                      2192.065          28.000                                                                  
C10  39156661.382 4 203899013.905 3      -451.328          37.000    39156656.942 4 157667635.315 4      -349.770          34.000  
C30  24332102.021 9                      1228.616          34.000                                                                  
C 9  38468243.225 9                     -1817.739          35.000                                                                  
C16  39903279.874 9                     -2105.329          26.000                                                                  
R16  21978067.122 9                      -437.802          18.000    21978063.895 9                      -333.370          21.000  
R18  23993260.939 8                     -4442.993          40.000    23993253.028 9                     -3455.930          32.000  
R 9  22868535.111 9                      2119.490          42.000    22868488.796 9                      1648.010          29.000  
R19  21172921.480 8 113260852.730 5     -1688.506          32.000    21172917.914 8                     -1313.124          31.000  
R20  22688281.212 9                      2780.740          29.000    22688273.587 9                      2162.183          32.000  
G 8  22864945.041 4 120156096.36924     -2443.468          44.000    22864948.641 8                     -1903.390          33.000                                                                  
G27  25012269.265 9                     -3583.935          38.000    25012266.596 9                     -2791.259          28.000                                                                  
E26  24819533.535 2 130427551.748 3       465.261          41.000    24819537.737 2  99937993.101 4       356.267          36.000  
S37  38314491.710 2 201344007.21125      -489.005          38.000  
C 7  38629081.109 2 201151761.999 4      -330.323          38.000    38629072.013 4                      -254.641          30.000  
C27  23432756.213 2 122020512.317 3     -1615.031          44.000                                                                  
E13  27106225.235 8                     -2308.022          36.000    27106226.801 4                     -1766.639          36.000  
E21  26458419.320 4 139039943.881 4      -480.941          35.000    26458422.479 2                      -366.990          30.000  
E 1  27169892.722 9                       783.872          36.000                                                                  
E18  21618291.491 2 113604885.874 3      2055.169          43.000    21618292.430 1  87047905.820 3      1574.993          38.000  
J 3  40438655.328 8                     -1330.397          27.000    40438655.314 9                     -1052.095          25.000  
J 7  38314497.227 4                      -488.198          35.000    38314494.600 4                      -381.106          35.000  
C 8                                                                  40340059.535 9                       978.250          14.000  
> 2021  5 17  2 33 37.0060000  0 28                     
G 7  22858704.509 4 120123305.30423      1678.461          42.000    22858701.228 4  93602572.160 5      1306.942          33.000                                                                  
G 4  25475770.283 9                     -3388.893          18.000                                                                                                                                  
G 9  24799427.376 9                     -2529.247          39.000    24799432.423 9                     -1970.691          29.000                                                                  
G16  26084542.815 9                     -2240.657          14.000                                                                                                                                  
G21  22379769.625 1 117606491.917 3       339.062          42.000                                                                                                                                  
G30  25916672.474 4 136193035.45935      2809.971          32.000    25916670.383 8                      2189.424          28.000                                                                  
C10  39156749.345 2 203899466.631 3      -453.674          37.000    39156742.826 4 157667985.348 5      -350.606          34.000  
C30  24331852.764 8                      1227.911          39.000                                                                  
C 9  38468590.961 8                     -1819.600          35.000    38468588.482 9                     -1406.606          34.000  
C16  39903683.786 9                     -2110.957          24.000                                                                  
R16  21978151.473 9                      -435.212          16.000    21978146.128 9                      -334.824          13.000  
R18  23994093.097 9                     -4442.074          38.000    23994088.012 8                     -3454.184          35.000  
R 9  22868123.974 8 122114505.72834      2117.655          39.000    22868095.041 9                      1646.725          31.000  
R19  21173237.523 4                     -1688.492          32.000    21173233.752 4                     -1314.051          31.000  
G 8  22865410.820 4 120158543.97125     -2445.114          42.000    22865413.382 8  93630056.96715     -1905.925          38.000                                                                  
G27  25012948.064 9                     -3585.123          28.000    25012948.636 9                     -2793.016          26.000                                                                  
E26  24819445.430 1 130427086.458 2       465.664          41.000    24819449.323 1  99937636.579 3       356.384          36.000  
S37  38314584.631 1 201344495.36223      -487.651          39.000  
C 7  38629142.618 4                      -331.760          36.000    38629134.745 4                      -256.609          31.000  
C27  23433066.423 1 122022127.608 2     -1615.427          43.000                                                                  
E21  26458515.081 9                      -511.789          25.000    26458517.056 9                      -391.856          21.000  
E 1  27169735.470 8 142777967.34214       781.440          39.000                                                                  
E18  21617900.602 2 113602831.779 2      2053.284          43.000    21617901.963 1  87046331.906 2      1573.281          39.000  
J 7  38314590.096 2 201344537.607 5      -487.241          35.000    38314587.507 2 156891848.207 4      -379.476          35.000  
E13                                                                  27106668.066 9                     -1770.922          25.000  
C 8                                                                  40339816.715 9                       992.212          14.000  
R20                                                                  22687758.451 9                      2143.166          25.000  
J 3                                                                  40438912.852 9                     -1056.556          21.000  
> 2021  5 17  2 33 38.0060000  0 27                     
G 7  22858382.513 2 120121626.91313      1677.310          41.000    22858381.505 4  93601264.658 5      1307.133          33.000                                                                  
G 9  24799902.722 8 130324368.05035     -2528.743          40.000    24799908.906 9                     -1970.390          30.000                                                                  
G21  22379704.971 1 117606152.046 2       339.973          41.000                                                                                                                                  
G30  25916135.836 8                      2807.998          30.000    25916136.292 8                      2187.669          28.000                                                                  
C10  39156835.967 2 203899920.612 4      -454.604          37.000    39156830.351 4 157668336.409 4      -351.640          34.000  
C30  24331616.728 4                      1228.160          40.000                                                                  
C 9  38468937.486 4                     -1820.247          35.000    38468934.928 9                     -1407.967          31.000  
C16  39904091.933 9                     -2123.695          25.000                                                                  
R16  21978237.443 9                      -466.462          11.000    21978226.858 9                      -350.618          11.000  
R 9  22867722.020 8 122112388.64924      2117.001          42.000    22867705.972 8  94976181.58035      1646.321          35.000  
R19  21173553.303 4                     -1689.995          32.000    21173549.747 4                     -1315.173          31.000  
G 8  22865875.727 2 120160989.64025     -2446.942          33.000    22865877.977 8                     -1907.062          28.000                                                                  
G27  25013633.519 9                     -3551.091          24.000    25013630.457 9                     -2785.494          22.000                                                                  
S28  39120095.367 9                      -516.547          39.000  
E26  24819356.929 1 130426620.486 2       466.196          41.000    24819360.683 1  99937279.525 3       357.283          36.000  
S37  38314677.340 1 201344982.05823      -486.291          38.000  
C 7  38629206.573 2                      -333.168          30.000    38629198.601 4                      -256.977          30.000  
C27  23433376.695 1 122023743.307 2     -1615.819          43.000                                                                  
E 1  27169584.102 4 142777186.777 4       780.130          36.000    27169588.797 9                       598.771          34.000  
E18  21617509.618 1 113600778.881 2      2052.485          43.000    21617511.035 1  87044758.886 3      1572.785          39.000  
J 7  38314682.842 2 201345024.300 5      -485.491          34.000    38314680.161 2 156892227.538 5      -379.351          34.000  
E13                                                                  27107112.581 9                     -1776.802          21.000  
E21                                                                  26458615.865 9                      -391.856          18.000  
C 8                                                                  40339571.006 9                       994.228          14.000  
R20                                                                  22687247.449 9                      2161.483          24.000  
R18                                                                  23994921.348 9                     -3421.337          25.000  
J 3                                                                  40439165.352 9                     -1025.306          15.000  
> 2021  5 17  2 33 39.0060000  0 30                     
G 7  22858064.551 2 120119950.565 5      1676.093          41.000    22858062.596 4                      1306.275          33.000                                                                  
G 9  24800385.158 8                     -2529.239          31.000    24800393.178 9                     -1962.922          23.000                                                                  
G16  26085405.845 9                     -2250.841          14.000                                                                                                                                  
G21  22379640.363 1 117605811.812 2       339.479          41.000                                                                                                                                  
G30  25915602.702 8                      2806.757          30.000    25915602.956 8                      2186.315          27.000                                                                  
C10  39156923.394 1 203900375.816 4      -455.732          37.000    39156917.990 2 157668688.409 5      -353.294          34.000  
C30  24331382.247 4                      1229.873          29.000                                                                  
C 9  38469290.102 9                     -1813.152          24.000                                                                  
C16  39904526.499 9                     -2147.089          27.000                                                                  
R16  21978317.747 9                      -419.317          14.000    21978307.758 9                      -319.275          12.000  
R 9  22867323.636 4 122110273.021 3      2115.292          40.000    22867318.387 8  94974536.073 4      1645.110          35.000  
R19  21173869.427 4 113265923.179 5     -1692.155          31.000    21173865.815 4                     -1316.020          30.000  
G 8  22866339.462 8                     -2445.817          40.000    22866346.257 9                     -1905.948          28.000                                                                  
G 1  23328480.737 9                      2556.897          33.000    23328454.121 9                      1987.719          28.000                                                                  
S28  39120187.572 9                      -515.734          36.000  
E26  24819268.292 1 130426154.223 2       465.771          41.000    24819271.825 1  99936922.277 3       356.675          36.000  
S37  38314769.885 1 201345467.77023      -486.377          38.000  
C 7  38629271.374 4                      -331.858          38.000    38629263.157 9                      -255.864          34.000  
C27  23433687.463 4                     -1616.443          30.000                                                                  
E 1  27169435.386 4 142776407.588 4       779.257          37.000    27169440.455 8                       595.968          33.000  
E18  21617119.389 1 113598727.302 2      2050.708          43.000    21617120.695 1  87043186.907 2      1571.296          39.000  
J 2  40325029.931 9                       609.281          33.000                                                                  
J 7  38314775.006 2 201345510.053 4      -486.700          35.000    38314772.587 2 156892605.993 4      -378.751          34.000  
E13                                                                  27107558.831 9                     -1768.262          19.000  
E21                                                                  26458714.564 9                      -367.629          17.000  
C 8                                                                  40339332.627 9                       926.893          17.000  
R20                                                                  22686740.347 9                      2144.833          23.000  
R18                                                                  23995747.812 9                     -3452.587          21.000  
G27                                                                  25014308.471 9                     -2771.428          16.000                                                                  
J 3                                                                  40439423.644 9                     -1038.448          13.000  
> 2021  5 17  2 33 40.0060000  0 27                     
G 7  22857745.694 1 120118275.239 3      1675.041          41.000    22857743.946 4  93598652.996 5      1304.861          34.000                                                                  
G 9  24800892.995 9                     -2530.918          34.000    24800887.768 9                     -1959.783          23.000                                                                  
G16  26085837.518 9                     -2249.608          14.000                                                                                                                                  
G21  22379575.676 1 117605471.503 2       339.463          41.000                                                                                                                                  
G30  25915065.960 8                      2804.781          30.000    25915070.884 8                      2185.948          27.000                                                                  
C10  39157010.996 1 203900831.614 3      -456.648          37.000    39157005.426 2                      -352.861          34.000  
C30  24331209.479 9                      1226.166          36.000                                                                  
C 9  38469688.650 9                     -1820.005          28.000    38469691.180 9                     -1409.630          29.000  
R16  21978398.300 9                      -423.803          22.000    21978386.699 9                      -332.031          15.000  
R 9  22866927.588 9                      2150.850          29.000    22866923.825 9                      1643.151          26.000  
R19  21174185.805 4                     -1693.465          31.000    21174182.285 4                     -1317.822          31.000  
G 8  22866805.310 8                     -2447.438          29.000    22866809.596 9                     -1908.620          27.000                                                                  
S28  39120341.993 9                      -514.697          36.000  
E26  24819179.668 1 130425687.877 3       465.469          41.000    24819183.104 1  99936564.916 3       356.681          36.000  
S37  38314862.033 1 201345952.719 3      -485.354          38.000  
C 7  38629336.335 8                      -335.033          21.000    38629329.090 9                      -257.944          21.000  
C27  23434001.088 4                     -1617.977          34.000                                                                  
E 1  27169290.146 4 142775629.203 4       778.128          38.000    27169292.726 4                       596.040          33.000  
E18  21616729.114 1 113596676.720 2      2049.407          43.000    21616730.460 1  87041615.673 2      1570.374          39.000  
J 3  40439681.001 9                     -1332.745          34.000    40439677.242 9                     -1034.517          18.000  
J 2  40324920.558 9                       611.777          30.000                                                                  
J 7  38314867.327 2 201345994.991 4      -485.729          34.000    38314864.908 2 156892983.872 5      -378.026          34.000  
E13                                                                  27107996.966 9                     -1759.239          16.000  
E21                                                                  26458807.421 9                      -357.136          15.000  
R20                                                                  22686239.556 9                      2135.254          22.000  
R18                                                                  23996580.121 9                     -3449.159          14.000  
G27                                                                  25014992.294 9                     -2800.552          13.000                                                                  
> 2021  5 17  2 33 41.0060000  0 26                     
G 7  22857426.989 1 120116600.636 3      1674.313          42.000    22857425.219 2  93597348.043 5      1305.454          33.000                                                                  
G 9  24801409.543 9                     -2532.992          38.000    24801401.411 9                     -1975.673          29.000                                                                  
G16  26086257.541 9                     -2230.816          15.000                                                                                                                                  
G21  22379511.101 1 117605132.079 3       337.573          41.000                                                                                                                                  
G30  25914532.744 8                      2806.483          29.000    25914536.563 9                      2186.817          26.000                                                                  
C10  39157098.553 1 203901287.580 4      -455.348          36.000    39157093.194 2 157669393.457 5      -352.396          34.000  
C30  24330970.598 8                      1224.114          33.000                                                                  
C 9  38470040.114 9                     -1796.900          25.000                                                                  
R16  21978479.629 9                      -422.858          24.000    21978465.178 9                      -327.185          17.000  
R 9  22866529.472 9                      2111.444          26.000    22866524.324 9                      1681.779          23.000  
R19  21174502.227 4                     -1694.867          31.000    21174498.663 4                     -1317.855          30.000  
G 8  22867279.305 8                     -2448.405          33.000    22867279.871 9                     -1907.462          28.000                                                                  
S28  39120461.248 9                      -517.480          32.000  
E26  24819091.155 1 130425222.219 3       464.229          41.000    24819094.389 1  99936208.103 3       356.069          36.000  
S37  38314954.366 1 201346437.890 3      -485.822          38.000  
C 7  38629408.926 8                      -330.616          30.000    38629397.352 9                      -257.090          22.000  
C27  23434311.363 4                     -1618.769          29.000                                                                  
E 1  27169143.917 4 142774851.016 4       778.529          38.000    27169145.407 2 109398885.44615       595.885          34.000  
E18  21616339.339 1 113594627.168 3      2048.818          43.000    21616340.440 1  87040045.239 3      1569.657          39.000  
J 3  40439930.233 9                     -1327.773          28.000    40439930.916 9                     -1039.476          31.000  
J 2  40324802.468 9                       607.510          36.000    40324807.843 9                       473.891          29.000  
J 7  38314959.711 2 201346480.170 5      -486.210          34.000    38314957.298 2                      -378.414          34.000  
E13                                                                  27108435.011 9                     -1759.239          15.000  
E21                                                                  26458904.354 9                      -369.200          20.000  
R20                                                                  22685731.670 9                      2140.093          20.000  
G27                                                                  25015672.580 9                     -2738.052          12.000                                                                  
> 2021  5 17  2 33 42.0060000  0 28                     
G 7  22857108.276 1 120114925.785 3      1675.111          41.000    22857106.443 4                      1304.890          33.000                                                                  
G 1  23326996.664 9                      2569.271          26.000                                                                                                                                  
G 9  24801910.145 9                     -2547.667          30.000    24801896.229 9                     -1972.380          28.000                                                                  
G16  26086680.867 9                     -2231.625          16.000                                                                                                                                  
G21  22379446.650 1 117604793.566 3       337.768          41.000                                                                                                                                  
G30  25913998.614 8                      2806.430          28.000    25914003.696 8                      2186.808          27.000                                                                  
C10  39157186.079 1 203901742.873 4      -454.898          36.000    39157180.603 2 157669745.522 5      -352.525          34.000  
C30  24330738.105 9                      1208.798          28.000                                                                  
C 8  40338597.296 9                      1271.348          23.000                                                                  
C 9  38470396.866 9                     -1834.881          25.000                                                                  
R16  21978558.602 9                      -427.105          34.000    21978546.178 9                      -339.952          20.000  
R 9  22866133.350 9                      2113.477          31.000    22866129.556 9                      1644.802          24.000  
R19  21174818.727 4                     -1694.736          31.000    21174815.293 4                     -1317.282          30.000  
G 8  22867749.321 4                     -2446.661          32.000    22867750.203 9                     -1896.612          26.000                                                                  
G27  25016445.861 9                     -3537.883          31.000    25016352.044 9                     -2765.391          14.000                                                                  
S28  39120551.634 9                      -516.533          38.000  
E26  24819002.827 1 130424757.168 3       464.350          41.000    24819005.998 1  99935851.754 3       356.396          37.000  
S37  38315046.728 1 201346923.328 4      -485.770          38.000  
C 7  38629475.432 4                      -330.818          32.000    38629462.390 8                      -255.508          25.000  
C27  23434620.197 8                     -1616.185          34.000                                                                  
E21  26458994.026 9                      -483.658          31.000    26459000.551 8                      -367.405          28.000  
E 1  27168993.565 4 142774072.135 3       779.351          40.000    27168997.316 1 109398288.615 4       597.189          37.000  
E18  21615949.313 1 113592578.008 2      2048.420          44.000    21615950.742 1  87038475.124 3      1569.434          39.000  
J 3  40440181.299 8                     -1333.293          43.000    40440184.425 8                     -1039.874          32.000  
J 2  40324682.454 8                       612.451          31.000    40324689.527 8                       472.524          33.000  
J 7  38315052.285 2 201346965.620 5      -485.970          34.000    38315049.708 2 156893740.182 5      -378.575          35.000  
E13  27108895.774 9                     -2308.788          31.000                                                                  
R20                                                                  22685223.877 9                      2122.316          18.000  
> 2021  5 17  2 33 43.0060000  0 26                     
G 7  22856789.466 1 120113250.808 3      1675.812          41.000    22856787.844 4  93594737.818 5      1306.283          34.000                                                                  
G 1  23326507.534 9                      2569.271          26.000    23326479.106 9                      2012.586          25.000                                                                  
G 9  24802396.182 9                     -2555.896          30.000    24802384.721 9                     -1955.005          27.000                                                                  
G16  26087101.564 9                     -2224.542          15.000                                                                                                                                  
G21  22379382.509 1 117604456.258 3       337.296          41.000                                                                                                                                  
G30  25913464.908 8                      2807.139          28.000    25913469.275 8                      2187.159          26.000                                                                  
C10  39157273.388 1 203902197.338 4      -453.143          36.000    39157267.992 2 157670096.924 4      -350.624          34.000  
C30  24330504.502 9                      1212.206          28.000                                                                  
C 9  38470760.477 9                     -1804.070          24.000                                                                  
R16  21978632.305 8                      -426.749          37.000    21978626.950 9                      -332.523          25.000  
R 9  22865739.856 9                      2115.768          31.000    22865735.836 9                      1645.931          26.000  
R19  21175135.398 4                     -1694.218          31.000    21175132.083 4                     -1317.822          33.000  
G 8  22868218.554 4                     -2447.305          27.000    22868214.544 9                     -1889.231          23.000                                                                  
S28  39120649.323 9                      -522.119          30.000  
E26  24818914.296 1 130424293.025 3       464.311          41.000    24818917.555 1  99935496.131 3       355.808          36.000  
S37  38315139.167 1 201347409.337 4      -485.740          38.000  
C 7  38629537.635 4                      -330.070          31.000    38629528.295 8                      -255.139          26.000  
C27  23434929.668 4 122031834.88334     -1617.802          45.000                                                                  
E21  26459060.348 9                      -478.820          35.000                                                                  
E 1  27168845.620 2 142773292.426 3       780.868          40.000    27168848.526 1 109397691.164 4       597.809          36.000  
E18  21615559.429 1 113590529.292 2      2049.038          44.000    21615561.163 1  87036905.332 2      1569.959          39.000  
J 3  40440431.964 8                     -1332.634          40.000    40440435.983 8                     -1038.601          36.000  
J 2  40324565.082 8                       607.905          44.000    40324566.640 8                       473.308          34.000  
J 7  38315144.819 2 201347451.626 5      -485.629          34.000    38315142.255 2 156894118.927 4      -379.196          35.000  
R20                                                                  22684707.560 9                      2148.966          16.000  
G27                                                                  25017035.694 9                     -2758.223          17.000                                                                  
> 2021  5 17  2 33 44.0060000  0 29                     
G 7  22856470.825 1 120111575.520 3      1676.391          41.000    22856468.885 2  93593432.407 4      1306.212          34.000                                                                  
G 1  23326014.896 9                      2569.271          26.000                                                                                                                                  
G 9  24802867.130 9                     -2560.930          41.000    24802867.193 9                     -1987.484          26.000                                                                  
G16  26087521.904 9                     -2209.789          16.000                                                                                                                                  
G21  22379318.548 1 117604120.217 3       335.153          42.000                                                                                                                                  
G30  25912932.947 4                      2808.396          28.000    25912934.993 8                      2187.781          27.000                                                                  
C10  39157360.545 1 203902650.925 4      -452.257          37.000    39157355.251 1 157670447.698 4      -350.841          33.000  
C30  24330265.584 9                      1202.645          29.000                                                                  
C 8  40338142.351 9                      1227.924          29.000    40338150.415 9                       946.753          28.000  
C 9  38471122.346 9                     -1831.250          25.000                                                                  
C16  39906508.271 9                     -2094.576          31.000    39906528.825 9                     -1624.553          28.000  
R16  21978714.102 9                      -428.810          29.000    21978706.090 9                      -357.919          23.000  
R 9  22865345.792 8                      2117.562          37.000    22865340.405 9                      1646.284          27.000  
R19  21175452.331 4 113274392.006 5     -1694.737          32.000    21175448.791 4                     -1318.155          32.000  
G 8  22868681.143 4                     -2447.141          27.000    22868675.755 9                     -1905.188          18.000                                                                  
S28  39120746.870 9                      -531.348          30.000  
E26  24818825.859 1 130423829.809 3       463.368          41.000    24818829.220 1  99935141.201 3       355.109          36.000  
S37  38315231.723 1 201347896.065 3      -486.507          38.000  
C 7  38629602.682 4                      -329.096          31.000    38629591.059 8                      -255.867          26.000  
C27  23435240.609 2 122033453.20823     -1618.231          45.000                                                                  
E21  26459156.807 8                      -478.973          32.000                                                                  
E 1  27168697.298 1 142772511.720 3       781.085          40.000    27168699.755 1 109397092.941 3       598.779          36.000  
E18  21615169.326 1 113588480.998 2      2048.480          43.000    21615171.173 1  87035335.844 2      1569.715          40.000  
J 3  40440685.541 2 212517253.38514     -1332.814          43.000    40440690.121 4 165597873.07915     -1038.454          36.000  
E33  27863070.007 9                      2345.453          34.000                                                                  
J 2  40324448.237 4 211906411.99134       607.738          42.000    40324447.393 8                       473.267          35.000  
J 7  38315237.509 2 201347938.336 5      -486.392          34.000    38315234.957 1 156894498.141 4      -379.128          36.000  
R20                                                                  22684191.772 9                      2158.553          16.000  
G27                                                                  25017711.203 9                     -2781.233          15.000                                                                  
> 2021  5 17  2 33 45.0060000  0 26                     
G 7  22856151.580 1 120109897.942 4      1679.941          41.000    22856149.716 2  93592125.213 5      1309.501          34.000                                                                  
G 1  23325520.793 9                      2569.271          25.000                                                                                                                                  
G 9  24803354.286 9                     -2550.055          30.000    24803351.688 9                     -1987.555          26.000                                                                  
G16  26087945.868 9                     -2258.180          16.000                                                                                                                                  
G21  22379255.183 1 117603787.371 3       329.804          42.000                                                                                                                                  
G30  25912400.151 9                      2816.043          26.000    25912399.971 8                      2194.880          26.000                                                                  
C10  39157447.159 1 203903101.290 3      -447.224          37.000    39157441.809 2 157670795.951 5      -346.822          34.000  
C30  24330033.021 9                      1199.399          26.000                                                                  
C 9  38471469.170 9                     -1822.813          23.000                                                                  
C16  39906917.177 9                     -2095.801          31.000                                                                  
R16  21978794.630 9                      -458.607          27.000    21978789.620 9                      -354.524          20.000  
R 9  22864953.039 8                      2122.198          37.000    22864945.125 9                      1650.801          28.000  
R19  21175769.256 2 113276087.715 5     -1696.480          32.000    21175765.721 4                     -1319.240          31.000  
G 8  22869148.390 8                     -2444.106          28.000    22869138.282 9                     -1893.800          18.000                                                                  
S28  39120847.530 9                      -520.215          28.000  
E26  24818738.174 1 130423368.939 3       458.383          41.000    24818741.604 1  99934788.082 4       351.349          36.000  
S37  38315324.827 1 201348385.350 4      -492.459          40.000  
C 7  38629666.916 4                      -327.148          30.000    38629655.364 8                      -250.413          27.000  
C27  23435550.963 2 122035071.01412     -1618.873          44.000                                                                  
E 1  27168549.814 1 142771727.321 3       787.733          41.000    27168550.990 1 109396491.894 3       603.918          38.000  
E18  21614779.664 1 113586432.127 3      2049.427          43.000    21614781.267 1  87033765.910 3      1570.338          40.000  
J 3  40440939.477 1 212518587.417 3     -1334.778          42.000    40440942.052 4 165598912.614 5     -1039.895          34.000  
J 2  40324330.717 4                       597.425          27.000    40324331.827 4                       472.714          26.000  
J 7  38315330.557 2 201348427.621 4      -492.540          35.000    38315328.108 2 156894879.388 5      -383.794          35.000  
R20                                                                  22683673.430 9                      2158.551          21.000  
G27                                                                  25018393.363 9                     -2792.467          15.000                                                                  
> 2021  5 17  2 33 46.0060000  0 28                     
G 7  22855831.315 1 120108214.861 3      1686.743          41.000    22855829.468 2  93590813.798 5      1313.288          34.000                                                                  
G 1  23325022.184 9                      2580.867          25.000                                                                                                                                  
G 9  24803841.416 9                     -2543.233          22.000    24803837.854 9                     -1975.474          25.000                                                                  
G16  26088372.552 9                     -2237.652          17.000                                                                                                                                  
G21  22379192.913 1 117603460.157 2       323.874          42.000                                                                                                                                  
G30  25911867.374 9                      2823.721          26.000    25911862.051 8                      2204.507          25.000                                                                  
C10  39157532.282 1 203903544.799 3      -439.195          37.000    39157527.308 1 157671138.904 4      -340.086          35.000  
C30  24329793.016 9                      1229.395          24.000                                                                  
C 9  38471813.207 9                     -1833.661          21.000                                                                  
C16  39907280.800 9                     -2104.558          34.000    39907290.445 9                     -1624.192          30.000  
R16  21978875.865 9                      -430.748          25.000    21978874.286 9                      -343.327          16.000  
R 9  22864555.472 8                      2136.990          29.000    22864546.689 9                      1664.823          17.000  
R19  21176086.055 4                     -1694.006          32.000    21176082.863 4                     -1316.977          31.000  
R20  22683134.072 9                      2767.456          24.000    22683148.227 9                      2153.870          33.000  
G 8  22869609.944 9                     -2438.470          32.000    22869601.237 9                     -1902.302          17.000                                                                  
G 4  25481503.373 9                     -3384.723          25.000                                                                                                                                  
G27  25019180.141 9                     -3565.701          22.000    25019076.095 9                     -2780.629          14.000                                                                  
S28  39120945.789 9                      -510.822          28.000  
E26  24818651.425 1 130422912.176 2       454.502          41.000    24818654.715 1  99934438.100 3       348.270          37.000  
S37  38315418.873 1 201348879.642 3      -497.607          38.000  
C 7  38629727.216 9                      -312.133          22.000    38629717.607 9                      -256.095          24.000  
C27  23435861.731 2 122036688.349 3     -1616.896          43.000                                                                  
E21  26459352.154 9                      -487.299          28.000                                                                  
E 1  27168398.852 1 142770935.226 2       796.414          41.000    27168400.865 1 109395884.973 3       610.004          36.000  
E18  21614389.544 1 113584381.030 2      2052.421          43.000    21614390.898 1  87032194.319 3      1572.496          40.000  
J 3  40441193.813 2                     -1337.514          34.000    40441195.617 8                     -1042.774          25.000  
J 2  40324223.136 4                       605.330          26.000                                                                  
J 7  38315424.507 1 201348921.895 4      -497.183          35.000    38315422.158 2 156895264.565 5      -387.079          36.000  
> 2021  5 17  2 33 47.0060000  0 30                     
G 7  22855509.663 1 120106524.559 3      1693.764          40.000    22855507.752 2  93589496.609 4      1319.750          34.000                                                                  
G 1  23324528.594 9                      2580.867          25.000                                                                                                                                  
G 9  24804322.518 9                     -2523.968          23.000    24804320.809 9                     -1977.573          24.000                                                                  
G16  26088801.874 9                     -2216.869          19.000                                                                                                                                  
G21  22379131.831 1 117603139.530 2       316.774          42.000                                                                                                                                  
G30  25911331.467 9                      2842.401          27.000    25911323.054 8                      2213.763          26.000                                                                  
C10  39157615.846 1 203903979.535 3      -430.025          37.000    39157610.837 1 157671475.018 3      -332.660          36.000  
C30  24329546.976 9                      1219.576          30.000                                                                  
C 9  38472134.032 9                     -1823.388          29.000                                                                  
C16  39907685.883 9                     -2108.480          35.000    39907683.624 9                     -1630.942          31.000  
R16  21978961.993 9                      -436.001          21.000    21978959.064 9                      -350.481          13.000  
R 9  22864154.849 9                      2140.197          30.000    22864146.250 9                      1665.870          17.000  
R19  21176402.620 4                     -1693.763          33.000    21176399.827 4                     -1319.307          31.000  
R20  22682613.993 9                      2764.441          26.000    22682615.595 9                      2150.604          29.000  
G 8  22870070.343 8                     -2433.705          35.000    22870064.650 9                     -1891.712          18.000                                                                  
G 4  25482153.783 9                     -3384.723          25.000                                                                                                                                  
G27  25019860.491 9                     -3576.199          23.000                                                                                                                                  
S28  39121043.566 9                      -514.258          28.000  
E26  24818565.270 1 130422460.082 2       449.902          42.000    24818568.760 1  99934091.690 3       344.679          37.000  
S37  38315514.106 1 201349379.957 3      -503.969          38.000  
C 7  38629780.960 9                      -321.136          23.000    38629777.320 9                      -249.285          25.000  
C27  23436171.257 2 122038304.176 3     -1614.375          43.000                                                                  
E21  26459442.550 9                      -484.871          26.000                                                                  
E 1  27168246.383 1 142770133.310 2       807.323          39.000    27168248.341 1 109395270.534 3       618.422          37.000  
E18  21613998.525 1 113582326.646 2      2055.827          43.000    21613999.974 1  87030620.157 2      1575.292          40.000  
J 2  40324110.453 9                       591.259          25.000                                                                  
J 7  38315519.735 1 201349422.197 4      -503.016          35.000    38315517.407 1 156895654.458 4      -393.350          36.000  
J 1  39165850.201 9                      -877.445          18.000                                                                  
E13  27111112.826 9                     -2313.446          32.000    27111109.627 9                     -1769.814          30.000  
J 3                                                                  40441451.741 9                     -1028.272          23.000  
> 2021  5 17  2 33 48.0060000  0 30                     
G 7  22855186.788 1 120104827.368 2      1699.602          42.000    22855185.003 2  93588174.120 4      1324.739          34.000                                                                  
G 1  23324034.326 9                      2580.867          24.000                                                                                                                                  
G 9  24804804.684 9                     -2533.809          24.000    24804803.304 9                     -1964.046          22.000                                                                  
G16  26089224.584 9                     -2218.488          20.000                                                                                                                                  
G21  22379072.272 1 117602825.993 2       310.266          42.000                                                                                                                                  
G30  25910784.738 8                      2849.139          26.000    25910781.213 8                      2221.504          25.000                                                                  
C10  39157697.654 1 203904405.881 3      -423.625          36.000    39157692.782 1 157671804.667 3      -326.670          35.000  
C30  24329307.929 9                      1224.799          23.000                                                                  
C 9  38472474.811 8 200336321.97134     -1825.231          33.000                                                                  
C16  39908088.190 9 207811901.10934     -2114.841          37.000    39908088.268 8                     -1634.805          33.000  
R16  21979046.845 9                      -446.804          19.000                                                                  
R18  24003337.532 9                     -4427.612          26.000                                                                  
R 9  22863754.935 8                      2148.092          29.000    22863741.218 9                      1670.831          23.000  
R19  21176719.282 2                     -1693.768          34.000    21176716.499 4                     -1317.919          32.000  
R15  25112179.515 9                     -2932.811          26.000                                                                  
R20  22682089.761 9                      2758.051          32.000    22682091.690 9                      2146.638          28.000  
G 8  22870529.083 4 120185441.29634     -2431.240          38.000    22870527.804 9                     -1896.111          29.000                                                                  
G 4  25482779.563 9                     -3384.723          25.000                                                                                                                                  
G27  25020562.408 9                     -3576.199          25.000                                                                                                                                  
S28  39121138.901 9                      -478.174          27.000  
E26  24818480.437 1 130422013.245 2       444.695          41.000    24818483.717 1  99933749.304 3       340.919          37.000  
S37  38315610.704 1 201349886.837 2      -509.490          40.000  
C 7  38629834.426 8                      -315.198          34.000    38629834.487 8                      -243.688          27.000  
C27  23436481.574 1 122039918.847 2     -1614.489          44.000                                                                  
E 1  27168091.738 1 142769321.912 2       814.366          40.000    27168093.743 1 109394648.804 3       624.359          37.000  
E18  21613606.925 1 113580269.389 2      2058.408          43.000    21613608.397 1  87029043.823 2      1577.009          40.000  
J 7  38315616.106 1 201349929.085 3      -509.148          36.000    38315613.815 1 156896049.399 3      -396.841          36.000  
J 1  39165996.608 9                      -877.445          19.000                                                                  
E13  27111540.463 9                     -2317.808          26.000    27111546.994 8                     -1770.587          28.000  
J 3                                                                  40441706.617 9                     -1051.767          19.000  
> 2021  5 17  2 33 49.0060000  0 29                     
G 7  22854863.130 1 120103127.103 2      1700.253          41.000    22854861.554 2  93586849.234 5      1325.572          34.000                                                                  
G 9  24805285.776 9                     -2534.348          24.000    24805288.102 9                     -1977.780          21.000                                                                  
G16  26089651.313 9                     -2229.096          21.000                                                                                                                                  
G21  22379013.275 1 117602516.384 2       309.386          43.000                                                                                                                                  
G30  25910242.497 8                      2853.928          27.000    25910238.969 8                      2224.724          24.000                                                                  
C10  39157778.824 1 203904827.993 3      -421.561          37.000    39157773.857 1 157672131.103 3      -326.371          35.000  
C30  24329059.501 9                      1220.595          22.000                                                                  
C 9  38472823.450 4 200338147.33325     -1825.349          32.000    38472786.255 8 154913967.76833     -1411.447          38.000  
C16  39908502.034 8 207814015.98523     -2114.457          37.000    39908489.550 8                     -1636.046          31.000  
R16  21979127.031 9                      -451.012          17.000                                                                  
R18  24004168.773 9                     -4428.418          27.000                                                                  
R 9  22863353.001 8                      2149.506          30.000    22863346.390 9                      1670.736          25.000  
R19  21177036.123 2 113282866.452 4     -1695.549          35.000    21177033.083 4  88108880.74515     -1318.694          33.000  
R15  25112723.851 9                     -2931.756          27.000                                                                  
R20  22681571.574 8 121288555.67235      2758.112          33.000    22681569.097 9                      2144.920          26.000  
G 8  22870990.113 4 120187864.05922     -2430.674          40.000    22870989.538 8                     -1893.808          27.000                                                                  
G 4  25483434.383 9                     -3376.575          27.000                                                                                                                                  
G27  25021238.878 9                     -3576.199          23.000                                                                                                                                  
E26  24818395.812 1 130421569.273 2       443.794          41.000    24818399.041 1  99933409.113 3       339.815          36.000  
S37  38315707.888 1 201350397.012 2      -509.897          40.000  
C 7  38629899.308 4 201155998.72734      -313.335          36.000    38629893.112 8                      -241.840          30.000  
C27  23436791.892 1 122041533.191 2     -1614.386          44.000                                                                  
E 1  27167936.365 1 142768505.762 2       816.411          40.000    27167938.136 1 109394023.440 3       625.625          37.000  
E33  27860940.279 9                      2324.152          26.000                                                                  
E18  21613214.812 1 113578211.159 1      2058.196          43.000    21613216.749 1  87027466.746 2      1576.857          39.000  
J 7  38315713.182 1 201350439.282 3      -509.941          36.000    38315710.930 1 156896446.937 4      -397.424          35.000  
J 1  39166152.393 9                      -877.445          20.000                                                                  
E13                                                                  27111988.371 8                     -1770.180          27.000  
J 3                                                                  40441963.756 9                     -1040.982          15.000  
> 2021  5 17  2 33 50.0060000  0 29                     
G 7  22854539.665 1 120101427.192 2      1699.664          41.000    22854538.298 2  93585524.651 4      1323.947          34.000                                                                  
G 9  24805761.720 9                     -2528.341          24.000    24805772.146 9                     -1972.960          20.000                                                                  
G16  26090075.413 9                     -2237.755          21.000                                                                                                                                  
G21  22378954.453 1 117602207.523 1       308.612          43.000                                                                                                                                  
G30  25909700.305 8                      2853.892          28.000    25909695.231 9                      2222.948          24.000                                                                  
C10  39157859.852 1 203905249.990 4      -422.210          37.000    39157854.920 1 157672457.428 3      -326.418          35.000  
C30  24328812.619 9                      1228.162          21.000                                                                  
C 9  38473167.783 4                     -1825.473          32.000    38473139.811 8 154915379.46323     -1411.972          38.000  
C16  39908905.686 4 207816131.02923     -2115.290          37.000    39908896.834 4                     -1635.498          31.000  
R16  21979210.958 9                      -449.754          16.000                                                                  
R18  24004993.941 9                     -4429.104          28.000                                                                  
R 9  22862951.731 8                      2148.915          30.000    22862949.509 9                      1671.199          25.000  
R19  21177353.080 2 113284561.809 4     -1696.399          35.000    21177349.919 4  88110199.351 4     -1319.611          33.000  
R15  25113267.519 9                     -2932.482          27.000                                                                  
R20  22681053.805 8 121285798.06625      2757.245          33.000    22681043.051 9                      2143.751          25.000  
G 8  22871453.884 4 120190295.04322     -2431.042          40.000    22871451.492 8                     -1894.829          27.000                                                                  
G 4  25484075.213 9                     -3376.739          27.000                                                                                                                                  
G27  25021918.377 9                     -3576.199          21.000    25021793.399 9                     -2767.403          10.000                                                                  
E26  24818311.224 1 130421125.855 2       443.247          41.000    24818314.396 1  99933069.376 3       338.853          35.000  
S37  38315805.042 1 201350907.359 2      -510.496          40.000  
C 7  38629958.202 4 201156312.56824      -313.643          36.000    38629952.825 4 155546820.46535      -242.340          30.000  
C27  23437101.788 1 122043147.980 1     -1615.027          43.000                                                                  
E 1  27167780.953 1 142767689.522 2       816.132          40.000    27167782.744 1 109393398.023 3       625.366          36.000  
E33  27860498.980 9                      2323.608          27.000                                                                  
E18  21612823.208 1 113576153.681 1      2057.120          43.000    21612825.101 1  87025890.237 2      1575.964          39.000  
J 7  38315810.368 1 201350949.639 3      -510.511          36.000    38315808.100 2 156896844.599 4      -397.605          35.000  
J 1  39166313.002 9                      -877.445          20.000                                                                  
E13                                                                  27112428.037 4                     -1770.231          26.000  
J 3                                                                  40442220.940 9                     -1055.152          14.000  
> 2021  5 17  2 33 51.0060000  0 29                     
G 7  22854216.248 1 120099727.773 2      1699.292          41.000    22854214.899 2  93584200.402 4      1324.170          33.000                                                                  
G 9  24806243.781 9                     -2527.210          24.000    24806255.700 9                     -1965.777          20.000                                                                  
G16  26090499.935 9                     -2221.104          20.000                                                                                                                                  
G21  22378895.868 1 117601899.339 1       308.101          43.000                                                                                                                                  
G30  25909156.994 8 136153535.85435      2853.390          28.000    25909151.453 9                      2222.120          23.000                                                                  
C10  39157940.825 1 203905671.938 3      -421.608          36.000    39157936.008 1 157672783.675 3      -325.256          35.000  
C30  24328570.024 9                      1225.533          20.000                                                                  
C 9  38473502.344 4                     -1826.115          31.000    38473488.255 4 154916791.25322     -1411.466          38.000  
C16  39909309.190 4 207818246.13924     -2114.820          37.000    39909303.407 4                     -1634.854          31.000  
R16  21979295.243 9                      -445.024          15.000                                                                  
R18  24005822.308 9                     -4428.659          28.000    24005860.163 9                     -3446.620          16.000  
R 9  22862549.013 8                      2150.124          30.000    22862548.713 9                      1669.380          25.000  
R19  21177669.911 2 113286258.006 4     -1696.342          35.000    21177666.877 4  88111518.620 5     -1319.734          33.000  
R15  25113811.132 9                     -2933.801          27.000                                                                  
R20  22680535.879 8 121283041.098 5      2756.433          33.000    22680516.629 9                      2146.197          24.000  
G 8  22871917.091 4 120192726.33122     -2431.590          40.000    22871914.549 8                     -1894.140          27.000                                                                  
G 4  25484722.768 9                     -3376.147          27.000                                                                                                                                  
G27  25022595.889 9                     -3576.199          20.000                                                                                                                                  
E26  24818226.830 1 130420682.942 2       442.746          41.000    24818230.012 1  99932729.983 3       339.440          35.000  
S37  38315902.195 1 201351417.728 2      -510.123          40.000  
C 7  38630016.785 4 201156625.90513      -313.970          35.000    38630011.773 4                      -241.758          30.000  
C27  23437411.898 1 122044763.236 1     -1615.458          43.000                                                                  
E 1  27167625.724 1 142766873.283 2       816.278          40.000    27167627.405 1 109392772.599 3       625.534          36.000  
E33  27860057.457 9                      2323.250          27.000                                                                  
E18  21612431.814 1 113574097.019 1      2056.493          43.000    21612433.786 1  87024314.345 2      1575.704          39.000  
J 7  38315907.451 1 201351460.006 3      -510.571          36.000    38315905.229 1 156897242.304 4      -397.874          35.000  
J 1  39166477.978 9                      -877.445          20.000                                                                  
E13                                                                  27112869.373 4                     -1771.458          25.000  
J 3                                                                  40442479.418 9                     -1056.417          13.000  
> 2021  5 17  2 33 52.0060000  0 29                     
G 7  22853892.760 1 120098028.822 2      1698.839          41.000    22853891.566 2  93582876.530 4      1324.425          33.000                                                                  
G 9  24806720.718 9                     -2530.360          25.000    24806736.282 9                     -1978.163          20.000                                                                  
G16  26090924.093 9                     -2236.285          19.000                                                                                                                                  
G21  22378837.363 1 117601591.840 1       307.250          43.000                                                                                                                                  
G30  25908615.680 8                      2854.228          29.000    25908606.776 9                      2224.020          23.000                                                                  
C10  39158021.815 1 203906093.877 3      -422.202          36.000    39158017.095 1 157673109.974 4      -325.960          35.000  
C30  24328329.047 9                      1216.302          20.000                                                                  
C 9  38473841.832 4                     -1826.679          32.000    38473838.652 4 154918203.216 3     -1411.847          38.000  
C16  39909715.308 4 207820361.388 3     -2115.431          36.000    39909711.659 4                     -1635.935          31.000  
R16  21979378.996 9                      -448.585          15.000                                                                  
R18  24006648.236 9                     -4429.076          28.000    24006686.928 9                     -3446.620          17.000  
R 9  22862145.848 8                      2147.880          30.000    22862147.619 9                      1669.967          25.000  
R19  21177987.163 2 113287955.113 4     -1698.041          35.000    21177984.045 4  88112838.625 5     -1320.540          33.000  
R15  25114355.713 9                     -2933.377          28.000                                                                  
R20  22680017.753 8 121280284.775 5      2755.975          33.000    22679991.621 9                      2145.025          24.000  
G 8  22872378.749 2 120195157.92422     -2431.778          40.000    22872377.660 8                     -1894.987          26.000                                                                  
G 4  25485367.291 9                     -3376.135          26.000                                                                                                                                  
G27  25023273.394 9                     -3576.199          20.000                                                                                                                                  
E26  24818142.899 1 130420240.534 2       442.014          41.000    24818145.746 1  99932390.996 3       338.658          35.000  
S37  38315999.430 1 201351928.169 2      -510.426          40.000  
C 7  38630077.506 4 201156939.670 4      -313.688          35.000    38630071.517 4                      -242.936          30.000  
C27  23437722.029 1 122046378.970 2     -1616.144          42.000                                                                  
E 1  27167470.281 1 142766057.073 2       816.010          40.000    27167472.166 1 109392147.171 3       625.272          36.000  
E33  27859614.040 9                      2322.731          28.000                                                                  
E18  21612040.607 1 113572041.146 1      2055.425          43.000    21612042.517 1  87022739.071 2      1574.823          39.000  
J 7  38316004.469 1 201351970.431 3      -510.573          36.000    38316002.308 1 156897640.034 3      -397.510          35.000  
J 1  39166644.445 9                      -877.445          21.000                                                                  
E13                                                                  27113308.318 4                     -1771.081          25.000  
J 3                                                                  40442731.511 9                     -1025.167          12.000  
> 2021  5 17  2 33 53.0060000  0 29                     
G 7  22853569.572 1 120096330.273 2      1697.938          41.000    22853568.208 2  93581552.989 4      1323.747          33.000                                                                  
G 9  24807202.009 9                     -2529.490          26.000    24807216.153 9                     -1967.191          20.000                                                                  
G16  26091348.834 9                     -2230.356          18.000                                                                                                                                  
G21  22378778.933 1 117601284.908 1       306.616          43.000                                                                                                                                  
G30  25908076.401 8                      2853.094          29.000    25908061.662 8                      2223.354          23.000                                                                  
C10  39158102.869 1 203906515.678 3      -421.695          36.000    39158098.130 1 157673436.150 4      -326.561          35.000  
C30  24328090.560 9                      1218.135          21.000                                                                  
C 9  38474189.583 4 200345450.736 5     -1826.699          32.000    38474188.411 4 154919615.224 2     -1412.257          38.000  
C16  39910121.227 2 207822476.612 3     -2115.621          36.000    39910118.705 4                     -1635.574          31.000  
R16  21979463.188 9                      -432.445          13.000                                                                  
R18  24007479.291 9                     -4429.731          29.000    24007515.821 9                     -3446.620          17.000  
R 9  22861745.323 8                      2148.749          30.000    22861745.694 9                      1671.672          26.000  
R19  21178304.518 2 113289652.989 4     -1698.852          35.000    21178301.507 4  88114159.177 5     -1321.356          33.000  
R15  25114899.131 9                     -2933.933          28.000                                                                  
R20  22679500.113 8 121277529.010 5      2755.084          32.000    22679475.585 9                      2144.330          24.000  
G 8  22872841.610 2 120197589.70422     -2432.102          40.000    22872839.572 9                     -1895.012          25.000                                                                  
G 4  25486010.382 8                     -3377.020          26.000                                                                                                                                  
G27  25023949.370 9                     -3576.199          19.000                                                                                                                                  
E26  24818058.730 1 130419798.511 2       441.484          41.000    24818061.540 1  99932052.297 3       338.451          35.000  
S37  38316096.624 1 201352438.545 2      -510.350          40.000  
C 7  38630137.987 2 201157253.324 4      -314.125          35.000    38630132.940 4                      -242.501          30.000  
C27  23438032.274 1 122047995.052 2     -1616.565          42.000                                                                  
E 1  27167314.902 1 142765240.719 2       816.259          40.000    27167316.731 1 109391521.675 3       625.186          37.000  
E33  27859172.748 9                      2322.472          27.000                                                                  
E18  21611649.623 1 113569985.984 1      2054.580          43.000    21611651.395 1  87021164.315 2      1574.319          39.000  
J 3  40442984.514 9                     -1337.929          24.000                                                                  
J 7  38316101.570 1 201352480.796 3      -510.179          36.000    38316099.378 1 156898037.736 3      -397.751          35.000  
J 1  39166810.191 9                      -877.445          21.000                                                                  
E13                                                                  27113749.427 2                     -1771.951          25.000  
> 2021  5 17  2 33 54.0060000  0 28                     
G 7  22853246.392 1 120094632.253 2      1697.696          41.000    22853245.271 2  93580229.875 5      1322.823          34.000                                                                  
G 9  24807682.056 9                     -2529.471          27.000    24807697.269 9                     -1975.476          20.000                                                                  
G16  26091772.700 9                     -2232.568          17.000                                                                                                                                  
G21  22378720.688 1 117600978.745 1       305.760          43.000                                                                                                                                  
G30  25907536.293 8                      2852.627          30.000    25907517.675 8                      2223.574          23.000                                                                  
C10  39158183.924 1 203906937.514 3      -421.853          37.000    39158179.181 1 157673762.321 3      -326.069          35.000  
C30  24327854.501 9                      1215.534          22.000                                                                  
C 9  38474539.751 4                     -1826.286          32.000    38474539.227 2 154921027.411 2     -1412.297          38.000  
C16  39910527.032 2 207824592.036 4     -2115.709          36.000    39910526.811 4                     -1637.192          31.000  
R16  21979545.831 9                      -446.657          12.000                                                                  
R18  24008309.876 9                     -4429.693          29.000    24008348.533 9                     -3446.620          17.000  
R 9  22861342.273 4                      2149.436          31.000    22861343.773 9                      1669.604          25.000  
R19  21178622.055 2 113291351.805 4     -1698.977          35.000    21178619.108 4  88115480.484 5     -1322.139          32.000  
R15  25115445.454 8                     -2934.828          28.000                                                                  
R20  22678983.654 4                      2755.536          31.000    22678959.529 9                      2142.498          24.000  
G 8  22873304.623 1 120200021.83222     -2432.441          40.000    22873301.348 8                     -1893.250          25.000                                                                  
G 4  25486655.672 8                     -3377.515          25.000                                                                                                                                  
G27  25024628.737 9                     -3576.199          18.000                                                                                                                                  
E26  24817974.811 1 130419357.055 2       441.075          41.000    24817977.451 1  99931714.050 4       338.006          35.000  
S37  38316193.831 1 201352949.060 2      -510.953          40.000  
C 7  38630197.945 2 201157566.980 4      -313.593          35.000    38630192.564 4                      -242.612          30.000  
C27  23438342.485 1 122049611.698 2     -1616.784          42.000                                                                  
E 1  27167159.451 1 142764424.472 2       816.343          40.000    27167161.396 1 109390896.245 3       624.954          37.000  
E33  27858731.007 8                      2322.003          27.000                                                                  
E18  21611258.704 1 113567931.697 1      2053.788          43.000    21611260.495 1  87019590.263 2      1573.692          39.000  
J 7  38316198.553 1 201352991.334 3      -510.928          36.000    38316196.535 1 156898435.534 3      -397.893          35.000  
J 1  39166977.850 9                      -877.445          21.000                                                                  
E13                                                                  27114188.825 4                     -1772.192          25.000  
> 2021  5 17  2 33 55.0060000  0 28                     
G 7  22852923.315 1 120092934.803 2      1697.042          41.000    22852922.244 2  93578907.218 5      1322.702          33.000                                                                  
G 9  24808163.076 8                     -2530.408          27.000    24808178.493 9                     -1970.224          21.000                                                                  
G16  26092197.666 9                     -2226.914          17.000                                                                                                                                  
G21  22378662.531 1 117600673.333 1       305.194          42.000                                                                                                                                  
G30  25906989.112 8                      2852.936          30.000    25906974.419 8                      2223.386          24.000                                                                  
C10  39158264.955 1 203907359.398 3      -422.042          36.000    39158260.250 1 157674088.569 3      -326.844          35.000  
C30  24327620.703 9                      1220.871          24.000                                                                  
C 9  38474890.173 2                     -1827.276          32.000    38474889.493 2 154922439.821 3     -1412.491          38.000  
C16  39910933.092 2 207826707.651 3     -2116.436          36.000    39910933.244 2                     -1635.837          31.000  
R16  21979628.930 9                      -439.814          12.000                                                                  
R18  24009142.326 9                     -4430.307          29.000    24009178.716 9                     -3446.620          18.000  
R 9  22860940.343 4                      2148.406          32.000    22860941.763 9                      1671.378          25.000  
R19  21178939.643 2 113293051.629 4     -1700.748          35.000    21178936.898 4  88116802.552 5     -1322.780          32.000  
R15  25115988.313 8                     -2934.372          30.000                                                                  
R20  22678468.305 4                      2753.884          30.000    22678444.830 9                      2142.959          24.000  
G 8  22873767.586 1 120202454.355 2     -2432.632          40.000    22873763.528 9                     -1894.661          24.000                                                                  
G 4  25487299.625 9                     -3375.177          24.000                                                                                                                                  
G27  25025307.557 9                     -3576.199          18.000                                                                                                                                  
E26  24817890.890 1 130418916.199 2       440.560          41.000    24817893.558 1  99931376.228 4       337.768          35.000  
S37  38316291.038 1 201353459.707 2      -511.108          40.000  
C 7  38630258.433 2 201157880.727 4      -313.268          35.000    38630252.477 4                      -243.087          30.000  
C27  23438652.953 1 122051228.901 2     -1617.388          42.000                                                                  
E 1  27167004.295 1 142763608.324 2       816.351          40.000    27167006.109 1 109390270.854 3       625.612          37.000  
E33  27858290.830 8                      2322.458          27.000                                                                  
E18  21610867.726 1 113565878.305 1      2052.887          43.000    21610869.729 1  87018016.889 2      1572.955          39.000  
J 7  38316295.631 1 201353501.981 3      -510.763          36.000    38316293.718 1 156898833.442 3      -398.036          35.000  
J 1  39167143.642 9                      -877.445          21.000                                                                  
E13                                                                  27114628.250 4                     -1772.272          25.000  
> 2021  5 17  2 33 56.0060000  0 26                     
G 7  22852600.300 1 120091237.762 2      1696.705          41.000    22852599.239 2  93577584.845 4      1322.450          33.000                                                                  
G 9  24808645.446 8                     -2529.970          27.000    24808659.878 9                     -1971.758          22.000                                                                  
G16  26092621.087 9                     -2226.622          17.000                                                                                                                                  
G21  22378604.523 1 117600368.534 1       304.745          42.000                                                                                                                                  
G30  25906446.032 8                      2853.384          30.000    25906430.965 8                      2222.478          24.000                                                                  
C10  39158346.080 1 203907781.160 3      -421.399          36.000    39158341.336 1 157674414.703 3      -326.300          35.000  
C30  24327386.737 8                      1222.452          23.000                                                                  
C 9  38475240.871 2                     -1826.459          32.000    38475239.488 2 154923852.289 3     -1412.390          38.000  
C16  39911339.535 1 207828823.248 4     -2115.520          36.000    39911339.381 2                     -1635.817          31.000  
R16  21979711.733 9                      -440.925          12.000                                                                  
R18  24009977.468 9                     -4430.764          29.000                                                                  
R 9  22860538.398 4                      2148.304          32.000    22860540.007 9                      1669.395          26.000  
R19  21179257.512 2 113294752.228 4     -1700.914          35.000    21179254.802 4  88118125.206 5     -1322.452          32.000  
R15  25116531.258 8                     -2936.116          30.000                                                                  
R20  22677952.957 4                      2753.686          30.000    22677933.013 9                      2141.276          26.000  
G 8  22874230.515 1 120204887.085 2     -2432.744          40.000    22874226.038 9                     -1888.764          23.000                                                                  
G27  25025987.115 9                     -3576.199          18.000                                                                                                                                  
E26  24817807.059 1 130418475.756 2       440.337          41.000    24817809.870 1  99931038.768 3       337.461          35.000  
S37  38316388.279 1 201353970.311 2      -510.591          40.000  
C 7  38630318.665 1 201158194.406 4      -313.608          35.000    38630312.750 2                      -242.097          30.000  
C27  23438963.587 1 122052846.503 2     -1617.647          42.000                                                                  
E 1  27166849.253 1 142762792.108 2       816.463          40.000    27166850.812 1 109389645.485 3       625.144          36.000  
E33  27857847.478 8                      2322.437          26.000                                                                  
E18  21610477.339 1 113563825.631 1      2052.384          43.000    21610478.932 1  87016444.042 2      1572.864          39.000  
J 7  38316392.761 1 201354012.575 3      -510.448          36.000    38316390.953 1 156899231.317 4      -397.705          35.000  
E13                                                                  27115068.126 4                     -1772.029          25.000  
> 2021  5 17  2 33 57.0060000  0 26                     
G 7  22852277.366 1 120089541.052 2      1696.306          41.000    22852276.189 2  93576262.723 4      1321.947          33.000                                                                  
G 9  24809128.067 8                     -2530.697          27.000    24809141.566 9                     -1971.498          22.000                                                                  
G16  26093046.626 9                     -2230.786          17.000                                                                                                                                  
G21  22378546.619 1 117600064.257 2       303.787          42.000                                                                                                                                  
G30  25905901.565 8                      2853.101          30.000    25905887.536 9                      2223.317          25.000                                                                  
C10  39158427.058 1 203908202.777 3      -421.731          36.000    39158422.283 1 157674740.711 3      -326.135          35.000  
C30  24327154.018 8                      1219.209          23.000                                                                  
C 9  38475591.638 2 200352756.860 5     -1826.988          32.000    38475590.394 1 154925264.789 3     -1412.350          38.000  
C16  39911745.733 1 207830938.825 3     -2116.193          36.000    39911745.783 2                     -1636.399          32.000  
R16  21979792.816 9                      -431.508          11.000                                                                  
R18  24010811.964 9                     -4430.460          29.000                                                                  
R 9  22860136.267 4                      2148.079          32.000    22860137.385 9                      1670.625          25.000  
R19  21179575.294 2 113296453.601 4     -1702.080          35.000    21179572.739 4  88119448.516 5     -1323.729          32.000  
R15  25117072.740 8                     -2935.287          30.000                                                                  
R20  22677437.919 4                      2752.179          31.000    22677421.212 9                      2141.159          27.000  
G 8  22874693.485 1 120207319.951 2     -2433.212          39.000    22874688.536 9                     -1902.312          22.000                                                                  
G27  25026664.679 9                     -3576.199          17.000                                                                                                                                  
E26  24817723.089 1 130418035.676 2       439.613          41.000    24817726.117 1  99930701.553 3       337.056          35.000  
S37  38316485.480 1 201354480.845 2      -510.761          39.000  
C 7  38630378.833 1 201158507.846 4      -313.178          35.000    38630372.810 2                      -242.365          30.000  
C27  23439274.160 1 122054464.452 1     -1618.340          42.000                                                                  
E 1  27166693.789 1 142761975.746 2       816.125          40.000    27166695.530 1 109389019.917 3       625.603          36.000  
E33  27857405.543 8                      2321.600          26.000                                                                  
E18  21610086.942 1 113561773.609 2      2051.609          43.000    21610088.523 1  87014871.723 2      1572.126          39.000  
J 7  38316489.998 1 201354523.093 3      -510.377          36.000    38316488.089 2 156899629.124 4      -397.687          35.000  
E13                                                                  27115508.875 2                     -1772.554          25.000  
> 2021  5 17  2 33 58.0060000  0 24                     
G 7  22851954.633 1 120087844.685 2      1696.011          42.000    22851953.317 2  93574940.885 4      1321.583          33.000                                                                  
G 9  24809611.514 8                     -2530.543          27.000    24809624.459 9                     -1966.962          22.000                                                                  
G16  26093471.247 9                     -2228.100          16.000                                                                                                                                  
G21  22378488.845 1 117599760.524 2       303.435          42.000                                                                                                                                  
G30  25905357.072 8                      2853.299          30.000    25905344.681 9                      2222.397          24.000                                                                  
C10  39158507.931 1 203908624.194 3      -421.565          37.000    39158503.257 1 157675066.574 3      -325.666          35.000  
C30  24326919.190 8                      1218.823          24.000                                                                  
C 9  38475942.322 2 200354583.489 5     -1826.028          32.000    38475941.044 1 154926677.308 3     -1412.559          38.000  
C16  39912151.851 1 207833054.324 3     -2115.265          36.000    39912152.100 2 160709739.29715     -1636.205          31.000  
R18  24011645.764 8                     -4431.050          29.000                                                                  
R 9  22859734.260 4                      2147.628          32.000    22859736.014 9                      1669.552          25.000  
R19  21179893.477 2 113298155.679 3     -1702.415          35.000    21179890.964 4  88120772.363 5     -1324.045          32.000  
R15  25117611.320 8                     -2935.741          30.000                                                                  
R20  22676922.955 4                      2751.398          31.000    22676911.356 9                      2141.071          28.000  
G 8  22875156.525 1 120209752.932 3     -2432.993          39.000    22875150.723 9                     -1896.873          21.000                                                                  
E26  24817639.695 1 130417595.949 2       439.294          41.000    24817642.358 1  99930364.619 3       336.693          36.000  
S37  38316582.656 1 201354991.260 2      -510.266          40.000  
C 7  38630439.042 2 201158821.129 4      -313.178          34.000    38630433.029 2                      -241.149          30.000  
C27  23439584.714 1 122056082.708 2     -1618.228          42.000                                                                  
E 1  27166538.321 1 142761159.236 2       816.550          40.000    27166540.102 1 109388394.299 3       625.646          36.000  
E33  27856965.105 8                      2323.372          25.000                                                                  
E18  21609696.672 1 113559722.263 1      2051.046          43.000    21609698.286 1  87013299.912 2      1571.695          39.000  
J 7  38316587.137 1 201355033.529 3      -510.334          36.000    38316585.233 1 156900026.873 3      -398.142          35.000  
E13                                                                  27115949.415 2                     -1773.280          25.000  
> 2021  5 17  2 33 59.0060000  0 24                     
G 7  22851631.849 1 120086148.715 2      1695.944          42.000    22851630.619 2  93573619.357 4      1321.636          33.000                                                                  
G 9  24810098.768 8                     -2530.134          27.000    24810105.505 9                     -1971.985          23.000                                                                  
G21  22378431.204 1 117599457.368 2       303.144          42.000                                                                                                                                  
G30  25904813.990 4                      2852.398          30.000    25904800.412 9                      2222.866          24.000                                                                  
C10  39158588.783 1 203909045.502 4      -421.214          36.000    39158584.222 1 157675392.332 3      -325.476          36.000  
C30  24326683.767 8                      1216.845          25.000                                                                  
C 9  38476292.970 2                     -1826.802          31.000    38476291.889 1 154928089.898 3     -1412.340          38.000  
C16  39912558.097 1 207835169.907 3     -2115.196          35.000    39912558.533 2 160711375.136 5     -1635.673          32.000  
R18  24012476.809 8                     -4429.649          30.000                                                                  
R 9  22859332.112 2 122067553.91015      2148.763          32.000    22859331.481 9                      1672.742          25.000  
R19  21180211.808 2 113299858.574 3     -1702.953          35.000    21180209.394 4                     -1325.089          32.000  
R15  25118154.105 8                     -2935.807          30.000                                                                  
R20  22676408.215 2                      2752.405          31.000    22676399.142 9  94313999.88215      2140.370          29.000  
G 8  22875619.510 1 120212186.105 2     -2432.762          39.000    22875611.830 9                     -1897.521          20.000                                                                  
E26  24817556.198 1 130417156.627 2       439.246          41.000    24817558.913 1  99930028.000 3       336.660          36.000  
S37  38316679.857 1 201355501.662 2      -510.053          40.000  
C 7  38630499.178 2 201159134.312 4      -312.995          34.000    38630493.155 2                      -241.528          30.000  
C27  23439895.517 1 122057701.355 2     -1618.471          42.000                                                                  
E21  26460546.680 8                      -482.983          25.000                                                                  
E 1  27166382.814 1 142760342.668 2       816.710          40.000    27166384.721 1 109387768.619 3       625.885          36.000  
E33  27856524.056 8                      2322.086          25.000                                                                  
E18  21609306.481 1 113557671.639 1      2050.482          43.000    21609308.017 1  87011728.657 2      1571.313          39.000  
J 7  38316684.313 1 201355543.939 3      -510.193          36.000    38316682.344 1 156900424.578 4      -397.688          35.000  
E13                                                                  27116389.971 2                     -1773.419          25.000  
> 2021  5 17  2 34  0.0060000  0 25                     
G 7  22851309.167 1 120084452.905 1      1695.482          42.000    22851307.800 2  93572297.927 5      1321.244          33.000                                                                  
G 1  23318253.033 9                      2571.422          21.000                                                                                                                                  
G 9  24810581.831 8                     -2531.007          27.000    24810588.334 9                     -1972.572          24.000                                                                  
G16  26094322.528 9                     -2202.385          13.000                                                                                                                                  
G21  22378373.556 1 117599154.597 1       302.378          43.000                                                                                                                                  
G30  25904270.173 4                      2852.434          29.000    25904256.789 9                      2223.672          23.000                                                                  
C10  39158669.597 1 203909466.442 3      -420.631          36.000    39158665.040 1 157675717.855 3      -325.567          35.000  
C30  24326450.314 8                      1221.166          25.000                                                                  
C 9  38476643.764 2                     -1827.217          31.000    38476642.777 1 154929502.388 3     -1412.320          38.000  
C16  39912964.280 1 207837285.229 4     -2115.356          35.000    39912965.011 2 160713010.886 5     -1636.135          32.000  
R18  24013309.212 8                     -4430.983          29.000                                                                  
R 9  22858929.835 2 122065405.556 5      2148.242          33.000    22858929.026 9                      1672.340          25.000  
R19  21180530.248 2 113301561.995 4     -1703.442          35.000    21180528.036 4  88123421.711 5     -1324.484          32.000  
R15  25118700.833 8                     -2936.382          29.000                                                                  
R20  22675893.628 2 121258255.529 5      2750.830          32.000    22675888.213 9                      2140.108          29.000  
G 8  22876082.532 1 120214619.276 3     -2433.276          39.000    22876074.059 9                     -1898.374          20.000                                                                  
E26  24817472.599 1 130416717.505 2       438.739          41.000    24817475.298 1  99929691.541 3       335.869          36.000  
S37  38316776.992 1 201356011.803 2      -510.377          39.000  
C 7  38630559.257 2 201159447.127 4      -312.921          34.000    38630553.361 2                      -242.749          30.000  
C27  23440206.393 1 122059320.164 2     -1618.928          42.000                                                                  
E21  26460639.405 8                      -483.648          25.000                                                                  
E 1  27166227.321 1 142759525.785 2       816.741          40.000    27166229.171 1 109387142.687 3       625.875          37.000  
E18  21608916.552 1 113555621.498 1      2049.754          43.000    21608917.897 1  87010157.779 2      1570.393          39.000  
J 7  38316781.311 1 201356054.071 3      -510.209          36.000    38316779.429 1 156900822.086 4      -397.347          35.000  
E13                                                                  27116830.343 2                     -1773.906          25.000  
> 2021  5 17  2 34  1.0060000  0 26                     
G 7  22850986.573 1 120082757.399 2      1695.697          42.000    22850984.910 2  93570976.815 4      1320.895          33.000                                                                  
G 1  23317767.131 9                      2571.422          22.000                                                                                                                                  
G 9  24811065.660 8                     -2531.243          27.000    24811068.966 9                     -1970.333          25.000                                                                  
G16  26094745.588 9                     -2224.176          12.000                                                                                                                                  
G21  22378316.039 1 117598852.327 1       301.983          43.000                                                                                                                                  
G30  25903726.815 4 136125008.137 5      2852.725          29.000    25903714.077 8                      2223.574          24.000                                                                  
C10  39158750.618 1 203909887.198 3      -420.757          36.000    39158745.915 1 157676043.219 3      -325.404          35.000  
C30  24326218.633 8                      1219.195          26.000                                                                  
C 9  38476994.748 2                     -1826.594          31.000    38476993.563 1 154930914.885 3     -1412.089          38.000  
C16  39913370.350 1 207839400.512 3     -2115.201          35.000    39913371.384 2 160714646.540 5     -1635.834          32.000  
R18  24014141.357 8                     -4431.611          29.000                                                                  
R 9  22858527.501 2 122063257.164 5      2148.054          33.000    22858526.859 9                      1671.454          25.000  
R19  21180848.887 2 113303266.184 3     -1704.586          35.000    21180846.733 4  88124747.201 5     -1325.636          32.000  
R15  25119247.826 8                     -2936.477          29.000                                                                  
R20  22675379.146 2 121255504.019 5      2751.172          32.000    22675374.972 9                      2140.222          28.000  
G 8  22876545.545 1 120217052.548 2     -2433.082          38.000    22876535.216 9                     -1895.489          21.000                                                                  
E26  24817389.075 1 130416278.714 2       438.611          41.000    24817391.695 1  99929355.304 3       336.266          36.000  
S37  38316874.068 1 201356521.828 2      -509.971          40.000  
C 7  38630619.149 2 201159759.812 4      -312.475          34.000    38630613.405 2                      -241.544          30.000  
C27  23440517.357 1 122060939.296 2     -1619.134          42.000                                                                  
E21  26460730.813 8                      -482.893          25.000                                                                  
E 1  27166071.876 1 142758708.727 2       817.280          40.000    27166073.709 1 109386516.620 3       626.369          37.000  
E18  21608526.628 1 113553572.008 1      2049.085          43.000    21608527.996 1  87008587.372 2      1570.343          39.000  
J 7  38316878.466 1 201356564.094 4      -510.214          36.000    38316876.508 1 156901219.518 4      -397.542          35.000  
E13                                                                  27117271.026 2                     -1773.812          25.000  
R16                                                                  21980212.258 9                      -343.586          13.000  
> 2021  5 17  2 34  2.0060000  0 26                     
G 7  22850663.912 1 120081062.182 2      1694.873          42.000    22850662.111 2  93569655.824 4      1321.103          33.000                                                                  
G 1  23317266.550 9                      2571.422          22.000                                                                                                                                  
G 9  24811548.620 8                     -2530.716          27.000    24811549.581 9                     -1971.624          24.000                                                                  
G16  26095174.197 9                     -2235.172          14.000                                                                                                                                  
G21  22378258.639 1 117598550.517 2       301.558          43.000                                                                                                                                  
G30  25903184.004 4 136122155.417 5      2852.652          29.000    25903170.074 8                      2222.811          24.000                                                                  
C10  39158831.297 1 203910307.704 3      -420.200          36.000    39158826.661 1 157676368.376 3      -324.908          36.000  
C30  24325986.618 8                      1218.284          27.000                                                                  
C 9  38477345.585 2 200361890.315 5     -1826.817          31.000    38477344.339 1 154932327.378 3     -1412.708          37.000  
C16  39913776.541 1 207841515.687 4     -2115.172          35.000    39913777.710 2                     -1635.689          32.000  
R18  24014972.823 8                     -4431.652          29.000                                                                  
R 9  22858125.226 4                      2148.672          32.000    22858123.656 9                      1671.927          25.000  
R19  21181167.542 2 113304971.025 3     -1705.644          35.000    21181165.253 4                     -1326.014          32.000  
R15  25119796.749 8                     -2937.455          28.000                                                                  
R20  22674864.619 4                      2750.177          31.000    22674862.110 9                      2139.256          27.000  
G 8  22877008.662 1 120219485.931 2     -2433.707          38.000    22876997.252 9                     -1892.750          20.000                                                                  
E26  24817305.558 1 130415840.193 2       438.144          41.000    24817308.344 1  99929019.301 3       335.743          36.000  
S37  38316971.030 1 201357031.686 2      -509.947          40.000  
C 7  38630679.098 2 201160072.199 4      -312.427          34.000    38630673.316 2                      -241.558          30.000  
C27  23440828.258 1 122062558.693 2     -1619.817          42.000                                                                  
E21  26460823.039 8                      -483.490          25.000                                                                  
E 1  27165916.347 1 142757891.469 2       817.378          40.000    27165918.293 1 109385890.446 3       625.857          37.000  
E18  21608136.913 1 113551523.089 2      2048.448          43.000    21608137.990 1  87007017.437 2      1569.423          39.000  
J 7  38316975.419 1 201357073.951 3      -509.893          36.000    38316973.447 1 156901616.806 4      -397.345          35.000  
E13                                                                  27117711.517 2                     -1773.793          25.000  
R16                                                                  21980297.755 9                      -354.783          13.000  
> 2021  5 17  2 34  3.0060000  0 26                     
G 7  22850341.210 1 120079367.258 2      1694.863          42.000    22850339.394 2  93568335.106 5      1320.977          33.000                                                                  
G 1  23316766.364 9                      2571.422          22.000                                                                                                                                  
G 9  24812030.135 8                     -2531.077          27.000    24812030.764 9                     -1972.507          24.000                                                                  
G16  26095602.846 9                     -2221.144          15.000                                                                                                                                  
G21  22378201.340 1 117598249.221 1       301.308          43.000                                                                                                                                  
G30  25902641.324 2 136119302.705 5      2852.773          29.000    25902626.809 8                      2224.123          24.000                                                                  
C10  39158912.065 1 203910728.026 3      -419.975          36.000    39158907.463 1 157676693.368 3      -324.373          36.000  
C30  24325756.571 8                      1218.834          27.000                                                                  
C 9  38477696.234 2                     -1825.960          32.000    38477695.133 1 154933739.822 3     -1412.016          37.000  
C16  39914182.595 1 207843630.746 3     -2114.657          35.000    39914183.978 2 160717917.659 5     -1635.609          32.000  
R18  24015804.095 8                     -4431.113          28.000                                                                  
R 9  22857722.718 4                      2148.673          31.000    22857721.724 9                      1671.471          25.000  
R19  21181486.316 2 113306676.543 4     -1705.332          35.000    21181484.103 4  88127399.684 5     -1326.592          32.000  
R15  25120344.599 8                     -2935.379          27.000                                                                  
R20  22674350.203 4                      2750.543          31.000    22674346.999 9                      2139.063          26.000  
G 8  22877471.665 1 120221919.394 3     -2433.196          38.000    22877462.003 9                     -1898.259          18.000                                                                  
E26  24817222.373 1 130415401.999 2       438.210          41.000    24817224.870 1  99928683.538 3       336.096          36.000  
S37  38317068.047 1 201357541.404 2      -509.302          40.000  
C 7  38630738.944 2 201160384.413 4      -312.216          34.000    38630733.318 2                      -241.845          29.000  
C27  23441139.532 1 122064178.371 2     -1619.596          42.000                                                                  
E21  26460915.871 8                      -481.203          25.000                                                                  
E 1  27165760.756 1 142757074.040 2       818.045          40.000    27165762.773 1 109385264.102 3       626.584          37.000  
E18  21607747.429 1 113549474.818 1      2048.092          44.000    21607748.317 1  87005447.962 2      1569.506          39.000  
J 7  38317072.425 1 201357583.680 3      -509.565          36.000    38317070.460 1 156902013.999 3      -397.089          35.000  
E13                                                                  27118151.840 2                     -1775.327          25.000  
R16                                                                  21980383.690 9                      -354.783          13.000  
> 2021  5 17  2 34  4.0060000  0 25                     
G 7  22850018.583 1 120077672.702 2      1694.062          42.000    22850016.606 2  93567014.684 5      1319.679          33.000                                                                  
G 9  24812511.865 8                     -2531.457          28.000    24812510.775 9                     -1969.378          22.000                                                                  
G16  26096030.969 9                     -2227.885          17.000                                                                                                                                  
G21  22378144.090 1 117597948.484 1       300.297          43.000                                                                                                                                  
G30  25902098.481 2 136116450.000 5      2852.615          29.000    25902083.922 8                      2221.394          24.000                                                                  
C10  39158992.672 1 203911148.165 3      -419.836          37.000    39158988.201 1 157677018.287 3      -325.109          35.000  
C30  24325525.950 8                      1218.487          28.000                                                                  
C 9  38478047.108 2                     -1826.921          32.000    38478045.955 1 154935152.362 2     -1412.624          37.000  
C16  39914588.626 1 207845745.843 4     -2115.284          35.000    39914590.151 2 160719553.151 5     -1636.200          32.000  
R18  24016634.072 8                     -4431.995          27.000                                                                  
R 9  22857320.211 4                      2148.240          31.000    22857320.214 9                      1670.266          24.000  
R19  21181805.263 2 113308382.834 4     -1706.844          35.000    21181803.181 4  88128726.795 5     -1327.248          32.000  
R15  25120887.276 9                     -2937.804          26.000                                                                  
R20  22673835.631 4                      2749.225          29.000    22673828.416 9                      2136.624          24.000  
G 8  22877934.719 1 120224353.043 3     -2433.995          38.000    22877924.276 9                     -1905.310          18.000                                                                  
E26  24817138.884 1 130414964.208 2       437.207          41.000    24817141.704 1  99928348.083 3       335.213          36.000  
S37  38317165.061 1 201358051.099 2      -510.157          40.000  
C 7  38630798.568 2 201160696.427 4      -312.057          34.000    38630793.333 2                      -241.208          30.000  
C27  23441450.606 1 122065798.415 1     -1620.465          42.000                                                                  
E21  26461010.614 8                      -482.455          25.000                                                                  
E 1  27165605.069 1 142756256.537 2       817.318          40.000    27165607.233 1 109384637.670 3       626.418          37.000  
E18  21607357.685 1 113547427.239 1      2046.833          44.000    21607358.721 1  87003879.058 2      1568.313          39.000  
J 7  38317169.361 1 201358093.353 3      -509.916          36.000    38317167.414 1 156902411.142 4      -396.904          35.000  
E13                                                                  27118592.339 2                     -1774.813          25.000  
R16                                                                  21980467.949 9                      -354.783          11.000  
> 2021  5 17  2 34  5.0060000  0 24                     
G 7  22849696.209 1 120075978.623 2      1693.668          42.000    22849694.423 2  93565694.611 5      1319.886          33.000                                                                  
G 9  24812992.882 8                     -2531.479          28.000    24812991.290 9                     -1970.645          22.000                                                                  
G16  26096456.315 9                     -2222.627          18.000                                                                                                                                  
G21  22378087.024 1 117597648.404 1       299.614          43.000                                                                                                                                  
G30  25901555.634 2 136113597.471 5      2852.074          29.000    25901540.670 9                      2223.113          24.000                                                                  
C10  39159073.299 1 203911568.303 3      -420.283          36.000    39159068.849 1 157677343.145 3      -325.063          35.000  
C30  24325293.754 8                      1217.219          28.000                                                                  
C 9  38478397.961 2                     -1826.658          32.000    38478396.818 1 154936565.005 2     -1413.155          37.000  
C16  39914994.699 1 207847860.997 4     -2115.063          35.000    39914996.309 2                     -1635.848          32.000  
R18  24017465.007 8                     -4432.109          27.000                                                                  
R 9  22856917.796 4                      2150.409          30.000    22856918.354 9                      1671.258          25.000  
R19  21182124.359 2 113310089.989 4     -1707.881          35.000    21182122.303 4  88130054.618 5     -1328.746          33.000  
R15  25121432.381 9                     -2937.172          27.000                                                                  
R20  22673321.156 4                      2748.860          28.000    22673312.393 9                      2146.549          20.000  
G 8  22878397.874 1 120226786.970 3     -2434.164          38.000    22878386.174 9                     -1900.669          18.000                                                                  
E26  24817055.508 1 130414526.869 2       437.121          41.000    24817058.471 1  99928012.987 3       335.214          36.000  
S37  38317261.985 1 201358560.780 2      -509.802          39.000  
C 7  38630858.457 2 201161008.460 4      -312.293          34.000    38630853.140 2                      -242.621          30.000  
C27  23441761.936 1 122067418.913 2     -1620.610          42.000                                                                  
E21  26461101.559 9                      -482.576          24.000                                                                  
E 1  27165449.415 1 142755439.005 2       817.327          40.000    27165451.504 1 109384011.233 2       626.615          37.000  
E18  21606968.233 1 113545380.440 1      2046.291          44.000    21606969.168 1  87002310.713 2      1568.260          39.000  
J 7  38317266.209 1 201358603.070 3      -510.298          36.000    38317264.419 1 156902808.331 3      -397.767          35.000  
E13                                                                  27119032.352 4                     -1774.239          25.000  
> 2021  5 17  2 34  6.0060000  0 25                     
G 7  22849373.977 1 120074285.000 2      1693.354          42.000    22849371.898 2  93564374.912 5      1319.880          33.000                                                                  
G 9  24813471.407 8                     -2531.426          30.000    24813471.389 9                     -1966.198          21.000                                                                  
G16  26096882.784 9                     -2224.257          19.000                                                                                                                                  
G21  22378030.014 1 117597348.980 2       299.102          43.000                                                                                                                                  
G30  25901012.938 2                      2852.272          29.000    25900997.865 8                      2222.899          24.000                                                                  
C10  39159154.038 1 203911988.353 3      -420.098          36.000    39159149.486 1 157677667.967 3      -324.822          35.000  
C30  24325060.024 8                      1217.422          29.000                                                                  
C 9  38478748.887 2 200369197.488 5     -1826.901          32.000    38478747.618 1 154937977.762 3     -1412.701          37.000  
C16  39915400.742 1 207849976.233 4     -2115.225          35.000    39915402.313 2 160722824.343 5     -1635.365          32.000  
R18  24018295.485 4                     -4432.223          27.000                                                                  
R 9  22856515.409 4                      2148.889          30.000    22856517.074 9                      1672.876          24.000  
R19  21182443.470 2 113311798.012 4     -1708.521          35.000    21182441.638 4  88131383.026 5     -1327.997          33.000  
R15  25121981.748 8                     -2937.507          28.000                                                                  
R20  22672806.811 4                      2749.178          26.000    22672795.657 9                      2133.615          18.000  
G 8  22878861.002 1 120229221.121 3     -2433.952          38.000    22878849.537 9                     -1886.043          18.000                                                                  
E26  24816972.536 1 130414090.045 2       436.558          41.000    24816975.351 1  99927678.261 4       334.600          36.000  
S37  38317359.034 1 201359070.515 2      -509.853          39.000  
C 7  38630918.346 2 201161320.402 4      -312.250          34.000    38630913.054 2                      -241.434          30.000  
C27  23442073.349 1 122069039.861 2     -1620.922          42.000                                                                  
E21  26461191.759 9                      -481.548          24.000                                                                  
E 1  27165293.893 1 142754621.429 2       817.553          40.000    27165295.835 1 109383384.811 3       626.341          37.000  
E18  21606578.891 1 113543334.424 1      2045.668          44.000    21606579.556 1  87000743.003 2      1567.487          39.000  
J 7  38317363.177 1 201359112.764 3      -509.733          36.000    38317361.369 1 156903205.497 4      -397.297          35.000  
E13                                                                  27119472.306 8                     -1774.677          25.000  
R16                                                                  21980637.942 9                      -354.783          11.000  
> 2021  5 17  2 34  7.0060000  0 26                     
G 7  22849051.753 1 120072591.889 2      1693.073          42.000    22849049.772 2  93563055.572 4      1319.565          33.000                                                                  
G 1  23314777.975 9                      2567.350          25.000                                                                                                                                  
G 9  24813951.238 8                     -2532.100          31.000    24813951.424 9                     -1969.221          21.000                                                                  
G16  26097307.045 9                     -2227.068          18.000                                                                                                                                  
G21  22377973.092 1 117597050.285 2       298.406          43.000                                                                                                                                  
G30  25900470.158 2                      2852.329          29.000    25900454.298 8                      2222.415          24.000                                                                  
C10  39159234.829 1 203912408.455 3      -420.033          36.000    39159230.176 1 157677992.815 3      -325.009          35.000  
C30  24324825.686 4                      1216.738          29.000                                                                  
C 9  38479099.920 2 200371024.700 5     -1827.264          32.000    38479098.553 1 154939390.708 3     -1413.270          37.000  
C16  39915806.763 1 207852091.633 4     -2115.500          35.000    39915808.460 2 160724460.112 5     -1635.927          32.000  
R18  24019126.044 4                     -4432.683          26.000                                                                  
R 9  22856112.921 4                      2147.665          30.000    22856116.716 9                      1671.534          25.000  
R19  21182762.878 2 113313506.948 4     -1709.646          35.000    21182761.250 4  88132712.238 5     -1329.728          32.000  
R15  25122532.888 8                     -2938.809          28.000                                                                  
R20  22672292.643 4                      2747.671          26.000    22672283.369 9                      2135.554          21.000  
G 8  22879324.283 1 120231655.682 2     -2435.108          37.000    22879312.344 9                     -1900.173          19.000                                                                  
E26  24816889.632 1 130413653.737 2       436.187          41.000    24816892.399 1  99927343.996 3       333.992          36.000  
S37  38317455.915 1 201359580.355 2      -509.711          39.000  
C 7  38630978.099 2 201161632.370 4      -312.392          34.000    38630972.873 2                      -241.143          30.000  
C27  23442384.771 1 122070661.341 2     -1621.233          42.000                                                                  
E21  26461283.411 8                      -483.798          24.000                                                                  
E 1  27165138.319 1 142753803.952 2       817.362          40.000    27165140.307 1 109382758.430 3       626.420          37.000  
E18  21606190.038 1 113541289.276 1      2044.739          44.000    21606190.432 1  86999175.950 2      1566.513          39.000  
J 7  38317460.228 1 201359622.621 3      -510.007          36.000    38317458.476 1 156903602.783 3      -397.148          35.000  
E13                                                                  27119912.697 8                     -1776.126          25.000  
R16                                                                  21980723.768 9                      -354.783          12.000  
> 2021  5 17  2 34  8.0060000  0 26                     
G 7  22848729.647 1 120070899.402 2      1692.282          41.000    22848727.805 2  93561736.798 5      1318.502          33.000                                                                  
G 1  23314283.605 9                      2564.628          25.000                                                                                                                                  
G 9  24814430.355 8                     -2532.279          32.000    24814432.963 9                     -1978.051          21.000                                                                  
G16  26097734.682 9                     -2236.788          18.000                                                                                                                                  
G21  22377916.384 1 117596752.398 1       297.491          43.000                                                                                                                                  
G30  25899927.350 2                      2851.604          29.000    25899912.137 9                      2220.969          24.000                                                                  
C10  39159315.498 1 203912828.609 3      -420.179          36.000    39159310.799 1 157678317.680 4      -324.519          36.000  
C30  24324590.113 4                      1216.074          28.000                                                                  
C 9  38479450.883 2 200372852.244 5     -1827.308          33.000    38479449.524 1 154940803.860 3     -1413.340          37.000  
C16  39916212.997 1 207854207.242 4     -2115.642          35.000    39916214.580 2 160726096.061 5     -1636.348          32.000  
R18  24019956.891 4                     -4434.202          26.000                                                                  
R 9  22855710.595 4                      2147.525          30.000    22855714.030 9                      1671.433          24.000  
R19  21183082.453 2 113315216.873 3     -1710.098          35.000    21183081.166 4  88134042.195 4     -1330.462          33.000  
R15  25123081.778 8                     -2939.044          29.000                                                                  
R20  22671778.686 4                      2746.935          27.000    22671769.569 9                      2136.096          25.000  
G 8  22879787.522 1 120234090.597 3     -2435.335          37.000    22879777.107 9                     -1893.020          19.000                                                                  
E26  24816806.661 1 130413218.071 2       435.393          41.000    24816809.463 1  99927010.175 3       333.198          36.000  
S37  38317552.991 1 201360090.356 2      -510.114          39.000  
C 7  38631038.145 2 201161944.431 4      -312.174          34.000    38631032.629 2                      -241.354          30.000  
C27  23442696.343 1 122072283.423 2     -1622.265          43.000                                                                  
E21  26461374.520 9                      -483.236          23.000                                                                  
E 1  27164982.635 1 142752986.573 2       817.527          40.000    27164984.702 1 109382132.128 3       626.276          37.000  
E18  21605801.013 1 113539245.049 1      2043.919          44.000    21605801.409 1  86997609.587 2      1565.973          39.000  
J 7  38317557.285 1 201360132.612 3      -510.029          36.000    38317555.455 1 156904000.184 3      -397.366          35.000  
E13                                                                  27120353.500 8                     -1774.873          25.000  
R16                                                                  21980809.043 9                      -354.783          12.000  
> 2021  5 17  2 34  9.0060000  0 26                     
G 7  22848407.722 1 120069207.318 2      1691.498          41.000    22848405.960 2  93560418.283 4      1317.956          33.000                                                                  
G 1  23313792.436 9                      2563.000          25.000                                                                                                                                  
G 9  24814910.732 4                     -2532.376          33.000    24814913.203 9                     -1969.497          21.000                                                                  
G16  26098159.770 9                     -2231.531          18.000                                                                                                                                  
G21  22377859.838 1 117596455.109 2       296.566          43.000                                                                                                                                  
G30  25899384.522 2                      2851.598          29.000    25899369.277 8                      2223.254          24.000                                                                  
C10  39159396.068 1 203913248.638 3      -420.567          36.000    39159391.428 1 157678642.497 4      -325.471          36.000  
C30  24324353.962 8                      1216.382          28.000                                                                  
C 9  38479801.860 2 200374679.906 4     -1828.432          33.000    38479800.517 1 154942217.091 2     -1413.578          37.000  
C16  39916619.164 1 207856322.890 4     -2116.214          35.000    39916620.819 2 160727731.985 5     -1636.229          32.000  
R18  24020788.211 8                     -4435.873          24.000                                                                  
R 9  22855308.249 4                      2147.198          30.000    22855311.977 9                      1671.182          24.000  
R19  21183402.200 2 113316927.605 4     -1711.202          35.000    21183400.736 4  88135372.752 5     -1331.079          32.000  
R15  25123629.423 8                     -2939.319          29.000                                                                  
R20  22671264.745 4                      2746.210          28.000    22671261.315 9                      2136.374          27.000  
G 8  22880250.800 1 120236525.744 3     -2436.076          37.000    22880240.314 9                     -1899.792          19.000                                                                  
E26  24816723.953 1 130412782.833 2       434.500          41.000    24816726.811 1  99926676.655 3       333.245          36.000  
S37  38317650.015 1 201360600.339 2      -510.353          39.000  
C 7  38631098.154 2 201162256.382 4      -312.390          34.000    38631092.402 2                      -241.382          29.000  
C27  23443008.100 1 122073905.887 2     -1622.823          43.000                                                                  
E21  26461465.216 9                      -484.317          23.000                                                                  
E 1  27164827.170 1 142752169.130 2       817.283          40.000    27164829.187 1 109381505.760 3       626.415          37.000  
E18  21605412.139 1 113537201.553 1      2042.838          44.000    21605412.429 1  86996043.769 2      1565.677          39.000  
J 7  38317654.359 1 201360642.579 3      -509.774          36.000    38317652.484 1 156904397.554 4      -397.285          35.000  
E13                                                                  27120794.579 8                     -1776.836          25.000  
R16                                                                  21980894.313 9                      -354.783          10.000  
> 2021  5 17  2 34 10.0060000  0 25                     
G 7  22848085.917 1 120067515.833 2      1691.535          41.000    22848084.151 2  93559100.206 5      1317.993          33.000                                                                  
G 1  23313301.326 9                      2564.391          25.000                                                                                                                                  
G 9  24815392.975 8                     -2532.744          32.000    24815395.074 9                     -1973.325          21.000                                                                  
G16  26098584.738 9                     -2243.065          18.000                                                                                                                                  
G21  22377803.470 1 117596158.609 1       296.153          43.000                                                                                                                                  
G30  25898841.749 2                      2851.446          29.000    25898827.259 9                      2221.710          24.000                                                                  
C10  39159476.721 1 203913668.784 3      -420.217          37.000    39159472.044 1 157678967.342 3      -324.568          36.000  
C30  24324118.263 8                      1215.281          28.000                                                                  
C 9  38480152.956 2 200376507.818 4     -1827.636          33.000    38480151.509 1 154943630.575 3     -1413.619          37.000  
C16  39917025.555 1 207858438.732 3     -2115.720          35.000    39917027.116 2 160729368.078 5     -1636.540          33.000  
R18  24021621.411 9                     -4434.371          23.000                                                                  
R 9  22854906.074 4                      2146.366          30.000    22854910.988 9                      1669.257          24.000  
R19  21183722.215 2 113318639.371 3     -1712.372          35.000    21183720.786 4  88136704.135 5     -1332.161          33.000  
R15  25124177.365 8                     -2940.154          29.000                                                                  
R20  22670751.099 4                      2745.986          28.000    22670750.690 8                      2135.480          30.000  
G 8  22880714.082 1 120238961.315 3     -2436.070          36.000    22880704.913 9                     -1899.665          20.000                                                                  
E26  24816641.066 1 130412348.183 2       434.587          41.000    24816643.983 1  99926343.634 3       332.693          36.000  
S37  38317747.059 1 201361110.503 2      -510.136          39.000  
C 7  38631157.933 2 201162568.442 4      -312.232          34.000    38631152.363 2                      -241.858          30.000  
C27  23443319.944 1 122075528.959 1     -1623.456          43.000                                                                  
E21  26461556.899 8                      -482.707          23.000                                                                  
E 1  27164671.787 1 142751351.827 2       817.159          40.000    27164673.723 1 109380879.525 3       626.291          37.000  
E18  21605023.383 1 113535158.987 1      2042.114          44.000    21605023.731 1  86994478.706 2      1564.676          39.000  
J 7  38317751.375 1 201361152.774 3      -510.243          36.000    38317749.575 1 156904795.095 3      -397.517          35.000  
E13                                                                  27121234.416 8                     -1777.505          26.000  
> 2021  5 17  2 34 11.0060000  0 24                     
G 7  22847764.030 1 120065824.701 2      1691.005          41.000    22847762.543 2  93557782.425 4      1318.159          33.000                                                                  
G 1  23312817.451 9                      2564.669          25.000                                                                                                                                  
G 9  24815875.751 4                     -2532.918          32.000    24815878.709 9                     -1975.935          22.000                                                                  
G16  26099011.532 9                     -2244.041          17.000                                                                                                                                  
G21  22377747.139 1 117595862.670 1       295.646          43.000                                                                                                                                  
G30  25898299.054 2                      2853.347          30.000    25898285.082 9                      2221.258          24.000                                                                  
C10  39159557.334 1 203914088.759 3      -419.865          36.000    39159552.778 1 157679292.108 3      -324.703          36.000  
C30  24323878.646 8                      1215.537          28.000                                                                  
C 9  38480503.946 2 200378335.795 4     -1827.699          33.000    38480502.590 1 154945044.073 3     -1413.596          37.000  
C16  39917431.791 1 207860554.551 3     -2115.312          35.000    39917433.325 2 160731004.144 5     -1635.295          32.000  
R 9  22854503.807 4                      2147.000          31.000    22854509.986 9                      1675.045          23.000  
R19  21184042.285 2 113320351.868 4     -1712.419          35.000    21184040.766 4  88138036.070 5     -1331.980          33.000  
R15  25124725.988 8                     -2940.278          29.000                                                                  
R20  22670237.603 4                      2745.981          29.000    22670240.316 8                      2136.102          31.000  
G 8  22881177.477 1 120241396.997 3     -2435.599          36.000    22881168.067 9                     -1896.311          20.000                                                                  
E26  24816558.290 1 130411913.925 2       434.139          41.000    24816561.519 1  99926010.867 3       332.775          36.000  
S37  38317844.093 1 201361620.553 2      -509.883          39.000  
C 7  38631217.626 2 201162880.350 4      -312.158          34.000    38631212.201 2                      -240.951          30.000  
C27  23443631.734 1 122077152.352 2     -1623.523          43.000                                                                  
E21  26461645.902 9                      -483.336          22.000                                                                  
E 1  27164516.284 1 142750534.378 2       817.561          40.000    27164518.241 1 109380253.151 3       626.756          37.000  
E18  21604634.758 1 113533117.082 1      2041.668          44.000    21604635.294 1  86992914.132 2      1564.554          39.000  
J 7  38317848.322 1 201361662.822 3      -509.655          36.000    38317846.625 1 156905192.537 4      -396.940          35.000  
E13                                                                  27121676.543 8                     -1775.762          26.000  
> 2021  5 17  2 34 12.0060000  0 24                     
G 7  22847442.291 1 120064133.987 2      1690.296          41.000    22847441.336 2  93556464.975 5      1317.725          33.000                                                                  
G 1  23312336.170 8                      2563.978          26.000                                                                                                                                  
G 9  24816358.591 4                     -2533.420          31.000    24816362.679 9                     -1978.800          22.000                                                                  
G16  26099437.711 9                     -2232.818          18.000                                                                                                                                  
G21  22377691.023 1 117595567.343 1       294.963          43.000                                                                                                                                  
G30  25897756.338 2                      2850.362          30.000    25897742.533 8                      2221.156          24.000                                                                  
C10  39159637.967 1 203914508.635 3      -419.949          36.000    39159633.435 1 157679616.786 3      -324.651          36.000  
C30  24323640.556 8                      1214.971          28.000                                                                  
C 9  38480855.091 2 200380163.912 5     -1828.027          33.000    38480853.630 1 154946457.658 3     -1413.490          38.000  
C16  39917837.969 1 207862670.423 4     -2115.687          35.000    39917839.836 2 160732640.331 5     -1636.145          32.000  
R 9  22854101.610 4                      2148.703          31.000    22854108.940 9                      1665.675          23.000  
R19  21184362.469 2 113322065.255 4     -1714.346          35.000    21184361.027 4                     -1333.497          32.000  
R15  25125274.921 8                     -2939.483          29.000                                                                  
R20  22669724.253 4                      2744.844          28.000    22669729.792 8                      2134.894          31.000  
G 8  22881640.949 1 120243832.929 3     -2435.904          36.000    22881632.169 9                     -1904.133          21.000                                                                  
E26  24816475.678 1 130411480.104 2       433.654          41.000    24816478.775 1  99925678.476 3       332.120          37.000  
S37  38317941.118 1 201362130.626 2      -509.933          39.000  
C 7  38631277.335 2 201163192.075 5      -311.823          34.000    38631272.114 2                      -240.743          30.000  
C27  23443943.576 1 122078776.168 1     -1624.076          43.000                                                                  
E21  26461738.254 9                      -487.024          22.000    26461748.374 8                      -370.568          25.000  
E 1  27164360.671 1 142749716.880 2       817.439          40.000    27164362.688 1 109379626.786 3       626.261          38.000  
E18  21604246.407 1 113531075.936 1      2040.701          44.000    21604246.960 1  86991350.133 3      1563.790          40.000  
J 7  38317945.352 1 201362172.907 3      -510.292          36.000    38317943.683 1 156905590.019 3      -397.878          35.000  
E13                                                                  27122115.495 8                     -1776.158          26.000  
> 2021  5 17  2 34 13.0060000  0 25                     
G 7  22847120.819 1 120062443.730 2      1690.265          41.000    22847119.681 2  93555147.954 4      1316.803          33.000                                                                  
G 1  23311855.452 9                      2562.645          26.000                                                                                                                                  
G 9  24816840.664 4                     -2532.692          30.000    24816846.838 9                     -1965.992          22.000                                                                  
G16  26099861.676 9                     -2237.941          19.000                                                                                                                                  
G21  22377635.032 1 117595272.670 1       294.378          43.000                                                                                                                                  
G30  25897213.694 2 136090783.376 5      2851.286          31.000    25897200.410 8                      2222.389          25.000                                                                  
C10  39159718.565 1 203914928.466 3      -419.682          37.000    39159714.065 1 157679941.448 3      -324.806          36.000  
C30  24323402.638 8                      1214.215          27.000                                                                  
C 9  38481206.275 2 200381992.202 5     -1828.333          33.000    38481204.752 1 154947871.412 3     -1413.943          37.000  
C16  39918244.320 1 207864786.374 3     -2115.584          35.000    39918246.154 2 160734276.479 5     -1635.752          32.000  
R16  21981107.606 9                      -451.424          13.000                                                                  
R 9  22853699.671 4                      2146.717          31.000    22853705.608 9                      1668.016          22.000  
R19  21184682.749 2 113323779.442 4     -1714.813          35.000    21184681.492 4  88140701.902 5     -1332.743          33.000  
R15  25125827.461 8                     -2940.724          29.000                                                                  
R20  22669210.889 4                      2743.951          28.000    22669217.916 8                      2134.143          32.000  
G 8  22882104.532 1 120246269.139 3     -2435.990          36.000    22882095.406 9                     -1899.784          22.000                                                                  
E26  24816393.083 1 130411046.772 2       433.123          41.000    24816396.333 1  99925346.427 3       332.270          36.000  
S37  38318038.144 1 201362640.737 2      -509.946          39.000  
C 7  38631337.175 2 201163503.854 4      -312.012          33.000    38631332.162 2                      -240.844          30.000  
C27  23444255.681 1 122080400.462 1     -1624.622          43.000                                                                  
E21  26461830.735 9                      -484.339          22.000    26461839.860 8                      -371.776          24.000  
E 1  27164205.221 1 142748899.387 2       817.586          40.000    27164207.274 1 109379000.388 3       626.351          37.000  
E18  21603858.141 1 113529035.590 1      2040.102          44.000    21603858.726 1  86989786.753 2      1563.043          39.000  
J 7  38318042.505 1 201362683.014 3      -510.040          36.000    38318040.706 1 156905987.484 3      -397.296          35.000  
E13                                                                  27122557.347 8                     -1776.213          25.000  
> 2021  5 17  2 34 14.0060000  0 26                     
G 7  22846799.151 1 120060753.745 2      1689.666          41.000    22846798.242 2  93553831.045 4      1317.385          33.000                                                                  
G 1  23311374.670 8                      2563.662          26.000                                                                                                                                  
G 9  24817323.004 2                     -2533.934          30.000    24817330.287 9                     -1969.508          22.000                                                                  
G16  26100284.702 9                     -2232.533          19.000                                                                                                                                  
G21  22377579.116 1 117594978.474 1       293.779          43.000                                                                                                                                  
G30  25896671.309 4 136087932.065 5      2850.847          30.000    25896659.207 8                      2222.162          24.000                                                                  
C10  39159799.225 1 203915348.035 3      -419.577          36.000    39159794.663 1 157680265.862 3      -324.020          35.000  
C30  24323171.105 8                      1213.365          28.000                                                                  
C 9  38481557.391 2 200383820.394 4     -1828.681          33.000    38481555.785 1 154949285.099 3     -1413.894          37.000  
C16  39918650.674 1 207866902.210 4     -2115.491          35.000    39918652.274 1 160735912.597 5     -1636.334          32.000  
R16  21981192.595 9                      -451.338          17.000                                                                  
R 9  22853297.640 4                      2146.148          31.000    22853302.129 9                      1674.966          22.000  
R19  21185003.300 2 113325494.291 4     -1715.892          35.000    21185002.180 4  88142035.674 5     -1333.806          32.000  
R15  25126378.217 8                     -2941.300          29.000                                                                  
R20  22668697.386 4                      2743.000          27.000    22668705.502 8                      2133.820          31.000  
G 8  22882567.921 1 120248705.412 3     -2436.280          36.000    22882560.767 9                     -1895.336          23.000                                                                  
G 4  25499541.897 9                     -3373.188          22.000                                                                                                                                  
E26  24816310.775 1 130410613.715 2       432.645          41.000    24816313.903 1  99925014.606 3       331.809          36.000  
S37  38318135.288 1 201363150.659 2      -509.829          40.000  
C 7  38631396.983 2 201163815.329 5      -312.197          33.000    38631391.918 2                      -241.096          29.000  
C27  23444567.845 1 122082024.977 1     -1624.882          44.000                                                                  
E21  26461922.625 9                      -494.023          21.000    26461931.628 8                      -371.032          24.000  
E 1  27164049.743 1 142748081.668 2       817.769          40.000    27164051.790 1 109378373.821 3       626.225          37.000  
E18  21603469.956 1 113526995.815 1      2039.306          44.000    21603470.434 1  86988223.806 2      1562.491          39.000  
J 7  38318139.461 1 201363192.924 3      -509.764          36.000    38318137.697 1 156906384.817 4      -397.283          35.000  
E13                                                                  27122998.468 8                     -1778.552          26.000  
> 2021  5 17  2 34 15.0060000  0 26                     
G 7  22846477.652 1 120059064.320 2      1689.406          41.000    22846476.766 2  93552514.635 4      1316.063          33.000                                                                  
G 1  23310895.242 8                      2563.629          26.000                                                                                                                                  
G 9  24817805.621 2                     -2534.746          29.000    24817813.413 9                     -1977.054          22.000                                                                  
G16  26100707.025 9                     -2229.682          20.000                                                                                                                                  
G21  22377523.272 1 117594685.026 1       292.977          43.000                                                                                                                                  
G30  25896128.611 4                      2851.334          30.000    25896116.744 8                      2222.269          25.000                                                                  
C10  39159879.774 1 203915767.644 3      -419.592          36.000    39159875.318 1 157680590.358 3      -324.229          36.000  
C30  24322940.605 8                      1213.334          28.000                                                                  
C 9  38481908.617 2 200385648.873 4     -1828.917          33.000    38481906.955 1 154950698.952 3     -1413.399          38.000  
C16  39919056.936 1 207869018.251 3     -2116.180          35.000    39919058.444 2 160737548.825 5     -1636.350          32.000  
R16  21981280.109 9                      -450.374          20.000                                                                  
R 9  22852895.786 4                      2147.284          32.000    22852903.147 9                      1656.637          22.000  
R19  21185323.953 2 113327210.063 4     -1716.144          35.000    21185322.950 4  88143370.211 5     -1334.667          32.000  
R15  25126926.392 8                     -2941.691          29.000                                                                  
R20  22668184.011 4                      2742.751          27.000    22668190.627 8                      2132.910          30.000  
G 8  22883031.472 1 120251142.069 3     -2436.619          37.000    22883025.143 9                     -1895.805          24.000                                                                  
G 4  25500181.932 9                     -3373.188          23.000                                                                                                                                  
E26  24816228.605 1 130410181.226 2       432.199          41.000    24816231.593 1  99924683.246 3       331.033          36.000  
S37  38318232.372 1 201363660.721 2      -509.829          40.000  
C 7  38631456.716 2 201164126.865 5      -311.620          34.000    38631451.692 2 155552862.85515      -240.755          29.000  
C27  23444880.030 1 122083650.069 1     -1625.488          44.000                                                                  
E21  26462014.781 9                      -483.994          20.000    26462024.166 8                      -370.795          24.000  
E 1  27163894.192 1 142747264.037 2       817.562          40.000    27163895.983 1 109377747.305 2       626.852          37.000  
E18  21603082.011 1 113524956.936 1      2038.469          44.000    21603082.330 1  86986661.556 2      1561.855          39.000  
J 7  38318236.521 1 201363703.011 4      -510.122          36.000    38318234.798 2 156906782.303 4      -397.778          35.000  
E13                                                                  27123440.138 4                     -1778.162          26.000  
> 2021  5 17  2 34 16.0060000  0 26                     
G 7  22846156.233 1 120057375.150 2      1689.144          41.000    22846155.288 2  93551198.393 4      1315.994          33.000                                                                  
G 1  23310412.842 8                      2562.872          26.000                                                                                                                                  
G 9  24818288.142 2                     -2534.954          28.000    24818296.630 9                     -1993.075          22.000                                                                  
G16  26101128.510 9                     -2240.019          20.000                                                                                                                                  
G21  22377467.568 1 117594392.049 1       292.612          43.000                                                                                                                                  
G30  25895585.963 4                      2850.596          31.000    25895575.282 8                      2221.708          25.000                                                                  
C10  39159960.292 1 203916187.030 3      -419.296          36.000    39159955.908 1 157680914.637 3      -323.860          35.000  
C30  24322711.957 8                      1213.271          29.000                                                                  
C 9  38482259.933 2 200387477.303 5     -1829.085          33.000    38482258.023 1 154952112.802 3     -1413.560          38.000  
C16  39919463.183 1 207871134.147 4     -2115.671          35.000    39919464.676 2 160739184.965 5     -1635.994          32.000  
R16  21981367.841 9                      -450.462          21.000                                                                  
R 9  22852493.925 2 122031043.189 5      2147.008          32.000    22852504.917 9                      1672.595          23.000  
R19  21185644.819 2 113328926.561 4     -1717.062          35.000    21185643.549 4  88144705.224 5     -1334.693          32.000  
R15  25127476.214 8                     -2941.728          29.000                                                                  
R20  22667670.809 4                      2742.604          27.000    22667675.739 8                      2132.501          30.000  
G 8  22883495.058 1 120253578.777 3     -2436.809          36.000    22883490.664 9                     -1904.043          25.000                                                                  
G 4  25500831.269 9                     -3373.188          24.000                                                                                                                                  
E26  24816146.320 1 130409749.036 2       431.943          41.000    24816149.406 1  99924352.071 3       330.816          36.000  
S37  38318329.343 1 201364170.634 2      -509.970          39.000  
C 7  38631516.204 2 201164438.175 4      -311.366          33.000    38631511.275 1 155553103.589 5      -240.774          29.000  
C27  23445192.384 1 122085275.408 1     -1625.732          44.000                                                                  
E21  26462105.887 9                      -481.526          20.000    26462116.363 8                      -371.781          23.000  
E 1  27163738.168 1 142746446.163 2       818.209          40.000    27163740.293 1 109377120.658 3       626.663          37.000  
E18  21602694.206 1 113522918.637 1      2037.929          44.000    21602694.407 1  86985099.735 2      1561.713          39.000  
J 7  38318333.553 1 201364212.905 3      -510.083          36.000    38318331.827 2 156907179.623 3      -397.782          35.000  
E13                                                                  27123881.900 4                     -1778.371          26.000  
> 2021  5 17  2 34 17.0060000  0 26                     
G 7  22845834.879 1 120055686.391 2      1688.795          42.000    22845834.095 2  93549882.466 4      1315.910          33.000                                                                  
G 1  23309926.823 8                      2562.043          26.000                                                                                                                                  
G 9  24818770.471 2                     -2533.833          28.000    24818780.513 9                     -1972.319          22.000                                                                  
G16  26101550.097 9                     -2225.717          21.000                                                                                                                                  
G21  22377411.878 1 117594099.657 1       292.162          43.000                                                                                                                                  
G30  25895043.399 4                      2850.494          31.000    25895033.024 8                      2222.680          25.000                                                                  
C10  39160040.832 1 203916606.289 3      -418.723          36.000    39160036.478 1 157681238.827 3      -323.629          36.000  
C30  24322483.702 4                      1212.709          30.000                                                                  
C 9  38482611.125 2 200389305.789 5     -1828.457          33.000    38482609.183 1 154953526.742 3     -1413.721          38.000  
C16  39919869.528 1 207873250.055 4     -2115.411          34.000    39919870.868 2 160740821.121 5     -1635.992          32.000  
R16  21981454.594 9                      -448.005          22.000                                                                  
R 9  22852092.030 2 122028896.414 5      2147.206          33.000    22852104.671 9                      1661.902          23.000  
R19  21185965.746 2 113330643.771 4     -1716.945          35.000    21185964.509 4  88146040.871 4     -1336.113          33.000  
R15  25128027.222 8                     -2942.535          28.000                                                                  
R20  22667157.700 4                      2742.013          28.000    22667162.408 4                      2132.231          29.000  
G 8  22883958.521 1 120256015.645 3     -2436.565          36.000    22883955.592 9                     -1896.164          25.000                                                                  
G 4  25501469.753 9                     -3374.847          25.000                                                                                                                                  
E26  24816064.194 1 130409317.249 2       431.476          41.000    24816067.140 1  99924021.231 3       330.466          36.000  
S37  38318426.247 1 201364680.492 2      -509.766          40.000  
C 7  38631576.014 2 201164749.346 5      -310.927          33.000    38631571.043 1 155553344.203 5      -240.624          29.000  
C27  23445504.726 1 122086901.124 1     -1625.891          44.000                                                                  
E21  26462198.517 9                      -483.840          19.000    26462208.023 8                      -370.705          23.000  
E 1  27163582.648 1 142745628.253 2       818.198          40.000    27163584.649 1 109376493.930 2       627.064          37.000  
E18  21602306.352 1 113520881.069 1      2037.139          44.000    21602306.806 1  86983538.478 2      1561.144          39.000  
J 7  38318430.538 1 201364722.757 3      -509.707          36.000    38318428.963 2 156907576.937 4      -397.600          35.000  
E13                                                                  27124323.026 8                     -1775.584          26.000  
> 2021  5 17  2 34 18.0060000  0 27                     
G 7  22845513.646 1 120053997.969 2      1688.119          41.000    22845512.821 2  93548566.838 4      1314.868          33.000                                                                  
G 1  23309439.151 8                      2561.561          26.000                                                                                                                                  
G 9  24819252.863 2                     -2535.101          28.000    24819263.241 9                     -1975.417          21.000                                                                  
G16  26101970.736 9                     -2228.692          21.000                                                                                                                                  
G21  22377356.417 1 117593807.811 1       291.355          43.000                                                                                                                                  
G30  25894501.063 4 136076527.717 5      2849.971          31.000    25894491.128 8                      2219.855          25.000                                                                  
C10  39160121.236 1 203917025.368 3      -419.029          36.000    39160117.015 1 157681562.897 3      -323.967          36.000  
C30  24322253.436 4                      1212.087          31.000                                                                  
C 9  38482962.233 2 200391134.362 4     -1829.237          33.000    38482960.377 1 154954940.707 3     -1414.149          38.000  
C16  39920275.902 1 207875365.937 4     -2115.394          34.000    39920276.992 2 160742457.271 5     -1636.441          32.000  
R16  21981539.629 9                      -454.949          22.000                                                                  
R18  24028288.429 9                     -4435.122          25.000                                                                  
R 9  22851690.369 4 122026749.694 5      2146.243          33.000    22851703.740 9                      1668.450          23.000  
R19  21186286.830 2 113332361.855 4     -1719.498          35.000    21186285.798 4  88147377.094 5     -1336.710          33.000  
R15  25128578.335 8 134279502.37315     -2942.297          28.000                                                                  
R20  22666644.837 4                      2741.016          29.000    22666649.221 4                      2132.340          29.000  
G 8  22884422.158 1 120258452.725 3     -2437.490          36.000    22884419.989 9                     -1898.812          25.000                                                                  
G 4  25502116.581 9                     -3375.354          26.000                                                                                                                                  
E26  24815982.465 1 130408885.826 2       431.020          41.000    24815985.136 1  99923690.633 3       330.420          36.000  
S37  38318523.223 1 201365190.281 2      -510.001          39.000  
C 7  38631635.672 2 201165060.350 5      -311.299          33.000    38631630.782 1 155553584.665 5      -240.405          29.000  
C27  23445817.121 1 122088527.183 1     -1626.440          44.000                                                                  
E21  26462290.779 9                      -479.422          19.000    26462301.179 8                      -369.701          23.000  
E 1  27163426.815 1 142744810.205 2       818.140          40.000    27163429.014 1 109375867.116 2       626.906          37.000  
E18  21601918.813 1 113518844.163 1      2036.572          44.000    21601919.260 1  86981977.730 2      1560.594          39.000  
J 7  38318527.634 1 201365232.558 3      -510.032          36.000    38318525.997 1 156907974.134 3      -397.192          35.000  
E13                                                                  27124764.494 8                     -1777.385          26.000  
> 2021  5 17  2 34 19.0060000  0 29                     
G 7  22845192.386 1 120052310.029 2      1687.683          41.000    22845191.770 2  93547251.524 5      1315.662          33.000                                                                  
G 1  23308947.485 8                      2561.219          26.000                                                                                                                                  
G 9  24819735.370 2                     -2534.875          28.000    24819747.250 9                     -1971.577          21.000                                                                  
G16  26102390.626 9                     -2226.156          21.000                                                                                                                                  
G21  22377300.935 1 117593516.633 1       290.992          43.000                                                                                                                                  
G30  25893958.491 4                      2849.750          31.000    25893948.628 8                      2222.015          25.000                                                                  
C10  39160201.728 1 203917444.455 3      -419.504          36.000    39160197.454 1 157681886.954 3      -324.178          36.000  
C30  24322018.310 4 126651124.92715      1211.830          32.000                                                                  
C 9  38483313.489 2 200392963.092 4     -1828.804          33.000    38483311.614 1 154956354.787 2     -1414.033          38.000  
C16  39920682.336 1 207877481.919 4     -2115.752          34.000    39920683.131 2 160744093.473 5     -1636.274          32.000  
R16  21981624.920 9                      -437.559          21.000                                                                  
R18  24029121.176 9                     -4437.301          26.000                                                                  
R 9  22851288.620 2 122024603.119 5      2146.737          33.000    22851303.647 9                      1667.004          23.000  
R19  21186608.116 2 113334080.651 4     -1718.817          35.000    21186607.245 4  88148714.002 5     -1336.821          33.000  
R15  25129128.240 4                     -2942.950          28.000                                                                  
R20  22666132.116 4                      2741.040          30.000    22666136.229 4                      2132.207          29.000  
G 8  22884885.865 1 120260890.063 3     -2437.769          37.000    22884883.399 8                     -1898.505          26.000                                                                  
G 4  25502759.866 9                     -3375.159          27.000                                                                                                                                  
G27  25041624.882 9                     -3568.787          21.000                                                                                                                                  
E26  24815900.506 1 130408454.893 2       430.826          41.000    24815903.161 1  99923360.469 3       330.007          36.000  
S37  38318620.281 1 201365700.099 2      -509.867          40.000  
C 7  38631695.277 2 201165371.321 4      -310.480          33.000    38631690.519 1 155553825.160 5      -240.310          29.000  
C27  23446129.664 1 122090153.706 1     -1626.789          44.000                                                                  
E21  26462384.869 9                      -482.657          17.000    26462393.796 8                      -368.542          22.000  
E 1  27163271.138 1 142743992.169 2       818.042          40.000    27163273.520 1 109375240.288 3       627.101          37.000  
E18  21601531.303 1 113516808.065 1      2035.885          44.000    21601531.873 1  86980417.623 2      1559.732          39.000  
J 7  38318624.719 1 201365742.372 3      -509.642          36.000    38318623.017 1 156908371.413 3      -397.303          35.000  
J 2  40320535.913 9                       611.353          12.000                                                                  
E13                                                                  27125205.453 8                     -1777.124          26.000  
> 2021  5 17  2 34 20.0060000  0 28                     
G 7  22844871.267 1 120050622.365 2      1687.693          41.000    22844870.647 2  93545936.485 4      1314.966          33.000                                                                  
G 1  23308455.508 8                      2561.558          26.000                                                                                                                                  
G 9  24820217.672 2                     -2534.267          29.000    24820229.933 9                     -1970.757          20.000                                                                  
G16  26102812.362 9                     -2218.149          21.000                                                                                                                                  
G21  22377245.680 1 117593225.936 2       290.335          43.000                                                                                                                                  
G30  25893416.122 4                      2851.038          31.000    25893405.764 9                      2222.559          25.000                                                                  
C10  39160282.188 1 203917863.248 3      -418.820          37.000    39160277.817 1 157682210.814 3      -324.023          36.000  
C30  24321786.039 4 126649913.098 5      1211.443          32.000                                                                  
C 9  38483664.505 2 200394791.742 5     -1827.772          33.000    38483662.813 1 154957768.865 2     -1413.980          38.000  
C16  39921088.651 1 207879597.818 4     -2116.110          34.000    39921089.567 2                     -1636.797          32.000  
R16  21981709.125 9                      -444.648          20.000                                                                  
R18  24029953.863 9                     -4436.101          26.000                                                                  
R 9  22850886.767 2 122022456.480 5      2147.502          32.000    22850902.860 9                      1665.969          23.000  
R19  21186929.512 2 113335800.217 4     -1719.452          34.000    21186928.708 4  88150051.433 5     -1338.135          33.000  
R15  25129678.686 4                     -2943.317          28.000                                                                  
R20  22665619.520 4                      2739.941          30.000    22665623.194 4                      2131.618          29.000  
G 8  22885349.466 1 120263327.458 3     -2437.336          37.000    22885347.332 8                     -1899.452          26.000                                                                  
G 4  25503400.294 9                     -3375.342          27.000                                                                                                                                  
E26  24815818.568 1 130408024.275 2       430.425          41.000    24815821.304 1  99923030.501 3       329.908          36.000  
S37  38318717.371 1 201366209.781 2      -509.681          40.000  
C 7  38631754.769 2 201165682.103 5      -310.919          33.000    38631750.147 1                      -240.289          29.000  
C27  23446442.289 1 122091780.513 1     -1626.980          44.000                                                                  
E21  26462477.200 9                      -472.554          16.000                                                                  
E 1  27163115.242 1 142743173.909 2       818.497          40.000    27163117.688 1 109374613.334 3       627.106          37.000  
E18  21601143.987 1 113514772.588 1      2035.117          44.000    21601144.501 1  86978857.961 2      1559.395          39.000  
J 7  38318721.673 1 201366252.052 3      -509.722          36.000    38318720.057 1 156908768.560 4      -396.873          35.000  
J 2  40320420.997 9                       611.353          12.000                                                                  
E13                                                                  27125648.263 8                     -1779.263          26.000  
> 2021  5 17  2 34 21.0060000  0 29                     
G 7  22844550.307 1 120048935.082 2      1687.089          41.000    22844549.830 2  93544621.716 4      1314.635          34.000                                                                  
G 1  23307963.548 8                      2561.639          27.000                                                                                                                                  
G 9  24820699.845 2                     -2534.849          29.000    24820714.335 9                     -1984.253          19.000                                                                  
G16  26103234.752 9                     -2226.515          21.000                                                                                                                                  
G21  22377190.469 1 117592935.820 1       289.849          43.000                                                                                                                                  
G30  25892873.596 2                      2851.749          31.000    25892863.864 9                      2221.406          25.000                                                                  
C10  39160362.608 1 203918281.939 3      -419.090          37.000    39160358.236 1 157682534.545 3      -323.379          36.000  
C30  24321554.793 4 126648701.673 5      1210.945          32.000                                                                  
C 9  38484015.616 2 200396620.568 4     -1829.065          33.000    38484013.999 1 154959183.004 2     -1414.224          38.000  
C16  39921494.815 1 207881713.686 4     -2115.543          34.000    39921495.805 2 160747365.728 5     -1636.974          32.000  
R16  21981795.215 9                      -449.977          18.000                                                                  
R18  24030787.398 9                     -4436.891          26.000                                                                  
R 9  22850484.934 4                      2145.299          32.000    22850500.340 9                      1676.977          23.000  
R19  21187251.095 2 113337520.602 4     -1721.292          34.000    21187250.139 2  88151389.469 4     -1338.811          33.000  
R15  25130229.445 4                     -2943.551          27.000                                                                  
R20  22665107.209 4                      2740.076          31.000    22665110.528 4                      2130.969          30.000  
G 8  22885813.225 1 120265765.057 3     -2437.881          37.000    22885811.159 8                     -1899.590          26.000                                                                  
G 4  25504041.784 9                     -3374.719          27.000                                                                                                                                  
E26  24815736.644 1 130407594.049 2       430.045          41.000    24815739.370 1  99922700.833 3       329.843          36.000  
S37  38318814.330 1 201366719.422 2      -510.129          39.000  
C 7  38631814.253 2 201165992.723 4      -311.035          33.000    38631809.669 2                      -240.023          29.000  
C27  23446754.931 1 122093407.695 1     -1627.651          45.000                                                                  
E 1  27162959.440 1 142742355.579 2       818.368          40.000    27162961.992 1 109373986.306 2       627.125          37.000  
E18  21600756.699 1 113512737.815 1      2034.303          44.000    21600757.273 1  86977298.850 2      1558.720          39.000  
E33  27846779.609 9                      2317.796          25.000                                                                  
J 7  38318818.591 1 201366761.677 3      -509.645          36.000    38318817.090 1 156909165.674 4      -397.361          35.000  
J 2  40320305.438 9                       611.353          11.000                                                                  
E13                                                                  27126089.363 8                     -1777.975          27.000  
C 8                                                                  40329316.415 8                       955.230          25.000  
> 2021  5 17  2 34 22.0060000  0 28                     
G 7  22844229.210 1 120047248.185 1      1686.509          41.000    22844228.697 2  93543307.248 4      1314.019          34.000                                                                  
G 1  23307473.272 8                      2561.600          26.000                                                                                                                                  
G 9  24821182.193 2                     -2535.426          29.000    24821199.714 9                     -1978.479          17.000                                                                  
G16  26103658.125 9                     -2234.859          21.000                                                                                                                                  
G21  22377135.338 1 117592646.278 2       289.122          43.000                                                                                                                                  
G30  25892331.163 2                      2850.442          31.000    25892323.452 8                      2222.096          25.000                                                                  
C10  39160442.928 1 203918700.470 3      -418.396          36.000    39160438.630 1 157682858.202 3      -324.283          36.000  
C30  24321321.672 4 126647490.526 5      1211.558          32.000                                                                  
C 9  38484366.912 2 200398449.410 4     -1828.794          33.000    38484365.121 1 154960597.170 2     -1414.204          38.000  
C16  39921901.170 1 207883829.562 4     -2116.645          33.000    39921902.030 2 160749001.808 5     -1635.922          32.000  
R16  21981881.435 9                      -463.600          16.000                                                                  
R18  24031619.795 9                     -4435.892          27.000                                                                  
R 9  22850083.151 4                      2146.186          32.000    22850098.628 9                      1670.118          23.000  
R19  21187572.930 2 113339241.657 3     -1721.755          34.000    21187571.838 4  88152728.065 4     -1338.519          33.000  
R15  25130780.410 4                     -2944.096          26.000                                                                  
R20  22664594.646 4                      2738.714          31.000    22664598.246 4                      2130.304          31.000  
G 8  22886276.894 1 120268202.811 3     -2437.607          37.000    22886275.540 8                     -1899.760          26.000                                                                  
G 4  25504682.598 8                     -3375.067          27.000                                                                                                                                  
E26  24815654.816 1 130407164.196 2       429.708          41.000    24815657.714 1  99922371.479 3       329.085          36.000  
S37  38318911.399 1 201367228.950 2      -509.533          39.000  
C 7  38631873.910 2 201166303.172 4      -310.694          33.000    38631869.132 1                      -239.965          29.000  
C27  23447067.479 1 122095035.206 1     -1627.827          45.000                                                                  
E 1  27162803.891 1 142741537.110 2       818.781          40.000    27162806.069 1 109373359.166 3       627.081          37.000  
E18  21600369.748 1 113510703.712 1      2033.624          44.000    21600370.214 1  86975740.257 2      1557.988          39.000  
E33  27846339.953 9                      2320.669          25.000                                                                  
J 7  38318915.555 1 201367271.198 3      -509.099          36.000    38318914.065 1 156909562.721 4      -397.284          35.000  
E13                                                                  27126531.098 8                     -1778.271          27.000  
C 8                                                                  40329076.852 8                       954.563          26.000  
> 2021  5 17  2 34 23.0060000  0 28                     
G 7  22843908.447 1 120045561.870 2      1685.531          41.000    22843907.871 2  93541993.173 4      1313.465          33.000                                                                  
G 1  23306983.034 9                      2563.691          24.000                                                                                                                                  
G 9  24821664.596 2                     -2538.094          30.000    24821683.070 9                     -1978.479          14.000                                                                  
G16  26104081.972 9                     -2232.927          22.000                                                                                                                                  
G21  22377080.391 1 117592357.158 1       288.987          43.000                                                                                                                                  
G30  25891788.552 4                      2849.677          30.000    25891781.096 8                      2219.525          25.000                                                                  
C10  39160523.142 1 203919119.044 3      -419.327          36.000    39160518.967 1 157683181.867 3      -323.601          35.000  
C30  24321089.112 4                      1210.453          32.000                                                                  
C 9  38484718.139 2 200400278.321 4     -1828.685          33.000    38484716.372 1 154962011.404 3     -1414.283          38.000  
C16  39922307.473 1 207885945.227 5     -2115.765          33.000    39922308.338 2                     -1635.610          32.000  
R16  21981967.227 9                      -453.062          14.000                                                                  
R18  24032450.234 9                     -4436.883          27.000                                                                  
R 9  22849681.307 4                      2144.187          26.000    22849696.767 9                      1675.347          24.000  
R19  21187894.852 2 113340963.558 4     -1722.514          34.000    21187893.690 2  88154067.330 4     -1339.391          33.000  
R15  25131331.457 4                     -2943.506          25.000                                                                  
R20  22664082.493 4                      2741.726          29.000    22664085.879 4                      2129.279          31.000  
G 8  22886740.716 1 120270640.903 3     -2438.531          37.000    22886740.523 8                     -1900.135          27.000                                                                  
G 4  25505324.565 8                     -3374.988          27.000                                                                                                                                  
E26  24815573.000 1 130406734.636 2       429.677          41.000    24815575.921 1  99922042.342 3       329.041          36.000  
S37  38319008.356 1 201367738.319 2      -509.072          39.000  
C 7  38631933.581 2 201166613.581 4      -310.208          33.000    38631928.805 2                      -239.869          29.000  
C27  23447380.169 1 122096663.139 1     -1628.268          45.000                                                                  
E 1  27162648.108 1 142740718.810 2       817.674          39.000    27162650.309 1 109372732.135 3       626.478          36.000  
E18  21599982.851 1 113508670.406 1      2032.757          44.000    21599983.415 1  86974182.261 2      1557.554          39.000  
E33  27845904.706 9                      2318.079          25.000                                                                  
J 7  38319012.530 1 201367780.587 3      -509.067          36.000    38319010.963 1 156909959.590 4      -395.890          35.000  
E13                                                                  27126973.396 4                     -1779.388          26.000  
C 8                                                                  40328838.839 8                       954.846          25.000  
> 2021  5 17  2 34 24.0060000  0 26                     
G 7  22843587.884 1 120043876.989 2      1683.594          41.000    22843587.090 2  93540680.320 5      1312.951          33.000                                                                  
G 1  23306492.362 9                      2562.027          23.000                                                                                                                                  
G16  26104502.332 9                     -2226.359          21.000                                                                                                                                  
G21  22377025.225 1 117592067.784 1       289.607          43.000                                                                                                                                  
G30  25891246.602 4                      2845.529          31.000    25891241.747 9                      2218.940          26.000                                                                  
C10  39160603.796 1 203919538.838 3      -420.527          36.000    39160599.504 1 157683506.438 3      -325.266          35.000  
C30  24320856.738 2                      1210.920          31.000                                                                  
C 9  38485069.550 2 200402107.044 4     -1828.236          35.000    38485067.585 1 154963425.487 5     -1413.173          31.000  
C16  39922713.699 2 207888060.135 5     -2112.414          33.000    39922714.574 2                     -1635.632          31.000  
R18  24033281.842 9                     -4435.696          25.000                                                                  
R 9  22849280.403 8                      2142.965          31.000    22849292.743 9                      1665.894          24.000  
R19  21188216.867 2 113342686.495 4     -1723.825          34.000    21188215.996 4  88155407.420 4     -1340.230          33.000  
R15  25131884.807 9                     -2940.735          24.000                                                                  
R20  22663570.183 4                      2738.153          30.000    22663573.529 4                      2133.169          30.000  
G 8  22887204.805 1 120273079.917 3     -2438.545          37.000    22887205.168 8                     -1900.400          29.000                                                                  
E26  24815491.055 1 130406304.897 2       430.027          41.000    24815494.151 1  99921713.070 3       329.478          36.000  
S37  38319105.098 1 201368246.758 2      -507.583          39.000  
C 7  38631992.974 2                      -310.903          31.000    38631988.420 2                      -240.678          29.000  
C27  23447692.978 1 122098291.786 1     -1628.941          46.000                                                                  
E 1  27162492.474 1 142739901.839 2       815.991          41.000    27162495.083 1 109372106.107 2       625.621          37.000  
E18  21599595.866 1 113506638.434 1      2031.176          44.000    21599596.882 1  86972625.285 2      1556.738          39.000  
E33  27845474.085 9                      2316.521          27.000                                                                  
J 7  38319109.230 1 201368289.016 4      -507.369          36.000    38319107.774 1 156910355.858 3      -396.180          36.000  
E13                                                                  27127416.071 4                     -1779.894          26.000  
C 8                                                                  40328600.457 8                       956.420          25.000  
G 9                                                                  24822164.580 9                     -1980.745          16.000                                                                  
> 2021  5 17  2 34 25.0060000  0 25                     
G 7  22843267.674 1 120042194.270 2      1681.575          43.000    22843266.824 2  93539369.063 4      1310.175          33.000                                                                  
G 1  23306002.887 9                      2568.241          24.000                                                                                                                                  
G16  26104927.758 9                     -2230.838          21.000                                                                                                                                  
G21  22376970.001 1 117591777.826 2       290.947          43.000                                                                                                                                  
G30  25890705.003 4                      2846.350          31.000    25890702.969 8                      2215.192          26.000                                                                  
C10  39160684.849 1 203919960.435 3      -422.601          36.000    39160680.430 1 157683832.424 5      -327.179          35.000  
C30  24320624.317 2                      1209.179          33.000                                                                  
C 9  38485420.747 1 200403936.016 4     -1827.515          35.000    38485418.894 1 154964839.657 4     -1414.818          39.000  
C16  39923119.456 2                     -2112.720          30.000    39923120.635 2                     -1634.128          31.000  
R18  24034112.000 9                     -4432.055          23.000                                                                  
R 9  22848876.381 8                      2142.349          30.000    22848892.395 9                      1665.615          24.000  
R19  21188539.200 2 113344410.628 4     -1724.314          34.000    21188538.385 4  88156748.415 4     -1340.453          32.000  
R15  25132438.118 9                     -2943.097          24.000                                                                  
R20  22663057.949 4                      2739.368          31.000    22663060.274 8                      2131.631          26.000  
G 8  22887669.042 1 120275520.354 2     -2441.591          39.000    22887670.793 8                     -1901.819          28.000                                                                  
E26  24815409.359 1 130405874.765 2       430.322          41.000    24815412.354 1  99921383.457 3       330.203          36.000  
S37  38319201.685 1 201368753.989 3      -506.067          40.000  
C 7  38632052.803 2 201167236.696 5      -312.306          35.000    38632048.358 2                      -241.415          32.000  
C27  23448005.991 1 122099921.272 1     -1629.685          46.000                                                                  
E 1  27162338.032 1 142739086.932 2       813.798          43.000    27162340.306 1 109371481.718 2       623.045          37.000  
E18  21599209.316 1 113504608.112 1      2029.394          44.000    21599210.500 1  86971069.599 2      1554.880          39.000  
J 7  38319205.814 1 201368796.263 4      -506.281          36.000    38319204.237 1 156910751.022 3      -394.015          36.000  
E13                                                                  27127858.177 8                     -1779.642          25.000  
C 8                                                                  40328362.227 8                       958.860          25.000  
G 9                                                                  24822646.977 9                     -1975.916          28.000                                                                  
> 2021  5 17  2 34 26.0060000  0 26                     
G 7  22842948.038 1 120040513.937 2      1679.408          42.000    22842946.973 2  93538059.775 4      1308.438          33.000                                                                  
G 9  24823105.482 9                     -2539.034          28.000    24823129.925 9                     -1975.012          26.000                                                                  
G16  26105354.080 9                     -2229.855          21.000                                                                                                                                  
G21  22376914.729 1 117591486.744 2       291.322          42.000                                                                                                                                  
G30  25890163.926 4                      2840.791          29.000    25890162.897 9                      2209.840          24.000                                                                  
C10  39160766.239 1 203920384.218 3      -423.931          37.000    39160761.849 1 157684160.128 4      -327.544          35.000  
C30  24320391.390 1 126642650.431 4      1208.455          40.000                                                                  
C 8  40328124.127 9                      1242.708          25.000    40328122.269 8                       959.002          26.000  
C 9  38485771.966 1                     -1829.045          37.000    38485769.966 2                     -1414.041          40.000  
C16  39923525.518 4                     -2112.629          23.000    39923526.237 2                     -1632.807          29.000  
R16  21982222.876 9                      -455.000          15.000                                                                  
R18  24034943.009 9                     -4440.862          22.000                                                                  
R 9  22848473.312 8                      2141.446          30.000    22848487.962 9                      1662.183          26.000  
R19  21188861.640 2                     -1726.101          28.000    21188861.068 4                     -1341.919          24.000  
R15  25132992.213 9                     -2943.912          24.000                                                                  
R20  22662545.423 8                      2744.922          31.000    22662544.829 8                      2129.967          30.000  
G 8  22888133.787 1 120277962.325 2     -2442.538          42.000    22888131.917 8                     -1903.672          33.000                                                                  
E26  24815327.210 1 130405443.788 2       430.753          41.000    24815330.391 1  99921053.247 3       329.919          36.000  
S37  38319297.942 1 201369259.429 3      -505.004          39.000  
C 7  38632113.088 1 201167549.889 3      -313.617          38.000    38632108.557 1 155555509.679 5      -241.676          35.000  
C27  23448319.426 1 122101551.649 2     -1630.669          37.000                                                                  
E 1  27162184.504 1 142738274.607 2       812.229          44.000    27162186.077 1 109370859.297 2       622.071          39.000  
E18  21598823.396 1 113502579.568 1      2027.885          44.000    21598824.451 1  86969515.281 2      1553.776          39.000  
E33  27844592.810 9                      2312.661          22.000                                                                  
J 7  38319302.042 1 201369301.691 3      -505.105          36.000    38319300.427 1 156911144.900 3      -393.231          36.000  
E13                                                                  27128299.559 8                     -1783.674          24.000  
> 2021  5 17  2 34 27.0060000  0 24                     
G 7  22842628.429 1 120038834.448 2      1679.464          42.000    22842627.083 2  93536751.058 5      1309.108          32.000                                                                  
G 9  24823590.122 9                     -2536.305          28.000    24823607.246 9                     -1977.736          24.000                                                                  
G16  26105773.446 9                     -2226.944          21.000                                                                                                                                  
G21  22376859.508 1 117591195.977 2       290.336          42.000                                                                                                                                  
G30  25889625.076 8                      2840.743          28.000    25889622.873 9                      2183.389          22.000                                                                  
C10  39160847.754 1 203920808.409 3      -424.003          37.000    39160843.189 1 157684488.133 3      -327.161          35.000  
C30  24320158.517 1 126641441.558 3      1208.693          39.000                                                                  
C 8  40327885.598 8                      1241.169          27.000    40327882.765 8                       961.593          26.000  
C 9  38486123.657 4                     -1826.066          33.000    38486121.349 2                     -1415.235          28.000  
C16  39923936.074 9                     -2114.228          24.000    39923931.997 2                     -1633.662          27.000  
R16  21982309.117 9                      -456.888          17.000                                                                  
R18  24035767.637 9                     -4443.219          30.000                                                                  
R 9  22848075.784 8                      2139.126          37.000    22848083.044 9                      1664.607          31.000  
R19  21189184.286 9                     -1723.878          25.000    21189184.475 9                     -1347.193          21.000  
R15  25133544.865 9                     -2944.840          25.000                                                                  
R20  22662032.492 8                      2739.435          31.000    22662029.397 8                      2131.705          30.000  
G 8  22888598.789 1 120280404.787 1     -2442.432          47.000    22888596.379 8  93724984.22215     -1903.170          34.000                                                                  
E26  24815245.267 1 130405013.043 2       430.469          41.000    24815248.488 1  99920723.196 3       329.782          37.000  
S37  38319394.081 1 201369764.513 3      -504.837          38.000  
C 7  38632173.639 1 201167863.254 2      -313.382          40.000    38632168.981 1 155555752.042 3      -242.491          38.000  
C27  23448632.533 2                     -1631.890          26.000                                                                  
E 1  27162030.932 1 142737462.851 2       811.789          43.000    27162031.930 1 109370237.266 2       622.063          40.000  
E18  21598437.112 1 113500552.054 2      2027.253          43.000    21598438.719 1  86967961.690 2      1553.465          40.000  
J 7  38319398.151 1 201369806.804 4      -505.297          35.000    38319396.591 1 156911538.526 3      -393.365          36.000  
