     3.03           OBSERVATION DATA    M: Mixed            RINEX VERSION / TYPE
RTKCONV demo5 b33c                      20210520 074755 UTC PGM / RUN BY / DATE 
log: C:\Users\Ivan_PolyU_Dktp\Dropbox\HUAWEI Exp\20210517_  COMMENT             
format: RINEX                                               COMMENT             
                                                            MARKER NAME         
                                                            MARKER NUMBER       
                                                            MARKER TYPE         
                                                            OBSERVER / AGENCY   
BFN16413056         NOV CDSR0G55N       OEM060710RN0000     REC # / TYPE / VERS 
                                                            ANT # / TYPE        
 -2419234.5990  5385473.8219  2405342.6599                  APPROX POSITION XYZ 
        0.0000        0.0000        0.0000                  ANTENNA: DELTA H/E/N
G    8 C1C L1C D1C S1C C2W L2W D2W S2W                      SYS / # / OBS TYPES 
R    8 C1C L1C D1C S1C C2P L2P D2P S2P                      SYS / # / OBS TYPES 
C    8 C2I L2I D2I S2I C7I L7I D7I S7I                      SYS / # / OBS TYPES 
  2021     5    17     2    33   13.0000000     GPS         TIME OF FIRST OBS   
  2021     5    17     2    46   19.0000000     GPS         TIME OF LAST OBS    
G                                                           SYS / PHASE SHIFT   
R                                                           SYS / PHASE SHIFT   
C                                                           SYS / PHASE SHIFT   
  1 R18 -3                                                  GLONASS SLOT / FRQ #
 C1C    0.000 C1P    0.000 C2C    0.000 C2P    0.000        GLONASS COD/PHS/BIS 
                                                            END OF HEADER       
> 2021  5 17  2 33 13.0000000  0  1                     
C27  21620209.550 7 112582095.654 7     -1091.118          44.000                                                                  
> 2021  5 17  2 33 14.0000000  0  1                     
C27  21620419.173 7 112583187.199 7     -1091.336          44.000                                                                  
> 2021  5 17  2 33 15.0000000  0  1                     
C27  21620628.817 7 112584278.952 7     -1091.972          44.000                                                                  
> 2021  5 17  2 33 16.0000000  0  1                     
C27  21620838.503 7 112585370.942 7     -1092.536          44.000                                                                  
> 2021  5 17  2 33 17.0000000  0  1                     
C27  21621048.271 7 112586463.327 7     -1092.344          44.000                                                                  
> 2021  5 17  2 33 18.0000000  0  1                     
C27  21621258.115 7 112587556.097 7     -1093.104          44.000                                                                  
> 2021  5 17  2 33 19.0000000  0  1                     
C27  21621468.083 7 112588649.430 7     -1093.372          44.000                                                                  
> 2021  5 17  2 33 20.0000000  0  1                     
C27  21621678.100 7 112589743.137 7     -1093.879          43.750                                                                  
> 2021  5 17  2 33 21.0000000  0  1                     
C27  21621888.259 7 112590837.633 7     -1095.022          44.000                                                                  
> 2021  5 17  2 33 22.0000000  0  1                     
C27  21622098.652 7 112591933.344 7     -1096.897          43.250                                                                  
> 2021  5 17  2 33 23.0000000  0  1                     
C27  21622309.435 7 112593031.371 7     -1098.872          43.500                                                                  
> 2021  5 17  2 33 24.0000000  0  1                     
C27  21622520.661 7 112594131.390 7     -1100.778          44.750                                                                  
> 2021  5 17  2 33 25.0000000  0  1                     
C27  21622732.186 6 112595233.005 6     -1101.938          41.750                                                                  
> 2021  5 17  2 33 26.0000000  0  1                     
C27  21622943.880 6 112596335.207 6     -1102.372          40.250                                                                  
> 2021  5 17  2 33 27.0000000  0  1                     
C27  21623155.688 6 112597438.049 6     -1103.040          39.750                                                                  
> 2021  5 17  2 33 28.0000000  0  1                     
C27  21623367.603 6 112598541.701 6     -1104.614          41.000                                                                  
> 2021  5 17  2 33 40.0000000  0  1                     
C27  21625912.934 5 112611797.75715     -1109.658          33.500                                                                  
> 2021  5 17  2 33 41.0000000  0  1                     
C27  21626126.837 5 112612907.33125     -1110.554          30.750                                                                  
> 2021  5 17  2 33 42.0000000  0  1                     
C27  21626339.324 5 112614022.31915     -1108.135          32.750                                                                  
> 2021  5 17  2 33 43.0000000  0  1                     
C27  21626552.461 7 112615131.72627     -1109.376          43.500                                                                  
> 2021  5 17  2 33 44.0000000  0  2                     
G 7  21047974.275 6 110607850.564 6      2189.015          40.250                                                                  
C27  21626765.425 7 112616241.55727     -1109.865          44.000                                                                  
> 2021  5 17  2 33 45.0000000  0  2                     
G 7  21047557.341 6 110605659.816 6      2192.837          40.000                                                                  
C27  21626978.551 7 112617351.34627     -1110.163          43.000                                                                  
> 2021  5 17  2 33 46.0000000  0  2                     
G 7  21047139.482 7 110603463.819 7      2199.381          42.000                                                                  
C27  21627191.175 6 112618460.42426     -1108.501          41.000                                                                  
> 2021  5 17  2 33 47.0000000  0  2                     
G 7  21046720.262 6 110601260.842 6      2206.800          42.000                                                                  
C27  21627403.394 7 112619568.25827     -1106.690          43.250                                                                  
> 2021  5 17  2 33 48.0000000  0  2                     
G 7  21046299.682 7 110599050.573 7      2212.660          42.250                                                                  
C27  21627615.557 7 112620674.50827     -1105.892          43.500                                                                  
> 2021  5 17  2 33 49.0000000  0  2                     
G 7  21045878.320 6 110596836.714 6      2213.742          40.250                                                                  
C27  21627827.729 7 112621779.93027     -1105.489          44.000                                                                  
> 2021  5 17  2 33 50.0000000  0  3                     
G21  20569872.092 7 108095406.316 7       822.594          42.500                                                                  
G 7  21045456.913 6 110594622.933 6      2213.832          39.750    21045454.321 6  86177619.141 6      1725.064          39.500  
C27  21628039.870 7 112622885.53427     -1105.703          42.000                                                                  
> 2021  5 17  2 33 51.0000000  0  3                     
G21  20569715.622 7 108094584.052 7       822.176          43.500                                                                  
G 7  21045035.500 6 110592409.431 6      2213.413          41.250    21045033.431 6  86175894.299 6      1724.737          40.750  
C27  21628252.038 7 112623991.379 7     -1105.893          42.000                                                                  
> 2021  5 17  2 33 52.0000000  0  3                     
G21  20569559.253 7 108093762.361 7       821.454          43.000                                                                  
G 7  21044614.347 6 110590196.307 6      2212.885          41.000    21044611.846 6  86174169.790 6      1724.326          41.250  
C27  21628464.280 7 112625097.602 7     -1106.533          42.750                                                                  
> 2021  5 17  2 33 53.0000000  0  3                     
G21  20569402.991 7 108092941.259 7       820.862          42.750                                                                  
G 7  21044193.312 6 110587983.576 6      2212.311          41.000    21044191.039 6  86172445.580 6      1723.879          39.250  
C27  21628676.500 7 112626204.182 7     -1106.868          42.750                                                                  
> 2021  5 17  2 33 54.0000000  0  3                     
G21  20569246.943 7 108092120.957 7       820.114          42.500                                                                  
G 7  21043772.277 6 110585771.410 6      2212.061          41.250    21043769.959 6  86170721.813 6      1723.683          40.500  
C27  21628888.888 7 112627311.361 7     -1107.143          42.250                                                                  
> 2021  5 17  2 33 55.0000000  0  3                     
G21  20569090.951 7 108091301.135 7       819.403          42.000                                                                  
G 7  21043351.258 6 110583559.559 6      2211.386          41.000    21043348.501 6  86168998.293 6      1723.159          40.500  
C27  21629101.287 7 112628418.833 7     -1107.783          42.500                                                                  
> 2021  5 17  2 33 56.0000000  0  3                     
G21  20568935.075 7 108090482.120 7       819.131          42.250    20568937.130 4  84226331.498 4       638.284          29.000  
G 7  21042930.418 6 110581348.306 6      2211.033          41.250    21042927.910 6  86167275.238 6      1722.883          41.000  
C27  21629313.855 6 112629526.908 6     -1108.090          41.750                                                                  
> 2021  5 17  2 33 57.0000000  0  3                     
G21  20568779.368 7 108089663.785 7       818.151          42.250    20568780.281 4  84225693.745 4       637.520          26.750  
G 7  21042509.748 6 110579137.538 6      2210.677          41.250    21042507.168 6  86165552.569 6      1722.607          41.000  
C27  21629526.461 6 112630635.453 6     -1108.454          41.750                                                                  
> 2021  5 17  2 33 58.0000000  0  3                     
G21  20568623.846 7 108088846.199 7       817.125          42.000    20568620.365 5  84225056.600 5       636.721          30.250  
G 7  21042089.187 6 110576927.317 6      2209.636          41.750    21042086.691 6  86163830.322 6      1721.796          40.250  
C27  21629739.338 6 112631744.541 6     -1109.281          41.750                                                                  
> 2021  5 17  2 33 59.0000000  0  3                     
G21  20568468.388 7 108088029.274 7       816.903          42.000    20568463.829 5  84224420.077 5       636.548          32.000  
G 7  21041668.601 6 110574717.577 6      2209.728          41.750    21041666.220 6  86162108.452 6      1721.869          41.000  
C27  21629952.266 6 112632854.104 6     -1109.520          41.750                                                                  
> 2021  5 17  2 34  0.0000000  0  3                     
G21  20568312.865 7 108087212.678 7       816.286          42.500    20568306.306 4  84223783.781 4       636.066          25.000  
G 7  21041248.198 6 110572507.938 6      2209.425          41.500    21041245.957 6  86160386.657 6      1721.631          41.000  
C27  21630165.301 6 112633963.750 6     -1109.742          42.000                                                                  
> 2021  5 17  2 34  1.0000000  0  3                     
G21  20568157.626 7 108086396.551 7       815.911          42.250    20568153.878 4  84223147.836 4       635.773          25.000  
G 7  21040827.806 6 110570298.577 6      2209.581          41.500    21040825.478 6  86158665.072 6      1721.752          40.250  
C27  21630378.292 6 112635073.687 6     -1109.904          42.000                                                                  
> 2021  5 17  2 34  2.0000000  0  4                     
G21  20568002.417 7 108085580.737 7       815.986          42.250    20567999.023 4  84222512.129 4       635.831          26.000  
G 7  21040407.468 6 110568089.337 6      2209.322          41.250    21040405.378 6  86156943.582 6      1721.549          40.750  
C27  21630591.367 6 112636183.748 6     -1110.046          42.000                                                                  
C 1  37405865.406 6 194782149.975 6        13.181          37.250                                                                  
> 2021  5 17  2 34  3.0000000  0  4                     
G21  20567847.264 7 108084765.448 7       815.005          42.500    20567842.556 4  84221876.828 4       635.065          26.250  
G 7  21039987.117 6 110565880.440 6      2208.575          41.750    21039984.967 6  86155222.358 6      1720.966          39.750  
C27  21630804.552 7 112637294.114 7     -1110.536          42.000                                                                  
C 1  37405862.540 6 194782136.975 6        12.696          37.250    37405861.880 5 150617921.69915         9.952          30.250  
> 2021  5 17  2 34  4.0000000  0  4                     
G21  20567692.213 7 108083950.939 7       814.121          42.750    20567687.539 4  84221242.143 4       634.374          26.250  
G 7  21039566.837 6 110563672.105 6      2208.016          41.750    21039564.436 6  86153501.578 6      1720.532          40.750  
C27  21631017.832 7 112638405.056 7     -1111.155          42.500                                                                  
C 1  37405861.193 6 194782124.097 6        12.796          37.250    37405859.783 5 150617911.72725        10.060          30.250  
> 2021  5 17  2 34  5.0000000  0  4                     
G21  20567537.339 7 108083137.020 7       813.631          42.750    20567532.104 4  84220607.909 4       633.991          28.750  
G 7  21039146.671 6 110561464.191 6      2207.570          41.750    21039144.414 6  86151781.128 6      1720.184          41.250  
C27  21631231.240 7 112639516.391 7     -1111.372          42.500                                                                  
C 1  37405858.497 6 194782111.158 6        13.171          37.000    37405856.726 5 150617901.70325         9.946          30.750  
> 2021  5 17  2 34  6.0000000  0  4                     
G21  20567382.484 7 108082323.619 7       813.096          43.000    20567376.896 3  84219974.076 3       633.575          20.500  
G 7  21038726.570 6 110559256.585 6      2207.345          41.250    21038724.216 6  86150060.911 6      1720.008          41.000  
C27  21631444.700 7 112640628.033 7     -1111.578          42.500                                                                  
C 1  37405855.493 6 194782098.143 6        12.854          37.500    37405856.223 5 150617891.66125         9.912          30.500  
> 2021  5 17  2 34  7.0000000  0  4                     
G21  20567227.797 7 108081510.626 7       812.769          42.750    20567223.096 4  84219340.585 4       633.324          29.000  
G 7  21038306.552 6 110557049.170 6      2207.468          41.250    21038304.110 6  86148340.845 6      1720.103          40.500  
C27  21631658.261 7 112641739.896 7     -1111.834          42.500                                                                  
C 1  37405852.696 6 194782084.919 6        13.346          37.000    37405853.484 5 150617881.43225        10.355          30.250  
> 2021  5 17  2 34  8.0000000  0  4                     
G21  20567073.150 7 108080698.197 7       811.955          42.500    20567068.788 4  84218707.533 4       632.691          28.250  
G 7  21037886.524 6 110554842.148 6      2206.747          41.000    21037884.247 6  86146621.086 6      1719.542          41.000  
C27  21631871.886 7 112642852.112 7     -1112.545          42.750                                                                  
C 1  37405849.632 6 194782071.610 6        13.371          36.750    37405851.082 5 150617871.12925         9.787          30.500  
> 2021  5 17  2 34  9.0000000  0  4                     
G21  20566918.623 7 108079886.249 7       811.602          42.500    20566914.545 4  84218074.860 4       632.422          28.750  
G 7  21037466.580 6 110552635.416 6      2206.463          41.000    21037464.286 6  86144901.550 6      1719.320          40.750  
C27  21632085.565 7 112643964.608 7     -1112.694          42.750                                                                  
C 1  37405847.145 6 194782058.188 6        13.223          36.750    37405847.256 5 150617860.74625        10.299          30.500  
> 2021  5 17  2 34 10.0000000  0  4                     
G21  20566764.254 7 108079075.161 7       810.570          42.250    20566759.439 4  84217442.862 4       631.619          27.000  
G 7  21037046.850 6 110550429.322 6      2206.054          41.000    21037044.573 6  86143182.518 6      1719.002          41.000  
C27  21632299.373 7 112645077.756 7     -1113.592          43.000                                                                  
C 1  37405844.856 6 194782044.965 6        12.891          37.000    37405844.417 5 150617850.54925         9.926          30.500  
> 2021  5 17  2 34 11.0000000  0  4                     
G21  20566610.030 7 108078264.755 7       809.762          42.500    20566604.722 4  84216811.367 4       630.990          26.000  
G 7  21036627.111 6 110548223.729 6      2205.159          41.000    21036624.917 6  86141463.876 6      1718.306          40.750  
C27  21632513.336 7 112646191.376 7     -1114.348          43.000                                                                  
C 1  37405842.412 6 194782031.825 6        12.843          36.250    37405842.819 5 150617840.35925         9.955          30.750  
> 2021  5 17  2 34 12.0000000  0  4                     
G21  20566455.974 7 108077455.163 7       809.441          42.500    20566451.433 4  84216180.509 4       630.734          27.750  
G 7  21036207.536 6 110546018.762 6      2204.596          41.250    21036205.233 6  86139745.727 6      1717.868          41.250  
C27  21632727.413 7 112647305.587 7     -1114.355          43.000                                                                  
C 1  37405839.928 6 194782018.845 6        13.291          36.250    37405840.602 5 150617830.31525        10.135          30.250  
> 2021  5 17  2 34 13.0000000  0  4                     
G21  20566301.973 7 108076645.805 7       809.006          42.500    20566297.774 4  84215549.839 4       630.396          29.250  
G 7  21035787.914 6 110543813.815 6      2204.703          41.000    21035785.795 6  86138027.588 6      1717.951          40.500  
C27  21632941.496 7 112648419.870 7     -1114.630          43.250                                                                  
C 1  37405837.600 6 194782005.502 6        13.100          36.500    37405837.840 5 150617820.02525        10.020          30.750  
> 2021  5 17  2 34 14.0000000  0  4                     
G21  20566148.059 7 108075837.211 7       808.140          42.500    20566144.726 4  84214919.783 4       629.721          25.750  
G 7  21035368.366 6 110541609.429 6      2204.074          40.750    21035366.280 6  86136309.881 6      1717.461          40.750  
C27  21633155.676 7 112649534.671 7     -1115.139          43.250                                                                  
C 1  37405834.981 6 194781992.250 6        13.085          37.000    37405835.487 5 150617809.75825        10.109          30.750  
> 2021  5 17  2 34 15.0000000  0  4                     
G21  20565994.333 7 108075029.495 7       807.364          42.500    20565991.678 4  84214290.370 4       629.113          26.000  
G 7  21034948.999 6 110539405.724 6      2203.729          41.000    21034946.917 6  86134592.707 6      1717.191          40.500  
C27  21633369.964 7 112650650.162 7     -1115.790          43.500                                                                  
C 1  37405832.438 6 194781979.274 6        13.184          37.000    37405833.225 5 150617799.69425        10.616          31.000  
> 2021  5 17  2 34 16.0000000  0  4                     
G21  20565840.735 7 108074222.274 7       806.696          42.500    20565838.383 4  84213661.370 4       628.592          28.000  
G 7  21034529.707 6 110537202.328 6      2203.069          41.000    21034527.622 6  86132875.779 6      1716.678          40.500  
C27  21633584.376 7 112651765.944 7     -1116.389          43.500                                                                  
C 1  37405830.062 6 194781966.180 6        12.854          36.500    37405830.655 5 150617789.59225        10.180          30.250  
> 2021  5 17  2 34 17.0000000  0  4                     
G21  20565687.326 7 108073415.987 7       805.857          42.500    20565684.891 5  84213033.091 5       627.936          30.500  
G 7  21034110.528 6 110534999.652 6      2202.729          41.000    21034108.627 6  86131159.406 6      1716.412          40.250  
C27  21633798.906 7 112652882.437 7     -1116.877          43.750                                                                  
C 1  37405827.795 6 194781953.341 6        13.006          36.750    37405828.357 5 150617779.67325        10.093          30.750  
> 2021  5 17  2 34 18.0000000  0  4                     
G21  20565534.027 7 108072610.400 7       805.319          42.250    20565531.440 4  84212405.353 4       627.520          25.250  
G 7  21033691.520 6 110532797.499 6      2202.031          40.750    21033689.777 6  86129443.442 6      1715.869          40.250  
C27  21634013.538 7 112653999.417 7     -1117.098          44.000                                                                  
C 1  37405825.402 6 194781940.606 6        13.087          36.250                                                                  
> 2021  5 17  2 34 19.0000000  0  4                     
G21  20565380.801 7 108071805.221 7       804.787          42.250    20565378.330 4  84211777.954 4       627.108          29.000  
G 7  21033272.566 6 110530595.561 6      2201.544          40.750    21033270.767 6  86127727.646 6      1715.488          40.000  
C27  21634228.231 7 112655116.613 7     -1117.495          44.000                                                                  
C 1  37405822.930 6 194781927.691 6        12.690          36.750    37405823.364 5 150617748.81925        10.129          31.000  
> 2021  5 17  2 34 20.0000000  0  5                     
G21  20565227.749 7 108071000.977 7       804.326          42.250    20565225.193 4  84211151.268 4       626.745          29.500  
G 7  21032853.684 6 110528394.341 6      2201.517          40.750    21032851.868 6  86126012.410 6      1715.468          40.000  
G 8  21073329.087 6 110741091.597 6     -1923.254          36.250                                                                  
C27  21634443.039 7 112656234.535 7     -1117.641          44.000                                                                  
C 1  37405820.544 6 194781915.012 6        13.354          36.750    37405821.143 5 150617739.02525        10.566          30.500  
> 2021  5 17  2 34 21.0000000  0  4                     
G21  20565074.778 7 108070197.063 7       803.711          42.250    20565071.784 5  84210524.839 5       626.267          32.000  
G 7  21032434.849 6 110526193.259 6      2201.104          40.500    21032432.994 6  86124297.282 6      1715.146          40.750  
G 8  21073695.307 6 110743015.419 6     -1923.953          36.250                                                                  
C27  21634657.835 7 112657352.596 7     -1118.250          44.500                                                                  
> 2021  5 17  2 34 22.0000000  0  4                     
G21  20564921.922 6 108069393.660 6       803.175          42.000    20564919.183 4  84209898.824 4       625.856          29.750  
G 7  21032015.979 6 110523992.513 6      2200.693          40.250    21032014.169 6  86122582.410 6      1714.825          40.750  
G 8  21074061.555 6 110744939.322 6     -1923.818          36.250                                                                  
C27  21634872.695 7 112658470.928 7     -1118.332          44.250                                                                  
> 2021  5 17  2 34 23.0000000  0  4                     
G21  20564769.135 6 108068590.593 6       803.305          42.000    20564765.705 4  84209273.070 4       625.956          29.750  
G 7  21031597.307 6 110521792.228 6      2199.957          40.500    21031595.554 6  86120867.899 6      1714.251          40.750  
G 8  21074428.055 6 110746863.457 6     -1924.371          37.000                                                                  
C27  21635087.653 7 112659589.585 7     -1118.708          46.250                                                                  
> 2021  5 17  2 34 24.0000000  0  4                     
G21  20564616.171 7 108067786.825 7       804.108          42.750    20564612.840 4  84208646.753 4       626.582          27.750  
G 7  21031178.805 7 110519592.967 7      2198.286          42.250    21031176.846 6  86119154.177 6      1712.946          40.500  
G 8  21074794.419 6 110748788.094 6     -1924.553          37.000                                                                  
C27  21635302.635 7 112660708.512 7     -1119.130          46.250                                                                  
> 2021  5 17  2 34 25.0000000  0  4                     
G21  20564463.063 6 108066982.509 6       805.315          41.500    20564459.994 4  84208020.019 4       627.522          29.500  
G 7  21030760.699 6 110517395.878 6      2195.891          41.000    21030758.727 6  86117442.155 6      1711.079          39.750  
G 8  21075160.814 6 110750714.141 6     -1926.926          38.500    21075159.994 6  86299256.32516     -1501.501          36.250  
C27  21635517.803 7 112661828.315 7     -1119.991          45.750                                                                  
> 2021  5 17  2 34 26.0000000  0  4                     
G21  20564309.777 6 108066176.957 6       805.662          40.500    20564306.996 5  84207392.331 5       627.795          30.250  
G 7  21030343.102 6 110515201.088 6      2193.821          40.500    21030340.949 6  86115731.923 6      1709.467          39.750  
G 8  21075527.765 6 110752641.662 6     -1928.095          40.750    21075527.189 6  86300758.285 6     -1502.411          40.750  
C27  21635733.182 6 112662948.915 6     -1121.137          40.000                                                                  
> 2021  5 17  2 34 27.0000000  0  3                     
G21  20564156.578 6 108065371.956 6       804.555          40.750    20564153.419 4  84206765.049 4       626.928          29.750  
G 7  21029925.702 6 110513007.367 6      2193.550          40.750    21029923.401 6  86114022.529 6      1709.256          39.750  
G 8  21075895.236 7 110754569.888 7     -1928.341          45.000    21075893.620 7  86302260.790 7     -1502.603          43.250  
> 2021  5 17  2 34 28.0000000  0  5                     
G21  20564003.710 6 108064568.534 6       802.054          41.000    20564000.484 5  84206138.996 5       624.977          30.500  
G 7  21029508.203 6 110510813.608 6      2194.517          40.500    21029505.895 6  86112313.105 6      1710.011          40.500  
G 8  21076262.484 5 110756498.406 5     -1928.907          35.250    21076263.691 5  86303763.558 5     -1503.044          34.000  
C27  21636164.247 5 112665183.09025     -1121.894          30.500                                                                  
C 3  36475005.435 6 189934930.959 6        42.642          37.750                                                                  
> 2021  5 17  2 34 29.0000000  0  4                     
G21  20563851.255 6 108063767.421 6       799.852          40.250    20563848.429 4  84205514.755 4       623.262          28.500  
G 7  21029090.402 6 110508618.034 6      2196.507          41.500    21029088.138 6  86110602.283 6      1711.566          41.250  
G 8  21076629.489 6 110758425.512 6     -1926.518          37.500    21076628.085 5  86305265.181 5     -1501.183          32.250  
C 3  36474997.595 6 189934888.284 6        42.031          38.500    36474995.534 5 146869705.88215        32.764          33.750  
> 2021  5 17  2 34 30.0000000  0  4                     
G21  20563699.273 6 108062968.611 6       798.525          40.250    20563695.987 5  84204892.314 5       622.228          30.000  
G 7  21028672.379 6 110506421.191 6      2197.726          41.250    21028670.183 6  86108890.464 6      1712.516          41.250  
G 8  21076997.194 6 110760351.604 6     -1925.272          37.000    21076991.153 4  86306765.970 4     -1500.210          26.250  
C 3  36474989.265 6 189934846.784 6        41.301          36.000    36474985.990 5 146869673.356 5        31.631          33.000  
> 2021  5 17  2 34 31.0000000  0  3                     
G21  20563547.387 6 108062170.447 6       798.289          40.500    20563544.552 4  84204270.341 4       622.038          28.000  
G 7  21028254.292 6 110504224.013 6      2196.912          41.500    21028252.282 6  86107178.384 6      1711.883          41.750  
G 8  21077364.611 6 110762277.353 6     -1925.969          37.000    21077353.985 5  86308266.623 5     -1500.733          33.000  
> 2021  5 17  2 34 32.0000000  0  3                     
G21  20563395.443 6 108061372.277 6       798.102          40.750    20563392.348 4  84203648.386 4       621.896          29.500  
G 7  21027836.496 6 110502028.339 6      2195.085          41.250    21027834.482 6  86105467.473 6      1710.459          40.750  
G 8  21077732.245 5 110764204.060 5     -1926.960          34.750    21077722.626 5  86309768.025 5     -1501.494          31.750  
> 2021  5 17  2 34 33.0000000  0  2                     
G21  20563243.441 6 108060573.578 6       799.728          40.750    20563240.043 5  84203026.049 5       623.170          32.500  
G 7  21027418.978 6 110499834.461 6      2192.356          41.000    21027417.043 6  86103757.964 6      1708.334          40.750  
> 2021  5 17  2 34 34.0000000  0  2                     
G21  20563090.915 6 108059772.418 6       801.432          40.750    20563087.728 5  84202401.788 5       624.498          30.250  
G 7  21027002.211 6 110497644.167 6      2188.464          40.250    21027000.231 6  86102051.249 6      1705.301          40.250  
> 2021  5 17  2 34 35.0000000  0  2                     
G21  20562938.290 6 108058970.172 6       802.395          39.750    20562934.624 5  84201776.655 5       625.249          32.750  
G 7  21026585.785 6 110495455.796 6      2188.577          40.000    21026583.633 6  86100346.019 6      1705.385          39.750  
> 2021  5 17  2 34 36.0000000  0  2                     
G21  20562786.092 6 108058170.176 6       798.174          40.750    20562782.833 5  84201153.307 5       621.964          32.250  
G 7  21026169.255 6 110493266.755 6      2190.419          40.250    21026167.089 6  86098640.274 6      1706.824          39.750  
> 2021  5 17  2 34 37.0000000  0  2                     
G21  20562634.767 6 108057374.866 6       791.962          41.250    20562631.858 4  84200533.593 4       617.121          29.000  
G 7  21025752.225 6 110491075.342 6      2192.172          38.750    21025750.045 6  86096932.699 6      1708.191          38.250  
> 2021  5 17  2 34 38.0000000  0  1                     
G 7  21025335.004 5 110488882.347 5      2190.539          34.000    21025332.789 5  86095223.876 5      1706.922          30.250  
> 2021  5 17  2 34 39.0000000  0  1                     
C27  21638545.770 7 112677586.659 7     -1136.783          43.000                                                                  
> 2021  5 17  2 34 40.0000000  0  1                     
C27  21638763.686 6 112678722.995 6     -1135.875          40.750                                                                  
> 2021  5 17  2 34 41.0000000  0  1                     
C27  21638982.569 6 112679860.960 6     -1138.780          40.750                                                                  
> 2021  5 17  2 34 42.0000000  0  1                     
C27  21639201.751 7 112681000.266 7     -1140.025          43.500                                                                  
> 2021  5 17  2 34 43.0000000  0  1                     
C27  21639420.806 7 112682141.022 7     -1140.810          42.750                                                                  
> 2021  5 17  2 34 44.0000000  0  1                     
C27  21639639.500 6 112683282.856 6     -1142.845          42.000                                                                  
> 2021  5 17  2 34 45.0000000  0  1                     
C27  21639858.810 7 112684425.258 7     -1142.697          42.000                                                                  
> 2021  5 17  2 34 46.0000000  0  1                     
C27  21640078.417 6 112685567.685 6     -1142.481          41.750                                                                  
> 2021  5 17  2 34 47.0000000  0  1                     
C27  21640297.845 7 112686709.953 7     -1142.296          42.000                                                                  
> 2021  5 17  2 34 48.0000000  0  1                     
C27  21640517.107 7 112687852.260 7     -1141.436          42.250                                                                  
> 2021  5 17  2 34 49.0000000  0  1                     
C27  21640736.421 7 112688994.382 7     -1141.834          43.500                                                                  
> 2021  5 17  2 34 50.0000000  0  1                     
C27  21640955.977 7 112690136.593 7     -1143.598          43.000                                                                  
> 2021  5 17  2 34 51.0000000  0  1                     
C27  21641175.278 7 112691279.412 7     -1142.704          42.000                                                                  
> 2021  5 17  2 34 52.0000000  0  1                     
C27  21641395.118 7 112692423.035 7     -1142.144          42.750                                                                  
> 2021  5 17  2 34 56.0000000  0  2                     
G21  20559792.167 6 108042436.74116       780.001          41.500                                                                  
C27  21642275.132 6 112697005.24216     -1147.220          41.250                                                                  
> 2021  5 17  2 34 57.0000000  0  2                     
G21  20559643.785 7 108041657.232 7       779.605          42.250                                                                  
C27  21642494.838 6 112698153.15326     -1148.303          41.000                                                                  
> 2021  5 17  2 34 58.0000000  0  2                     
G21  20559495.074 7 108040878.016 7       778.474          42.500                                                                  
C27  21642716.178 6 112699301.122 6     -1147.978          39.500                                                                  
> 2021  5 17  2 34 59.0000000  0  2                     
G21  20559347.335 7 108040099.379 7       778.733          43.000                                                                  
C27  21642936.791 6 112700450.126 6     -1149.852          42.000                                                                  
> 2021  5 17  2 35  0.0000000  0  1                     
C27  21643157.228 7 112701599.686 7     -1149.360          42.750                                                                  
> 2021  5 17  2 35  1.0000000  0  1                     
C27  21643378.276 7 112702749.147 7     -1148.887          42.500                                                                  
> 2021  5 17  2 35  2.0000000  0  1                     
C27  21643598.515 7 112703898.195 7     -1148.707          42.000                                                                  
> 2021  5 17  2 35  3.0000000  0  1                     
C27  21643818.957 6 112705047.371 6     -1148.862          41.500                                                                  
> 2021  5 17  2 35  4.0000000  0  1                     
C27  21644039.597 6 112706196.657 6     -1149.338          41.000                                                                  
> 2021  5 17  2 35  5.0000000  0  1                     
C27  21644260.598 6 112707346.417 6     -1150.305          41.750                                                                  
> 2021  5 17  2 35  6.0000000  0  1                     
C27  21644481.627 6 112708497.306 6     -1151.189          41.500                                                                  
> 2021  5 17  2 35  7.0000000  0  1                     
C27  21644702.837 6 112709648.742 6     -1151.327          41.250                                                                  
> 2021  5 17  2 35  8.0000000  0  1                     
C27  21644923.999 6 112710800.355 6     -1151.466          42.000                                                                  
> 2021  5 17  2 35  9.0000000  0  1                     
C27  21645145.379 6 112711952.268 6     -1151.145          37.250                                                                  
> 2021  5 17  2 35 10.0000000  0  1                     
C27  21645366.946 6 112713103.934 6     -1151.871          42.000                                                                  
> 2021  5 17  2 35 11.0000000  0  1                     
C27  21645588.189 7 112714256.157 7     -1152.135          42.500                                                                  
> 2021  5 17  2 35 12.0000000  0  1                     
C27  21645809.510 6 112715408.559 6     -1152.043          40.000                                                                  
> 2021  5 17  2 35 13.0000000  0  1                     
C27  21646030.844 6 112716561.787 6     -1154.021          41.750                                                                  
> 2021  5 17  2 35 14.0000000  0  1                     
C27  21646252.255 6 112717714.750 6     -1152.427          40.750                                                                  
> 2021  5 17  2 35 15.0000000  0  1                     
C27  21646473.749 6 112718868.687 6     -1154.085          41.750                                                                  
> 2021  5 17  2 35 16.0000000  0  1                     
C27  21646695.508 6 112720023.370 6     -1155.025          41.750                                                                  
> 2021  5 17  2 35 17.0000000  0  1                     
C27  21646917.397 6 112721178.956 6     -1156.438          41.750                                                                  
> 2021  5 17  2 35 18.0000000  0  1                     
C27  21647139.623 6 112722336.057 6     -1157.267          41.750                                                                  
> 2021  5 17  2 35 23.0000000  0  1                     
C27  21648251.590 7 112728124.38217     -1158.141          42.750                                                                  
> 2021  5 17  2 35 24.0000000  0  2                     
G 8  21097051.934 6 110865749.83226     -1961.286          41.000                                                                  
C27  21648473.127 6 112729282.79826     -1158.075          41.750                                                                  
> 2021  5 17  2 35 25.0000000  0  2                     
G 8  21097424.950 6 110867709.028 6     -1959.161          36.000                                                                  
C27  21648695.996 6 112730441.02826     -1160.043          42.000                                                                  
> 2021  5 17  2 35 26.0000000  0  1                     
C27  21648918.126 6 112731597.81326     -1156.436          41.500                                                                  
> 2021  5 17  2 35 27.0000000  0  1                     
C27  21649139.910 7 112732753.493 7     -1155.579          42.750                                                                  
> 2021  5 17  2 35 28.0000000  0  1                     
C27  21649361.763 7 112733907.360 7     -1153.089          43.750                                                                  
> 2021  5 17  2 35 29.0000000  0  1                     
C27  21649583.158 7 112735060.009 7     -1151.818          43.250                                                                  
> 2021  5 17  2 35 30.0000000  0  1                     
C27  21649804.390 7 112736210.701 7     -1149.760          44.000                                                                  
> 2021  5 17  2 35 31.0000000  0  2                     
G 7  21003308.535 7 110373125.587 7      2183.291          42.000                                                                  
C27  21650025.072 7 112737360.631 7     -1149.723          43.250                                                                  
> 2021  5 17  2 35 32.0000000  0  2                     
G21  20554531.308 7 108014789.657 7       751.180          42.000                                                                  
C27  21650245.871 7 112738510.151 7     -1149.670          44.000                                                                  
> 2021  5 17  2 35 33.0000000  0  3                     
G21  20554388.194 6 108014036.464 6       755.209          42.000                                                                  
G 8  21100387.128 6 110883282.67226     -1939.094          36.750                                                                  
C27  21650466.451 7 112739658.753 7     -1148.837          44.000                                                                  
> 2021  5 17  2 35 34.0000000  0  2                     
G21  20554244.951 6 108013279.895 6       758.192          41.250                                                                  
C27  21650686.874 6 112740806.546 6     -1147.406          41.000                                                                  
> 2021  5 17  2 35 35.0000000  0  3                     
G21  20554100.390 6 108012520.831 6       759.340          41.750                                                                  
C27  21650906.826 6 112741953.298 6     -1146.563          39.750                                                                  
C30  22484886.665 6 117084708.45026      1692.722          41.750                                                                  
> 2021  5 17  2 35 36.0000000  0  3                     
G21  20553955.643 6 108011761.455 6       759.205          41.250                                                                  
C27  21651126.917 6 112743100.082 6     -1146.901          39.750                                                                  
C30  22484562.114 6 117083016.00426      1692.209          41.750                                                                  
> 2021  5 17  2 35 37.0000000  0  4                     
G21  20553811.365 6 108011002.911 6       758.325          41.500                                                                  
C27  21651347.103 6 112744247.489 6     -1147.546          39.500                                                                  
C30  22484236.649 6 117081324.12626      1692.025          41.250                                                                  
C 3  36474265.726 6 189931072.385 6        44.097          40.250                                                                  
> 2021  5 17  2 35 38.0000000  0  4                     
G21  20553667.477 6 108010245.142 6       757.464          41.250    20553668.587 5  84163830.659 5       590.232          30.750  
C27  21651567.411 6 112745395.418 6     -1148.136          39.500                                                                  
C30  22483911.935 6 117079632.83326      1691.034          40.750                                                                  
C 3  36474257.065 6 189931028.643 6        43.649          40.250    36474253.152 5 146866711.20015        34.207          31.500  
> 2021  5 17  2 35 39.0000000  0  5                     
G21  20553523.370 6 108009487.945 6       757.094          41.250    20553521.937 5  84163240.627 5       589.943          32.500  
C27  21651787.977 6 112746543.761 6     -1148.748          39.750                                                                  
C30  22483587.402 6 117077941.91526      1690.920          41.000                                                                  
C 1  37405702.023 6 194781308.184 6        15.866          38.750                                                                  
C 3  36474249.561 6 189930984.852 6        43.924          40.250    36474245.926 5 146866677.357 5        34.079          32.250  
> 2021  5 17  2 35 40.0000000  0  5                     
G21  20553379.162 6 108008731.116 6       756.674          41.500    20553378.388 5  84162650.888 5       589.616          30.250  
C27  21652008.430 6 112747692.217 6     -1148.373          39.500                                                                  
C30  22483262.614 6 117076251.148 6      1690.675          41.000                                                                  
C 1  37405697.859 6 194781292.328 6        15.806          38.250    37405700.112 5 150617258.356 5        12.602          34.000  
C 3  36474240.481 6 189930940.812 6        44.096          40.000    36474237.794 5 146866643.314 5        34.205          32.250  
> 2021  5 17  2 35 41.0000000  0  5                     
G21  20553235.375 6 108007974.718 6       756.078          41.250    20553234.244 5  84162061.486 5       589.151          33.750  
C27  21652228.939 6 112748840.918 6     -1149.029          39.500                                                                  
C30  22482937.763 6 117074560.557 6      1690.700          40.750                                                                  
C 1  37405695.862 6 194781276.251 6        16.333          38.750    37405695.382 5 150617245.909 5        12.688          34.000  
C 3  36474231.301 6 189930896.547 6        44.316          40.000                                                                  
> 2021  5 17  2 35 42.0000000  0  5                     
G21  20553091.543 6 108007219.057 6       755.301          41.500    20553089.950 5  84161472.647 5       588.547          31.250  
C27  21652449.637 6 112749990.118 6     -1149.561          40.000                                                                  
C30  22482613.280 6 117072870.527 6      1689.463          40.750                                                                  
C 1  37405692.969 6 194781260.297 6        16.068          38.500    37405692.320 5 150617233.593 5        12.257          33.750  
C 3  36474223.045 6 189930852.401 6        44.164          40.250    36474224.943 5 146866583.01215        33.040          31.250  
> 2021  5 17  2 35 43.0000000  0  6                     
G21  20552948.001 6 108006464.147 6       754.783          41.500    20552947.368 5  84160884.417 5       588.148          32.750  
G 7  20998348.711 6 110347065.22326      2167.900          37.250                                                                  
C27  21652670.421 6 112751139.871 6     -1149.712          40.000                                                                  
C30  22482288.760 6 117071181.002 6      1689.430          40.250                                                                  
C 1  37405689.968 6 194781244.476 6        16.162          38.500    37405690.895 5 150617221.342 5        12.747          34.000  
C 3  36474214.395 6 189930808.359 6        44.325          40.250    36474214.736 5 146866548.89825        34.123          32.000  
> 2021  5 17  2 35 44.0000000  0  6                     
G21  20552804.396 6 108005710.210 6       752.875          41.500    20552802.482 5  84160296.949 5       586.662          33.000  
G 7  20997932.415 6 110344897.593 6      2166.334          37.250                                                                  
C27  21652891.390 6 112752290.369 6     -1151.461          39.500                                                                  
C30  22481964.429 6 117069492.228 6      1687.910          40.000                                                                  
C 1  37405687.433 6 194781228.981 6        15.082          38.750                                                                  
C 3  36474205.910 6 189930764.662 6        42.977          40.250    36474205.386 5 146866515.11125        33.173          32.250  
> 2021  5 17  2 35 45.0000000  0  6                     
G21  20552661.078 6 108004957.978 6       750.900          41.750    20552659.589 5  84159710.794 5       585.120          30.750  
G 7  20997521.186 6 110342731.472 6      2164.631          37.750                                                                  
C27  21653112.651 6 112753442.357 6     -1153.273          40.250                                                                  
C30  22481640.498 6 117067804.937 6      1686.034          39.750                                                                  
C 1  37405684.334 6 194781214.567 6        13.251          39.000                                                                  
C 3  36474197.655 6 189930722.024 6        41.735          40.250    36474196.545 5 146866482.16125        31.736          31.750  
> 2021  5 17  2 35 46.0000000  0  6                     
G21  20552713.230 6 108005232.210 6       748.766          41.750    20552712.296 5  84159924.473 5       583.455          33.000  
G 7  20997306.341 6 110341591.659 6      2162.474          37.500                                                                  
C27  21653529.219 6 112755611.279 6     -1155.275          39.750                                                                  
C30  22481511.597 6 117067134.579 6      1684.125          39.500                                                                  
C 1  37405876.064 6 194782216.637 6        11.865          38.250    37405877.872 5 150617963.077 5         9.256          34.000  
C 3  36474385.124 6 189931695.919 6        39.996          40.000    36474383.856 5 146867235.21025        30.767          32.250  
> 2021  5 17  2 35 47.0000000  0  6                     
G21  20552571.135 6 108004485.060 6       746.153          41.500    20552569.745 5  84159342.276 5       581.420          32.500  
G 7  20996894.854 6 110339430.181 6      2160.641          37.750                                                                  
C27  21653751.329 6 112756767.868 6     -1157.507          40.250                                                                  
C30  22481188.364 6 117065451.862 6      1682.002          39.000                                                                  
C 1  37405874.221 6 194782205.968 6         9.711          38.000    37405875.219 5 150617954.828 5         7.653          33.500  
C 3  36474377.838 6 189931657.054 6        38.322          40.250    36474377.203 5 146867205.12425        29.794          32.250  
> 2021  5 17  2 35 48.0000000  0  6                     
G21  20552429.452 6 108003739.697 6       743.973          41.750    20552427.940 4  84158761.467 4       579.717          29.750  
G 7  20996483.377 6 110337270.349 6      2159.020          37.750    20996482.642 6  85977089.47216      1682.353          36.750  
C27  21653973.708 6 112757926.031 6     -1159.548          39.750                                                                  
C30  22480865.684 6 117063770.760 6      1679.969          39.000                                                                  
C 1  37405872.080 6 194782196.452 6         8.543          38.250    37405872.443 5 150617947.501 5         6.365          33.750  
C 3  36474370.674 6 189931619.340 6        36.628          40.000    36474369.346 5 146867176.01525        27.913          31.750  
> 2021  5 17  2 35 49.0000000  0  6                     
G21  20552288.030 6 108002996.666 6       741.978          41.750    20552286.787 4  84158182.476 4       578.163          29.500  
G 7  20996073.821 6 110335112.687 6      2156.925          37.750    20996070.245 6  85975408.226 6      1680.720          37.250  
C27  21654196.417 6 112759086.278 6     -1161.098          39.750                                                                  
C30  22480543.161 6 117062091.747 6      1677.960          38.750                                                                  
C 1  37405870.586 6 194782188.648 6         7.094          38.250    37405871.716 5 150617941.471 5         5.126          33.750  
C 3  36474363.685 6 189931583.313 6        35.819          40.250    36474362.005 5 146867148.12325        27.548          31.750  
> 2021  5 17  2 35 50.0000000  0  6                     
G21  20552146.684 6 108002254.348 6       741.610          41.750    20552145.976 5  84157604.062 5       577.880          31.000  
G 7  20995662.922 6 110332955.514 6      2156.828          38.250    20995663.149 6  85973727.325 6      1680.645          36.250  
C27  21654419.375 6 112760247.065 6     -1161.549          39.250                                                                  
C30  22480220.696 6 117060413.194 6      1678.079          38.750                                                                  
C 1  37405868.931 6 194782180.909 6         7.583          38.250    37405870.643 5 150617935.493 5         5.305          33.750  
C 3  36474356.834 6 189931547.386 6        35.792          40.250                                                                  
> 2021  5 17  2 35 51.0000000  0  7                     
G21  20552005.744 6 108001513.682 6       739.779          41.500    20552005.038 5  84157026.926 5       576.454          31.500  
G 7  20995252.218 6 110330799.811 6      2154.862          38.000    20995251.955 5  85972047.559 5      1679.113          35.250  
G 8  21107239.948 5 110919292.61215     -1951.807          31.000                                                                  
C27  21654642.591 6 112761409.246 6     -1163.215          39.750                                                                  
C30  22479898.569 6 117058736.085 6      1676.308          38.750                                                                  
C 1  37405867.763 6 194782174.166 6         6.537          38.250    37405869.488 5 150617930.216 5         5.152          33.750  
C 3  36474350.012 6 189931512.461 6        34.184          40.250    36474347.701 5 146867093.34325        26.581          32.250  
> 2021  5 17  2 35 52.0000000  0  7                     
G21  20551865.017 6 108000774.169 6       738.405          41.250    20551864.329 5  84156450.678 5       575.381          33.000  
G 7  20994842.231 6 110328645.072 6      2153.843          38.000    20994840.444 5  85970368.552 5      1678.319          35.750  
G 8  21107606.649 5 110921244.44625     -1952.736          31.250                                                                  
C27  21654865.895 6 112762572.336 6     -1164.063          39.250                                                                  
C30  22479576.589 6 117057059.876 6      1675.470          38.750                                                                  
C 1  37405866.710 6 194782167.955 6         5.525          38.250    37405868.326 5 150617925.440 5         4.477          33.500  
C 3  36474343.566 6 189931478.024 6        33.859          40.250    36474342.105 5 146867066.69425        26.381          32.000  
> 2021  5 17  2 35 53.0000000  0  7                     
G21  20551724.635 6 108000036.241 6       738.538          41.500    20551724.495 5  84155875.659 5       575.483          32.250  
G 7  20994432.306 6 110326491.759 6      2153.938          38.250    20994430.335 6  85968690.656 6      1678.394          37.750  
G 8  21107984.280 5 110923197.46325     -1951.838          32.000                                                                  
C27  21655089.611 6 112763736.834 6     -1163.839          39.000                                                                  
C30  22479255.040 6 117055385.078 6      1675.499          38.500                                                                  
C 1  37405865.907 6 194782162.744 6         5.981          38.250                                                                  
C 3  36474337.098 6 189931444.575 6        34.325          40.250    36474336.493 5 146867040.83525        26.778          31.500  
> 2021  5 17  2 35 54.0000000  0  7                     
G21  20551583.698 7 107999295.567 7       742.293          42.250    20551584.191 5  84155298.529 5       578.414          30.500  
G 7  20994022.007 6 110324335.477 6      2157.782          38.750    20994020.072 5  85967010.432 5      1681.389          35.750  
G 8  21108353.840 5 110925147.36325     -1948.443          32.250                                                                  
C27  21655312.684 6 112764898.370 6     -1159.914          38.500                                                                  
C30  22478932.879 6 117053707.298 6      1679.555          38.250                                                                  
C 1  37405864.455 6 194782154.095 6        10.512          37.500    37405866.064 5 150617921.736 5         8.020          33.750  
C 3  36474330.032 6 189931407.752 6        38.510          39.500    36474327.881 5 146867012.33225        30.111          31.750  
> 2021  5 17  2 35 55.0000000  0  8                     
G21  20551442.459 6 107998553.384 6       741.861          41.750    20551442.955 5  84154720.219 5       578.080          31.500  
G 7  20993611.459 6 110322177.484 6      2157.792          38.500    20993610.088 6  85965328.882 6      1681.397          36.250  
G 8  21108723.139 5 110927095.292 5     -1947.567          32.000    21108724.709 4  86436697.92214     -1517.585          27.250  
R16  20169316.002 5 107740477.265 5        21.816          35.750                                                                  
C27  21655535.508 6 112766058.185 6     -1159.898          39.500                                                                  
C30  22478610.327 6 117052027.834 6      1679.701          38.750                                                                  
C 1  37405862.330 6 194782143.391 6        10.353          38.500                                                                  
C 3  36474322.538 6 189931368.783 6        39.135          40.000                                                                  
> 2021  5 17  2 35 56.0000000  0  8                     
G21  20551301.567 6 107997812.565 6       739.657          41.750    20551301.947 5  84154142.948 5       576.358          30.500  
G 7  20993201.093 6 110320020.680 6      2155.657          38.750    20993198.930 5  85963648.250 5      1679.732          35.500  
G 8  21109094.226 5 110929044.230 5     -1950.018          32.250    21109089.079 4  86438216.586 4     -1519.495          29.250  
R16  20169311.985 6 107740456.725 6        19.223          36.000                                                                  
C27  21655758.460 6 112767219.183 6     -1162.097          39.250                                                                  
C30  22478287.976 6 117050349.523 6      1677.128          38.500                                                                  
C 1  37405860.459 6 194782133.381 6         9.185          38.250    37405860.055 5 150617894.18515         7.090          34.000  
C 3  36474315.295 6 189931330.572 6        37.407          39.750                                                                  
> 2021  5 17  2 35 57.0000000  0  8                     
G21  20551160.978 6 107997073.678 6       738.105          41.750    20551161.421 4  84153567.187 4       575.148          29.000  
G 7  20992791.200 6 110317865.620 6      2154.354          38.750    20992788.501 5  85961968.985 5      1678.717          35.250  
G 8  21109464.264 5 110930994.662 5     -1950.799          31.500                                                                  
R16  20169308.446 5 107740438.020 5        17.753          36.000                                                                  
C27  21655981.790 6 112768381.863 6     -1162.988          39.250                                                                  
C30  22477966.001 6 117048672.908 6      1675.987          38.750                                                                  
C 1  37405858.702 6 194782124.677 6         8.140          38.250    37405858.978 5 150617886.949 5         6.549          33.500  
C 3  36474308.247 6 189931293.663 6        36.220          40.000    36474305.627 5 146866917.117 5        28.511          32.000  
> 2021  5 17  2 35 58.0000000  0  8                     
G21  20551020.727 6 107996336.344 6       736.413          41.750    20551020.680 4  84152992.650 4       573.832          29.750  
G 7  20992381.493 6 110315711.899 6      2152.777          38.500    20992379.211 5  85960290.775 5      1677.492          35.000  
G 8  21109835.858 5 110932946.239 5     -1952.197          31.250    21109834.374 4  86441242.02114     -1521.192          25.250  
R16  20169305.390 6 107740420.727 6        16.499          36.250                                                                  
C27  21656205.380 6 112769545.872 6     -1164.586          39.250                                                                  
C30  22477644.273 6 117046997.567 6      1674.573          38.750                                                                  
C 1  37405857.331 6 194782116.871 6         6.992          38.000    37405858.249 5 150617880.880 5         5.869          33.750  
C 3  36474301.257 6 189931257.620 6        35.413          39.750                                                                  
> 2021  5 17  2 35 59.0000000  0  9                     
G21  20550880.648 7 107995600.063 7       736.276          42.250    20550880.162 5  84152418.920 5       573.724          31.000  
G 7  20991971.984 6 110313559.049 6      2153.216          38.250    20991969.536 5  85958613.239 5      1677.835          35.500  
G 8  21110207.925 5 110934898.486 5     -1951.817          32.500    21110210.731 4  86442783.15514     -1520.896          27.000  
R16  20169302.282 5 107740404.354 5        16.302          36.000    20169302.925 4  83798097.03214        12.679          26.000  
C27  21656429.063 6 112770710.709 6     -1164.766          39.500                                                                  
C30  22477322.687 6 117045323.115 6      1674.615          39.000                                                                  
C 1  37405855.917 6 194782109.478 6         7.505          38.500                                                                  
C 3  36474294.395 6 189931222.015 6        36.074          40.000    36474292.971 5 146866872.71625        28.107          31.750  
C 9  36696730.027 6 191089499.51626     -1337.009          36.750    36696732.379 5 147762536.22915     -1033.761          34.250  
> 2021  5 17  2 36  0.0000000  0  9                     
G21  20550740.518 7 107994863.662 7       736.606          42.000    20550739.402 5  84151845.098 5       573.978          32.500  
G 7  20991562.280 6 110311405.941 6      2153.325          38.250    20991559.632 6  85956935.496 6      1677.918          37.000  
G 8  21110579.228 5 110936850.159 5     -1950.817          31.250    21110585.947 5  86444304.042 5     -1520.117          31.500  
R16  20169299.586 5 107740387.650 5        16.907          35.750                                                                  
C27  21656652.779 6 112771875.226 6     -1164.214          39.000                                                                  
C30  22477001.120 6 117043648.300 6      1675.667          39.500                                                                  
C 1  37405854.427 6 194782101.356 6         8.629          38.000    37405853.803 5 150617877.42725         6.447          33.500  
C 3  36474287.398 6 189931185.661 6        37.022          40.000    36474285.868 5 146866844.65725        28.402          32.250  
C 9  36696987.823 6 191090836.09326     -1336.084          36.500    36696990.381 5 147763569.78525     -1033.521          34.250  
> 2021  5 17  2 36  1.0000000  0 10                     
G21  20550600.327 7 107994126.552 7       737.417          42.250    20550599.157 5  84151270.722 5       574.609          31.750  
G 7  20991152.388 6 110309251.900 6      2154.311          38.250    20991150.770 6  85955257.016 6      1678.689          36.750  
G 8  21110950.579 5 110938800.796 5     -1949.814          32.000    21110953.437 4  86445824.055 4     -1519.335          27.250  
R16  20169296.421 5 107740370.076 5        17.543          35.500    20169296.543 5  83798067.18915        13.644          30.000  
C 2  37111081.704 5 193247154.25015        10.333          34.250    37111080.796 5 149430949.91415         8.579          32.750  
C27  21656876.386 6 112773038.834 6     -1163.375          38.750                                                                  
C30  22476679.382 6 117041972.595 6      1676.090          40.250                                                                  
C 1  37405852.686 6 194782091.900 6         9.997          38.000    37405853.547 5 150617869.607 5         7.665          33.750  
C 3  36474280.100 6 189931148.003 6        38.251          39.500    36474277.075 5 146866815.47925        29.756          31.750  
C 9  36697243.615 6 191092171.47526     -1335.149          36.500    36697248.766 5 147764602.38325     -1032.424          34.750  
> 2021  5 17  2 36  2.0000000  0 10                     
G21  20550460.192 7 107993389.866 7       736.660          42.000    20550458.652 5  84150696.686 5       574.022          31.500  
G 7  20990742.663 6 110307098.061 6      2153.665          38.000    20990741.043 6  85953578.714 6      1678.184          36.750  
G 8  21111322.440 5 110940751.398 5     -1950.195          32.750    21111321.408 5  86447343.987 5     -1519.632          32.000  
R16  20169292.956 5 107740352.767 5        17.233          35.500    20169293.922 5  83798053.70825        13.403          30.250  
C 2  37111076.015 5 193247144.247 5        10.103          34.500    37111071.650 5 149430941.696 5         8.051          33.250  
C27  21657099.915 6 112774202.625 6     -1163.747          40.000                                                                  
C30  22476357.616 6 117040297.082 6      1675.318          40.000                                                                  
C 1  37405850.830 6 194782082.228 6         9.900          38.250                                                                  
C 3  36474272.750 6 189931110.116 6        37.896          39.500                                                                  
C 9  36697499.777 6 191093506.75926     -1335.277          36.250    36697502.657 5 147765634.91525     -1032.731          35.000  
> 2021  5 17  2 36  3.0000000  0 11                     
G21  20550320.176 7 107992653.877 7       734.860          42.500    20550318.142 5  84150123.182 5       572.617          32.750  
G 7  20990332.978 6 110304944.728 6      2152.247          38.000    20990331.184 6  85951900.776 6      1677.074          36.250  
G 8  21111693.396 5 110942702.266 5     -1952.044          33.000    21111692.183 5  86448864.120 5     -1521.073          31.000  
R16  20169289.271 5 107740336.029 5        15.626          35.000    20169290.449 4  83798040.686 4        12.154          29.500  
C 2  37111074.450 5 193247134.329 5         8.877          34.250                                                                  
C27  21657323.444 6 112775366.908 6     -1165.311          39.750                                                                  
C30  22476035.996 6 117038622.029 6      1673.955          40.000                                                                  
C 7  36816154.091 5 191711386.58915       202.091          32.750                                                                  
C 1  37405849.034 6 194782072.621 6         8.707          38.000    37405848.519 5 150617853.19015         6.779          34.000  
C 3  36474265.492 6 189931072.292 6        37.017          39.500    36474265.666 5 146866748.97015        28.521          31.750  
C 9  36697756.560 5 191094842.22925     -1336.765          36.000    36697759.749 5 147766667.58425     -1033.512          35.000  
> 2021  5 17  2 36  4.0000000  0 10                     
G21  20550180.468 7 107991919.397 7       734.845          42.750    20550178.257 5  84149550.848 5       572.602          33.000  
G 7  20989923.560 6 110302792.747 6      2152.185          38.250    20989921.745 6  85950223.910 6      1677.028          37.250  
G 8  21112065.325 5 110944654.226 5     -1950.369          32.750    21112061.865 4  86450385.074 4     -1519.767          26.250  
R16  20169285.871 5 107740320.686 5        15.540          34.750    20169287.941 4  83798028.756 4        12.087          29.250  
C27  21657547.374 6 112776532.482 6     -1165.055          39.750                                                                  
C30  22475714.556 6 117036948.247 6      1674.240          40.500                                                                  
C 7  36816114.394 5 191711183.91625       203.117          33.000                                                                  
C 1  37405847.353 6 194782063.886 6         9.510          38.500    37405848.081 5 150617845.899 5         7.577          33.750  
C 3  36474258.432 6 189931035.349 6        37.536          39.750                                                                  
C 9  36698013.200 6 191096178.192 6     -1335.868          36.250    36698016.357 5 147767701.018 5     -1033.186          35.250  
> 2021  5 17  2 36  5.0000000  0 10                     
G21  20550040.811 7 107991184.869 7       734.086          42.500    20550038.760 5  84148978.496 5       572.015          33.000  
G 7  20989514.157 6 110300640.486 6      2151.992          37.750    20989512.117 6  85948546.834 6      1676.881          37.500  
G 8  21112436.188 5 110946605.747 5     -1951.510          32.500    21112429.148 5  86451905.708 5     -1520.662          30.750  
R16  20169282.702 5 107740305.060 5        15.535          34.750    20169284.373 5  83798016.600 5        12.083          30.000  
C27  21657771.230 6 112777697.770 6     -1165.283          39.500                                                                  
C30  22475393.073 6 117035274.224 6      1673.728          40.750                                                                  
C 7  36816075.972 5 191710980.55925       203.429          33.500                                                                  
C 1  37405845.593 6 194782054.442 6         9.560          38.250    37405846.321 5 150617838.670 5         6.877          33.750  
C 3  36474251.200 6 189930997.711 6        37.395          40.000    36474250.750 5 146866698.30025        29.002          32.250  
C 9  36698270.076 5 191097514.069 5     -1335.549          35.500    36698272.114 5 147768734.020 5     -1033.250          35.000  
> 2021  5 17  2 36  6.0000000  0 11                     
G21  20549901.285 7 107990451.442 7       733.245          42.250    20549899.640 5  84148407.001 5       571.360          31.000  
G 7  20989104.940 6 110298489.174 6      2151.149          37.750    20989102.763 6  85946870.502 6      1676.227          36.250  
G 8  21112807.531 5 110948557.993 5     -1952.142          32.500    21112798.387 4  86453426.923 4     -1521.148          29.500  
R 9  20986376.294 5 112065691.75015      2651.865          32.250                                                                  
R16  20169280.357 5 107740290.389 5        14.526          35.000    20169281.205 4  83798005.187 4        11.297          29.500  
C27  21657995.160 6 112778863.947 6     -1166.220          39.250                                                                  
C30  22475071.748 6 117033601.060 6      1673.138          40.750                                                                  
C 7  36816037.917 5 191710777.53325       203.112          33.500                                                                  
C 1  37405843.747 6 194782045.494 6         9.052          38.000                                                                  
C 3  36474244.060 6 189930960.527 6        37.385          40.000                                                                  
C 9  36698526.200 5 191098850.600 5     -1336.060          35.750    36698528.987 5 147769767.472 5     -1033.149          34.750  
> 2021  5 17  2 36  7.0000000  0 12                     
G21  20549761.908 7 107989719.011 7       732.114          42.250    20549760.272 5  84147836.278 5       570.481          30.500  
G 7  20988695.631 6 110296338.672 6      2150.122          37.500    20988693.163 5  85945194.789 5      1675.424          35.750  
G 8  21113178.333 5 110950510.842 5     -1952.835          32.750                                                                  
R 9  20985881.263 5 112063040.22425      2651.592          32.500                                                                  
R16  20169277.799 5 107740276.586 5        13.228          35.000    20169278.645 4  83797994.449 4        10.289          28.750  
C16  38142015.547 5 198615480.23325     -1615.187          31.750                                                                  
C27  21658219.325 6 112780030.917 6     -1167.330          39.250                                                                  
C30  22474750.624 6 117031928.705 6      1671.796          40.500                                                                  
C 7  36815999.107 5 191710574.81725       203.175          34.000                                                                  
C 1  37405842.111 6 194782036.934 6         8.485          37.750    37405842.708 5 150617826.59315         6.525          33.750  
C 3  36474237.089 6 189930923.732 6        36.751          39.750    36474235.862 5 146866634.10415        28.238          32.000  
C 9  36698783.182 5 191100187.587 5     -1337.159          35.750    36698785.694 5 147770801.318 5     -1033.937          35.000  
> 2021  5 17  2 36  8.0000000  0 13                     
G21  20549622.605 7 107988986.805 7       732.536          42.250    20549620.451 5  84147265.721 5       570.806          30.750  
G 7  20988286.485 6 110294188.184 6      2151.006          37.250    20988284.329 6  85943519.086 6      1676.113          36.500  
G 8  21113549.612 5 110952463.467 5     -1951.861          33.000    21113554.875 5  86456476.83515     -1520.931          31.000  
R 9  20985385.900 5 112060388.46725      2652.280          32.250                                                                  
R16  20169274.724 5 107740262.878 5        14.117          35.000    20169275.978 4  83797983.789 4        10.980          29.250  
C10  37346534.309 4 194473222.86914        96.056          29.500                                                                  
C16  38142325.788 5 198617095.99525     -1615.052          31.750    38142332.754 4 153583355.34424     -1248.952          29.750  
C27  21658443.451 6 112781197.898 6     -1166.761          39.750                                                                  
C30  22474429.498 6 117030256.322 6      1672.535          40.750                                                                  
C 7  36815959.647 5 191710371.63125       204.075          33.500                                                                  
C 1  37405840.329 6 194782027.974 6         9.452          37.750    37405841.691 5 150617819.178 5         7.269          33.000  
C 3  36474229.901 6 189930886.537 6        37.715          39.250    36474228.875 5 146866605.33625        29.120          32.250  
C 9  36699039.834 5 191101524.291 5     -1336.047          35.500    36699042.349 5 147771834.950 5     -1033.349          35.250  
> 2021  5 17  2 36  9.0000000  0 13                     
G21  20549483.315 7 107988254.515 7       731.120          42.500    20549481.339 5  84146695.109 5       569.705          33.500  
G 7  20987877.221 6 110292037.425 6      2149.364          37.250    20987875.120 5  85941843.166 5      1674.831          35.000  
G 8  21113921.087 5 110954415.605 5     -1953.545          32.500                                                                  
R 9  20984890.232 5 112057735.984 5      2651.883          32.000                                                                  
R16  20169272.108 5 107740248.904 5        13.080          34.750    20169273.776 4  83797972.921 4        10.173          29.250  
C10  37346520.113 4 194473126.586 4        95.149          29.500                                                                  
C16  38142634.318 5 198618710.638 5     -1615.948          32.500    38142638.194 5 153584603.690 5     -1249.583          30.000  
C27  21658667.511 6 112782364.562 6     -1167.537          39.750                                                                  
C30  22474108.297 6 117028583.645 6      1671.478          40.750                                                                  
C 7  36815921.425 5 191710167.667 5       203.198          33.500                                                                  
C 1  37405838.589 6 194782018.272 6         8.621          37.500                                                                  
C 3  36474222.634 6 189930848.580 6        37.090          39.250    36474222.416 5 146866575.98825        28.545          32.250  
C 9  36699296.416 5 191102860.369 5     -1336.623          34.500    36699298.811 5 147772868.104 5     -1034.062          35.000  
> 2021  5 17  2 36 10.0000000  0 13                     
G21  20549344.349 7 107987524.110 7       730.394          42.000    20549341.913 5  84146125.972 5       569.141          30.500  
G 7  20987468.204 6 110289888.398 6      2148.706          37.750    20987465.419 6  85940168.589 6      1674.315          36.500  
G 8  21114292.815 5 110956369.266 5     -1954.079          32.750                                                                  
R16  20169269.476 5 107740236.779 5        11.944          32.500    20169271.884 4  83797963.489 4         9.289          29.750  
C 2  37111066.237 5 193247060.30215         6.412          34.250                                                                  
C10  37346500.994 4 194473031.471 4        95.125          29.750                                                                  
C16  38142946.405 5 198620327.004 5     -1616.300          32.500    38142949.767 4 153585853.635 4     -1249.717          29.750  
C27  21658891.919 6 112783532.906 6     -1168.085          40.000                                                                  
C30  22473787.394 6 117026912.650 6      1670.896          40.750                                                                  
C 7  36815881.860 5 191709964.817 5       203.436          33.500                                                                  
C 1  37405836.961 6 194782009.805 6         8.636          37.250    37405837.050 5 150617803.62815         6.886          32.750  
C 3  36474215.511 6 189930811.903 6        36.817          39.250    36474215.627 5 146866547.629 5        28.435          32.000  
C 9  36699553.141 5 191104197.908 5     -1337.563          34.250    36699555.528 5 147773902.357 5     -1034.192          34.750  
> 2021  5 17  2 36 11.0000000  0 12                     
G21  20549205.412 7 107986793.987 7       729.541          42.500    20549202.744 5  84145557.053 5       568.477          33.000  
G 7  20987059.355 6 110287739.416 6      2148.613          37.500    20987056.296 6  85938494.042 6      1674.240          37.250  
G 8  21114664.675 5 110958322.694 5     -1954.089          33.250                                                                  
R16  20169266.863 5 107740224.698 5        11.965          33.750    20169269.496 5  83797954.093 5         9.306          30.000  
C10  37346480.858 4 194472935.992 4        95.011          30.000                                                                  
C16  38143255.163 5 198621943.055 5     -1616.340          32.000    38143261.446 4 153587103.265 4     -1249.940          29.500  
C27  21659116.360 6 112784701.285 6     -1168.729          40.250                                                                  
C30  22473466.512 6 117025241.713 6      1670.268          40.250                                                                  
C 7  36815842.995 5 191709761.642 5       202.461          33.750                                                                  
C 1  37405835.318 6 194782001.005 6         8.586          37.500    37405834.625 5 150617796.81925         6.583          33.250  
C 3  36474208.377 6 189930774.870 6        36.669          39.500                                                                  
C 9  36699810.131 5 191105535.122 5     -1337.863          33.750    36699812.225 5 147774936.403 5     -1034.473          34.750  
> 2021  5 17  2 36 12.0000000  0 13                     
G21  20549066.880 7 107986065.998 7       726.406          42.000    20549064.406 5  84144989.797 5       566.035          31.750  
G 7  20986650.794 6 110285592.416 6      2145.373          38.500    20986647.639 6  85936821.051 6      1671.715          36.500  
G 8  21115036.455 5 110960277.912 5     -1956.503          34.750                                                                  
R 9  20983398.476 4 112049791.24114      2647.444          29.250                                                                  
R16  20169264.872 5 107740214.618 5         8.231          34.000    20169267.292 4  83797946.255 4         6.402          29.750  
C10  37346463.131 4 194472841.901 4        92.188          29.750                                                                  
C16  38143567.051 5 198623560.732 5     -1619.001          32.250    38143572.117 4 153588354.076 4     -1251.605          29.250  
C27  21659341.145 6 112785871.607 6     -1171.816          40.250                                                                  
C30  22473145.988 6 117023572.666 6      1667.447          40.750                                                                  
C 7  36815804.052 5 191709559.783 5       200.603          32.750                                                                  
C 1  37405833.947 6 194781993.718 6         5.788          37.750    37405834.244 5 150617791.17325         4.712          33.750  
C 3  36474201.573 6 189930739.337 6        34.263          39.500    36474198.838 5 146866494.50125        26.553          31.750  
C 9  36700067.280 5 191106873.993 5     -1340.370          33.500    36700069.557 5 147775971.700 5     -1036.220          34.250  
> 2021  5 17  2 36 13.0000000  0 13                     
G21  20548928.615 7 107985339.519 7       726.335          42.250    20548926.119 5  84144423.702 5       565.975          31.250  
G 7  20986242.372 6 110283446.692 6      2145.985          38.250    20986239.215 6  85935149.055 6      1672.192          37.750  
G 8  21115408.801 5 110962234.193 5     -1956.079          34.250                                                                  
R 9  20982903.618 5 112047142.64425      2648.962          30.750                                                                  
R16  20169263.316 5 107740205.900 5         8.652          33.750    20169265.674 4  83797939.472 4         6.729          29.750  
C10  37346445.167 4 194472748.498 4        93.930          29.250                                                                  
C16  38143877.775 5 198625179.248 5     -1618.476          33.000    38143881.523 4 153589605.690 4     -1251.843          28.000  
C27  21659566.195 6 112787043.190 6     -1171.383          40.500                                                                  
C30  22472825.757 6 117021904.896 6      1667.760          40.250                                                                  
C 7  36815765.487 5 191709358.701 5       201.222          32.750                                                                  
C 1  37405832.670 6 194781987.267 6         6.748          38.000    37405833.935 5 150617786.17525         5.354          33.000  
C 3  36474194.978 6 189930704.652 6        34.912          39.500    36474194.167 5 146866467.69925        27.030          31.500  
C 9  36700324.675 5 191108213.794 5     -1339.100          34.000    36700326.622 5 147777007.743 5     -1035.946          34.250  
> 2021  5 17  2 36 14.0000000  0 12                     
G21  20548790.312 7 107984612.805 7       726.682          42.250    20548787.684 5  84143857.407 5       566.242          32.250  
G 7  20985833.906 6 110281300.584 6      2146.310          37.750    20985831.118 6  85933476.755 6      1672.445          37.500  
G 8  21115780.835 5 110964189.884 5     -1955.446          35.250                                                                  
R16  20169261.359 5 107740196.752 5         9.240          33.250    20169263.933 4  83797932.357 4         7.187          29.250  
C10  37346427.256 5 194472654.269 5        95.076          30.750                                                                  
C16  38144188.596 5 198626796.929 5     -1617.386          32.750    38144192.677 4 153590856.585 4     -1250.763          28.750  
C27  21659791.133 6 112788214.343 6     -1170.818          40.500                                                                  
C30  22472505.414 6 117020236.707 6      1668.369          40.250                                                                  
C 7  36815726.385 5 191709156.681 5       202.318          32.500                                                                  
C 1  37405831.279 6 194781979.979 6         7.646          37.500    37405830.478 5 150617780.012 5         6.072          33.500  
C 3  36474188.188 6 189930669.107 6        36.061          39.750    36474186.958 5 146866440.20325        27.963          31.500  
C 9  36700582.110 5 191109552.946 5     -1338.683          33.750    36700583.989 5 147778043.256 5     -1035.168          34.000  
> 2021  5 17  2 36 15.0000000  0 13                     
G21  20548652.116 7 107983886.656 7       725.274          42.250    20548649.167 5  84143291.582 5       565.147          31.250  
G 7  20985425.602 6 110279154.809 6      2145.230          38.000    20985422.768 6  85931804.712 6      1671.601          38.000  
G 8  21116153.121 5 110966145.756 5     -1956.708          34.250                                                                  
R 9  20981916.234 5 112041886.04715      2648.859          31.250                                                                  
R16  20169260.054 5 107740188.033 5         8.110          33.250    20169262.483 5  83797925.581 5         6.309          30.250  
C10  37346409.654 4 194472551.85714        94.738          28.750                                                                  
C16  38144498.584 5 198628414.635 5     -1617.935          32.250    38144503.486 4 153592107.480 4     -1250.897          29.500  
C27  21660016.093 6 112789385.825 6     -1171.923          40.250                                                                  
C30  22472185.081 6 117018568.832 6      1667.516          40.000                                                                  
C 7  36815687.754 5 191708954.536 5       202.460          32.000                                                                  
C 1  37405829.848 6 194781972.624 6         6.875          37.500    37405829.710 5 150617774.338 5         5.226          33.500  
C 3  36474181.384 6 189930633.521 6        35.162          39.500    36474179.994 5 146866412.68425        27.499          31.750  
C 9  36700839.147 5 191110892.130 5     -1339.997          33.750    36700841.141 5 147779078.815 5     -1036.190          34.000  
> 2021  5 17  2 36 16.0000000  0 13                     
G21  20548514.125 7 107983161.536 7       725.157          42.250    20548511.230 4  84142726.566 4       565.060          29.750  
G 7  20985017.471 6 110277009.913 6      2145.293          37.500    20985014.247 6  85930133.364 6      1671.653          37.500  
G 8  21116525.401 5 110968102.144 5     -1956.054          34.000                                                                  
R 9  20981410.414 4 112039237.26824      2649.438          29.750                                                                  
R16  20169258.413 5 107740180.231 5         7.990          32.750    20169261.104 4  83797919.513 4         6.215          29.750  
C10  37346390.447 4 194472457.86924        94.162          28.000                                                                  
C16  38144809.464 5 198630032.824 5     -1617.924          32.000    38144814.134 4 153593358.748 4     -1250.719          29.000  
C27  21660241.254 6 112790558.159 6     -1172.357          40.000                                                                  
C30  22471864.909 6 117016901.814 6      1667.203          39.250                                                                  
C 7  36815648.750 5 191708752.760 5       202.102          32.250                                                                  
C 1  37405828.500 6 194781965.673 6         7.070          37.750    37405828.214 5 150617768.972 5         5.522          33.750  
C 3  36474174.621 6 189930598.329 6        35.589          39.500    36474172.299 5 146866385.472 5        27.606          32.250  
C 9  36701096.148 5 191112231.801 5     -1338.857          33.500    36701098.434 5 147780114.755 5     -1035.758          34.500  
> 2021  5 17  2 36 17.0000000  0 12                     
G21  20548376.234 6 107982437.006 6       723.840          41.750    20548372.872 5  84142161.994 5       564.031          31.000  
G 7  20984609.387 6 110274865.424 6      2144.150          38.000    20984606.246 6  85928462.342 6      1670.764          37.750  
G 8  21116897.511 5 110970058.790 5     -1957.089          32.750    21116899.206 4  86470157.92514     -1525.005          27.250  
R 9  20980920.314 5 112036588.58925      2648.428          30.250                                                                  
R16  20169257.082 5 107740172.880 5         6.383          33.250    20169259.532 5  83797913.791 5         4.963          30.250  
C16  38145120.217 5 198631651.006 5     -1618.240          31.500    38145125.258 4 153594610.028 4     -1251.256          29.250  
C27  21660466.413 6 112791730.828 6     -1173.128          39.500                                                                  
C30  22471544.809 6 117015235.136 6      1666.157          39.000                                                                  
C 7  36815610.301 5 191708550.844 5       200.867          31.750                                                                  
C 1  37405827.115 6 194781958.639 6         6.804          37.250    37405826.935 5 150617763.544 5         4.999          33.000  
C 3  36474167.898 6 189930563.071 6        35.006          39.500                                                                  
C 9  36701353.309 5 191113571.626 5     -1340.194          34.500    36701355.586 5 147781150.785 5     -1036.598          34.000  
> 2021  5 17  2 36 18.0000000  0 13                     
G21  20548238.437 6 107981712.954 6       723.965          41.500    20548235.345 5  84141597.801 5       564.130          30.250  
G 7  20984201.363 6 110272721.213 6      2144.220          37.250    20984198.602 6  85926791.536 6      1670.822          37.500  
G 8  21117269.738 5 110972015.497 5     -1956.298          34.500    21117272.231 5  86471682.658 5     -1524.388          31.750  
R 9  20980419.380 4 112033939.91724      2649.405          29.500                                                                  
R16  20169255.666 5 107740165.819 5         7.032          33.250    20169258.145 4  83797908.291 4         5.466          29.750  
C 2  37111053.341 5 193246988.01015         8.007          33.750                                                                  
C16  38145430.176 5 198633269.071 5     -1617.876          31.750    38145436.112 4 153595861.151 4     -1250.586          29.000  
C27  21660691.720 6 112792903.774 6     -1172.799          40.000                                                                  
C30  22471224.706 6 117013568.724 6      1666.453          38.750                                                                  
C 7  36815571.528 5 191708348.634 5       202.494          31.500                                                                  
C 1  37405825.674 6 194781951.483 6         7.522          37.250    37405823.965 5 150617752.49915         5.691          33.000  
C 3  36474161.104 6 189930527.677 6        35.760          39.250    36474160.900 5 146866326.83315        27.503          31.750  
C 9  36701610.801 5 191114911.346 5     -1339.454          34.750    36701612.801 5 147782186.733 5     -1035.938          33.750  
> 2021  5 17  2 36 19.0000000  0 13                     
G21  20548100.877 7 107980989.884 7       722.678          42.250    20548098.154 5  84141034.372 5       563.126          32.750  
G 7  20983793.335 6 110270577.738 6      2143.488          38.250    20983790.809 6  85925121.299 6      1670.252          37.750  
G 8  21117642.051 5 110973972.789 5     -1957.562          33.750    21117640.501 4  86473207.806 4     -1525.373          24.250  
R 9  20979925.275 4 112031291.669 4      2648.449          29.000                                                                  
R16  20169254.180 5 107740159.596 5         5.956          33.250    20169257.169 4  83797903.443 4         4.629          29.250  
C 2  37111050.165 5 193246980.82925         7.452          34.000    37111047.920 5 149430815.826 5         5.316          32.750  
C16  38145741.212 5 198634887.440 5     -1618.220          33.250    38145747.009 4 153597112.655 4     -1251.597          29.500  
C27  21660917.135 6 112794077.452 6     -1173.902          39.500                                                                  
C30  22470904.861 6 117011903.042 6      1665.710          38.500                                                                  
C 7  36815532.580 5 191708146.759 5       200.916          32.000                                                                  
C 1  37405824.279 6 194781944.650 6         6.733          37.750                                                                  
C 3  36474154.408 6 189930492.620 6        35.044          39.000    36474154.238 5 146866299.74125        26.620          31.750  
C 9  36701868.025 5 191116251.584 5     -1340.568          33.750    36701869.941 5 147783223.056 5     -1036.523          34.000  
> 2021  5 17  2 36 20.0000000  0 13                     
G21  20547963.369 6 107980267.454 6       721.960          41.750    20547960.804 5  84140471.440 5       562.568          33.500  
G 7  20983385.565 6 110268434.778 6      2142.669          38.000    20983382.896 6  85923451.469 6      1669.615          38.000  
G 8  21118014.459 5 110975930.304 5     -1957.560          33.750    21118011.986 5  86474733.098 5     -1525.372          31.250  
R 9  20979432.582 4 112028643.596 4      2648.088          27.500                                                                  
R16  20169252.934 5 107740153.836 5         5.580          33.500    20169256.117 5  83797898.963 5         4.338          30.000  
C 2  37111047.690 5 193246973.683 5         7.202          34.000                                                                  
C16  38146052.391 5 198636505.991 5     -1619.086          32.750    38146058.168 4 153598364.202 4     -1252.234          29.750  
C27  21661142.620 6 112795251.542 6     -1174.438          39.750                                                                  
C30  22470585.139 6 117010237.824 6      1664.878          38.750                                                                  
C 7  36815493.618 5 191707944.678 5       202.588          32.250                                                                  
C 1  37405822.929 6 194781937.828 6         6.452          37.250    37405824.666 5 150617746.95215         5.086          33.250  
C 3  36474147.664 6 189930457.548 6        35.250          39.000    36474146.387 5 146866272.59125        27.415          32.000  
C 9  36702125.453 5 191117591.926 5     -1341.067          33.750    36702127.320 5 147784259.485 5     -1036.590          34.000  
> 2021  5 17  2 36 21.0000000  0 12                     
G21  20547825.979 6 107979545.545 6       721.969          41.750    20547823.133 4  84139908.910 4       562.572          29.250  
G 7  20982977.885 6 110266292.101 6      2142.939          38.500    20982975.281 6  85921781.850 6      1669.825          37.250  
G 8  21118386.878 5 110977887.914 5     -1957.158          33.500    21118382.049 4  86476258.520 4     -1525.058          28.750  
R 9  20978938.907 4 112025995.591 4      2647.975          28.500                                                                  
R16  20169251.793 5 107740148.437 5         5.868          33.750    20169255.022 5  83797894.769 5         4.564          30.000  
C16  38146363.419 5 198638124.348 5     -1617.980          32.000    38146368.774 5 153599615.615 5     -1251.277          30.000  
C27  21661368.184 6 112796425.946 6     -1174.040          40.000                                                                  
C30  22470265.428 6 117008572.874 6      1665.349          38.500                                                                  
C 7  36815454.929 5 191707742.495 5       203.323          31.500                                                                  
C 1  37405821.603 6 194781930.881 6         7.727          37.250                                                                  
C 3  36474140.872 6 189930422.366 6        35.904          39.000    36474139.755 5 146866245.44825        27.320          31.250  
C 9  36702382.827 5 191118932.235 5     -1339.751          33.750    36702384.562 5 147785295.897 5     -1035.835          34.500  
> 2021  5 17  2 36 22.0000000  0 12                     
G21  20547688.509 6 107978823.276 6       722.232          41.750    20547685.405 5  84139346.073 5       562.772          33.000  
G 7  20982570.012 6 110264148.880 6      2143.330          38.000    20982567.525 6  85920111.811 6      1670.130          37.500  
G 8  21118759.142 5 110979844.757 5     -1956.450          33.000    21118758.464 5  86477783.361 5     -1524.499          30.000  
R 9  20978443.273 4 112023346.559 4      2648.911          28.250                                                                  
R16  20169250.783 5 107740142.578 5         6.322          34.000    20169253.861 5  83797890.215 5         4.918          30.250  
C16  38146673.884 5 198639741.879 5     -1617.795          31.500    38146679.736 4 153600866.391 4     -1251.004          29.000  
C27  21661593.604 6 112797599.773 6     -1173.652          39.750                                                                  
C30  22469945.580 6 117006907.342 6      1665.831          38.250                                                                  
C 7  36815415.795 5 191707539.269 5       203.269          31.000                                                                  
C 1  37405820.066 6 194781922.974 6         8.120          37.750    37405818.931 5 150617731.44315         6.500          33.000  
C 3  36474133.963 6 189930386.253 6        35.915          39.000    36474133.909 5 146866217.42925        28.525          32.250  
C 9  36702639.969 5 191120271.735 5     -1339.371          34.000    36702641.902 5 147786331.687 5     -1035.480          34.500  
> 2021  5 17  2 36 23.0000000  0 13                     
G21  20547551.151 6 107978101.502 6       721.549          41.750    20547548.154 4  84138783.671 4       562.247          28.000  
G 7  20982162.137 6 110262005.980 6      2142.668          37.750    20982159.837 6  85918442.018 6      1669.613          37.750  
G 8  21119131.560 5 110981801.720 5     -1957.491          33.750    21119129.628 4  86479308.300 4     -1525.303          27.750  
R 9  20977944.490 4 112020697.538 4      2649.055          28.500                                                                  
R16  20169249.716 5 107740137.084 5         5.286          33.500    20169252.908 4  83797885.946 4         4.112          29.500  
C 2  37111042.351 5 193246934.68715         8.521          33.000                                                                  
C16  38146984.523 5 198641359.236 5     -1617.535          32.000    38146990.191 4 153602117.026 4     -1250.902          29.000  
C27  21661819.089 6 112798773.918 6     -1174.504          39.500                                                                  
C30  22469625.775 6 117005242.111 6      1665.206          38.000                                                                  
C 7  36815376.824 5 191707335.838 5       203.155          32.500                                                                  
C 1  37405818.555 6 194781914.949 6         8.413          37.500    37405818.377 5 150617724.764 5         5.881          34.000  
C 3  36474127.067 6 189930349.977 6        36.166          39.000    36474124.484 5 146866189.41325        27.976          31.750  
C 9  36702897.248 5 191121611.215 5     -1339.780          34.500    36702899.185 5 147787367.505 5     -1036.123          33.500  
> 2021  5 17  2 36 24.0000000  0 13                     
G21  20547413.921 6 107977380.324 6       720.838          41.750    20547410.591 4  84138221.722 4       561.693          27.750  
G 7  20981754.369 6 110259863.284 6      2142.677          38.000    20981752.019 6  85916772.378 6      1669.617          37.250  
G 8  21119503.884 5 110983758.758 5     -1957.389          32.000    21119504.958 4  86480833.297 4     -1525.219          26.000  
R 9  20977446.748 4 112018048.603 4      2648.853          29.500                                                                  
R16  20169249.028 5 107740132.049 5         4.710          34.250    20169251.979 5  83797882.030 5         3.664          30.250  
C 2  37111040.960 5 193246926.05425         9.089          34.250    37111040.965 5 149430778.52515         6.806          34.750  
C16  38147294.888 5 198642976.570 5     -1617.666          30.250    38147300.765 4 153603367.638 4     -1250.808          28.750  
C27  21662044.596 6 112799948.353 6     -1174.568          39.500                                                                  
C30  22469306.006 6 117003577.033 6      1665.299          38.750                                                                  
C 7  36815337.606 5 191707132.160 5       203.957          31.750                                                                  
C 1  37405817.058 6 194781906.923 6         8.061          37.500    37405816.067 5 150617718.572 5         5.851          33.500  
C 3  36474120.055 6 189930313.528 6        36.758          39.000    36474117.957 5 146866161.27025        27.746          31.750  
C 9  36703154.478 5 191122950.573 5     -1338.894          35.250    36703156.547 5 147788403.162 5     -1035.698          33.250  
> 2021  5 17  2 36 25.0000000  0 10                     
G21  20547277.018 6 107976660.720 6       717.425          41.250    20547273.440 5  84137661.001 5       559.034          32.750  
G 7  20981346.809 6 110257721.136 6      2141.687          38.250    20981344.278 5  85915103.163 5      1668.845          35.750  
G 8  21119876.236 4 110985716.212 4     -1959.114          28.250    21119875.683 5  86482358.604 5     -1526.563          31.000  
R16  20169248.124 5 107740128.644 5         1.585          33.250    20169251.200 4  83797879.387 4         1.236          28.750  
C16  38147605.424 5 198644594.261 5     -1618.900          33.750    38147611.633 5 153604618.472 5     -1251.386          30.500  
C27  21662270.370 6 112801123.852 6     -1176.776          39.250                                                                  
C30  22468986.378 6 117001912.447 6      1663.792          39.000                                                                  
C 1  37405815.784 6 194781900.048 6         5.328          37.500    37405815.337 5 150617713.282 5         4.133          33.750  
C 3  36474113.076 6 189930277.604 6        34.902          38.500    36474110.610 5 146866133.44325        27.009          30.750  
C 9  36703411.779 5 191124290.233 5     -1341.062          35.000    36703413.787 5 147789438.996 5     -1036.343          33.500  
> 2021  5 17  2 36 26.0000000  0  9                     
G21  20547140.630 6 107975944.020 6       715.596          41.500    20547136.904 5  84137102.522 5       557.607          32.500  
G 7  20980939.401 5 110255579.980 5      2141.580          35.000    20980936.939 5  85913434.731 5      1668.764          35.250  
R16  20169247.988 5 107740128.298 5        -1.188          33.250    20169251.096 5  83797879.121 5        -0.921          30.500  
C16  38147916.651 5 198646213.171 5     -1619.372          33.500    38147922.742 5 153605870.323 5     -1251.385          30.000  
C27  21662496.524 6 112802301.394 6     -1178.113          39.250                                                                  
C30  22468666.839 6 117000248.678 6      1664.421          39.500                                                                  
C 1  37405814.998 6 194781895.935 6         2.900          36.750    37405815.082 5 150617710.083 5         2.547          33.750  
C 3  36474106.382 6 189930242.984 6        34.630          38.500    36474103.473 5 146866106.67725        26.977          33.000  
C 9  36703669.253 5 191125630.590 5     -1340.655          35.500    36703671.054 5 147790475.470 5     -1036.222          33.750  
> 2021  5 17  2 36 27.0000000  0 11                     
G21  20547004.580 7 107975229.061 7       716.459          42.250    20547000.920 4  84136545.407 4       558.279          30.000  
G 1  21422589.041 5 112576451.36415      3024.029          33.250                                                                  
R 9  20975954.895 5 112010049.33115      2649.012          33.750                                                                  
R16  20169248.397 5 107740129.987 5         0.289          34.000    20169251.241 4  83797880.431 4         0.224          28.000  
C10  37346190.790 5 194471416.19915        98.236          32.000                                                                  
C16  38148227.510 5 198647831.399 5     -1617.304          35.000    38148233.578 5 153607121.732 5     -1250.934          32.500  
C27  21662722.758 6 112803479.387 6     -1176.929          36.500                                                                  
C30  22468347.066 6 116998583.599 6      1665.263          39.500                                                                  
C 1  37405814.575 6 194781893.662 6         4.128          37.750                                                                  
C 3  36474099.621 6 189930208.055 6        36.186          38.500    36474097.180 5 146866079.63325        28.583          32.250  
C 9  36703926.460 5 191126969.502 5     -1339.087          35.000    36703928.131 5 147791510.818 5     -1034.941          34.000  
> 2021  5 17  2 36 28.0000000  0 11                     
G21  20546867.908 6 107974511.128 6       718.652          41.750    20546864.346 4  84135985.972 4       559.986          30.000  
G 7  20980125.138 6 110251301.34716      2143.956          36.250                                                                  
G 8  21120993.707 5 110991575.22615     -1956.015          34.000    21120997.654 5  86486954.33215     -1524.167          34.000  
R16  20169247.967 5 107740128.083 5         3.314          32.250    20169251.020 4  83797878.954 4         2.579          28.000  
C 2  37111036.523 5 193246904.86615        12.282          32.250                                                                  
C16  38148537.992 5 198649447.936 5     -1615.261          34.000    38148543.975 5 153608371.697 5     -1249.491          33.000  
C30  22468027.282 6 116996918.234 6      1665.765          40.250                                                                  
C 7  36815185.536 5 191706319.35015       205.737          30.250                                                                  
C 1  37405813.259 6 194781887.020 6         7.567          37.000    37405816.348 5 150617713.65125         6.040          34.250  
C 3  36474092.460 6 189930170.985 6        38.103          38.000                                                                  
C 9  36704183.409 5 191128307.644 5     -1337.171          35.000    36704185.098 5 147792545.517 5     -1033.998          34.000  
> 2021  5 17  2 36 29.0000000  0 10                     
G21  20546731.387 6 107973793.791 6       715.157          41.500    20546728.261 5  84135427.014 5       557.265          31.750  
G 7  20979716.224 6 110249157.80226      2143.466          40.000                                                                  
G 8  21121366.693 6 110993532.30426     -1957.427          37.250    21121366.441 5  86488479.22125     -1525.268          36.000  
R16  20169247.648 5 107740126.820 5        -0.561          33.000    20169250.625 4  83797877.966 4        -0.437          29.500  
C 2  37111034.087 5 193246892.66925        12.811          33.500    37111028.530 5 149430749.71715        10.092          32.500  
C16  38148848.280 5 198651063.707 5     -1615.649          35.750    38148854.461 5 153609621.129 5     -1249.520          33.250  
C30  22467707.303 6 116995252.061 6      1666.801          39.500                                                                  
C 1  37405811.995 6 194781880.615 6         4.664          38.500    37405812.053 5 150617708.210 5         3.602          34.750  
C 3  36474085.199 6 189930133.275 6        37.609          38.750    36474080.137 5 146866017.80415        29.459          31.750  
C 9  36704440.186 5 191129644.789 5     -1337.437          34.000    36704441.736 5 147793579.516 5     -1033.857          33.500  
> 2021  5 17  2 36 30.0000000  0 11                     
G21  20546595.559 6 107973080.133 6       711.437          41.500    20546592.684 4  84134870.922 4       554.365          27.750  
G 7  20979307.873 6 110247012.65826      2145.759          36.250    20979301.874 5  85906731.34415      1672.020          34.750  
G 8  21121739.143 5 110995487.89015     -1959.175          32.000    21121739.414 5  86490005.37715     -1526.630          31.250  
G 1  21420859.685 5 112567379.26715      3021.827          33.500                                                                  
R16  20169248.311 5 107740130.118 5        -6.640          32.000    20169251.259 4  83797880.517 4        -5.168          27.750  
C16  38149158.503 5 198652679.266 5     -1614.905          34.500    38149164.880 5 153610870.383 5     -1249.057          32.250  
C27  21663400.871 6 112807003.65426     -1179.382          37.750                                                                  
C30  22467387.021 6 116993583.986 6      1669.378          39.500                                                                  
C 1  37405811.584 6 194781878.693 6        -0.576          37.750                                                                  
C 3  36474078.017 6 189930095.931 6        37.320          38.000    36474075.705 5 146865988.951 5        28.883          32.000  
C 9  36704696.658 5 191130980.227 5     -1335.009          35.000    36704698.079 5 147794612.076 5     -1031.058          34.000  
> 2021  5 17  2 36 31.0000000  0 11                     
G21  20546460.611 6 107972371.099 6       705.680          41.750    20546457.941 5  84134318.432 5       549.884          31.000  
G 7  20978897.832 5 110244865.582 5      2146.114          34.750    20978897.937 5  85905058.185 5      1672.297          31.500  
G 8  21122111.279 6 110997448.087 6     -1962.425          37.750    21122114.105 6  86491532.812 6     -1529.162          37.500  
G 1  21420283.282 6 112564359.396 6      3015.909          39.000                                                                  
R 9  20973972.443 4 111999463.06614      2650.265          30.000                                                                  
C16  38149468.795 5 198654294.730 5     -1616.285          34.500    38149475.042 5 153612119.512 5     -1250.096          31.500  
C27  21663626.737 6 112808183.43226     -1182.730          41.500                                                                  
C30  22467066.304 6 116991913.909 6      1670.146          39.500                                                                  
C 1  37405812.312 6 194781882.411 6        -7.630          38.000    37405813.301 5 150617705.12115        -5.648          34.750  
C 3  36474070.986 6 189930059.328 6        34.815          38.000                                                                  
C 9  36704952.781 5 191132313.810 5     -1334.247          34.750    36704954.161 5 147795643.323 5     -1030.869          34.250  
> 2021  5 17  2 36 32.0000000  0 11                     
G21  20546326.703 6 107971667.506 6       702.381          41.250    20546324.129 5  84133770.179 5       547.309          30.250  
G 7  20978490.488 6 110242718.781 6      2150.137          38.000    20978489.471 6  85903385.372 6      1675.432          37.500  
G 8  21122485.613 5 110999412.297 5     -1967.163          36.000    21122484.666 5  86493063.302 5     -1532.854          34.750  
G 1  21419707.643 6 112561343.298 6      3015.237          39.500                                                                  
C16  38149779.285 5 198655910.116 5     -1613.256          33.500    38149784.873 5 153613368.642 5     -1248.371          31.250  
C27  21663854.266 6 112809367.16326     -1183.646          38.750                                                                  
C30  22466745.256 6 116990242.165 6      1673.318          39.750                                                                  
C 7  36815025.170 5 191705501.70415       196.637          31.250    36815024.993 4 148238854.67814       155.002          29.250  
C 1  37405814.286 6 194781892.577 6       -11.518          37.750    37405813.094 5 150617712.494 5        -9.680          34.000  
C 3  36474064.163 6 189930023.867 6        36.040          37.750    36474063.322 5 146865941.23615        27.913          31.000  
C 9  36705208.652 5 191133645.895 5     -1330.464          35.250    36705209.917 5 147796673.422 5     -1029.016          32.750  
> 2021  5 17  2 36 33.0000000  0 12                     
G21  20546193.120 6 107970965.511 6       701.474          41.750    20546190.311 5  84133223.161 5       546.602          32.500  
G 7  20978080.386 5 110240570.720 5      2148.288          34.500    20978080.758 5  85901711.545 5      1673.990          35.000  
G 8  21122860.257 5 111001376.234 5     -1963.623          34.750    21122861.146 5  86494593.643 5     -1530.096          30.250  
G 1  21419134.365 6 112558327.463 6      3015.336          40.000                                                                  
C16  38150089.231 5 198657523.954 5     -1613.566          33.750    38150094.853 5 153614616.570 5     -1248.349          30.750  
C27  21664081.219 6 112810551.443 6     -1185.302          41.000                                                                  
C30  22466423.750 6 116988568.066 6      1673.465          40.250                                                                  
C 7  36814987.779 5 191705302.01925       198.392          30.500    36814987.803 4 148238699.760 4       154.967          28.750  
C 1  37405816.619 6 194781904.589 6       -11.801          37.500    37405817.686 5 150617721.780 5        -9.782          34.500  
C 4  38345228.544 5 199673656.18515       -11.301          31.750                                                                  
C 3  36474057.091 6 189929987.394 6        36.554          38.000    36474055.322 5 146865913.03825        27.874          31.250  
C 9  36705464.022 5 191134975.584 5     -1329.893          35.750    36705465.078 5 147797701.572 5     -1028.303          34.250  
> 2021  5 17  2 36 34.0000000  0 12                     
G21  20546059.552 6 107970263.570 6       703.126          41.500    20546056.745 5  84132676.191 5       547.890          31.000  
G 7  20977672.571 6 110238422.568 6      2148.525          39.500    20977669.561 6  85900037.659 6      1674.175          39.000  
G 1  21418560.991 6 112555311.549 6      3017.045          39.750                                                                  
R16  20169264.447 5 107740204.34315       -18.492          35.000                                                                  
C16  38150399.269 5 198659137.541 5     -1613.072          35.250    38150405.102 4 153615864.329 4     -1246.760          29.250  
C27  21664309.039 6 112811735.736 6     -1183.178          41.750                                                                  
C30  22466102.330 6 116986894.330 6      1675.339          41.250                                                                  
C 7  36814950.612 5 191705085.68715       203.767          34.500    36814946.554 5 148238532.51815       154.921          30.000  
C 1  37405818.760 6 194781915.868 6        -9.371          39.750    37405819.856 5 150617730.456 5        -7.378          34.250  
C 4  38345230.612 5 199673665.91225        -7.770          32.500    38345229.700 5 154400347.15025        -5.969          30.000  
C 3  36474049.978 6 189929950.670 6        38.036          40.250    36474046.625 5 146865884.64725        29.341          32.000  
C 9  36705719.384 6 191136305.335 6     -1328.735          36.750    36705720.407 5 147798729.886 5     -1027.882          33.250  
> 2021  5 17  2 36 35.0000000  0 12                     
G21  20545925.622 7 107969559.946 7       703.112          42.500    20545922.870 5  84132127.918 5       547.881          31.000  
G 7  20977263.240 6 110236272.605 6      2150.156          41.000    20977260.856 6  85898362.370 6      1675.447          40.250  
G 1  21417986.393 6 112552294.050 6      3016.302          40.750                                                                  
R16  20169269.672 5 107740220.70125       -16.550          33.250                                                                  
C16  38150708.719 4 198660750.04114     -1611.911          29.500                                                                  
C27  21664536.185 7 112812917.701 7     -1181.352          43.750                                                                  
C30  22465780.640 6 116985219.134 6      1675.515          42.000                                                                  
C 7  36814910.389 5 191704882.67525       204.539          35.750    36814905.163 5 148238375.38825       158.349          32.250  
C 1  37405820.433 6 194781924.751 6        -8.938          39.000    37405821.433 5 150617737.381 5        -7.242          34.000  
C 4  38345231.236 5 199673673.17425        -8.441          33.000    38345232.441 5 154400352.74825        -5.656          31.000  
C 3  36474042.569 6 189929911.942 6        38.090          39.750    36474039.916 5 146865854.69625        29.079          32.000  
C 9  36705974.350 6 191137633.331 6     -1328.223          37.250    36705975.370 5 147799756.756 5     -1027.512          34.000  
> 2021  5 17  2 36 36.0000000  0 14                     
G21  20545791.975 7 107968857.665 7       700.821          42.500    20545789.284 5  84131580.699 5       546.098          31.000  
G 7  20976853.781 6 110234122.077 6      2149.341          41.000    20976851.983 6  85896686.629 6      1674.811          40.000  
G 8  21123979.008 6 111007262.14516     -1961.697          40.500    21123979.882 6  86499174.87016     -1528.595          40.250  
G 1  21417412.592 6 112549278.113 6      3014.905          38.750    21417415.412 6  87700730.91916      2349.276          37.000  
R 9  20971486.307 6 111986179.32826      2654.541          40.000                                                                  
R16  20169270.174 6 107740237.68626       -18.610          37.500    20169270.687 4  83797962.79414       -14.475          29.750  
C10  37346008.918 5 194470461.32715       110.545          33.750                                                                  
C27  21664763.133 6 112814099.753 6     -1182.853          41.750                                                                  
C30  22465459.051 6 116983544.491 6      1674.573          40.500                                                                  
C 7  36814870.750 6 191704678.75226       203.368          36.000    36814867.060 5 148238217.75525       156.746          34.500  
C 1  37405822.385 6 194781934.697 6       -11.332          37.500                                                                  
C 4  38345232.697 5 199673681.58825        -9.635          31.250    38345233.721 5 154400359.25825        -7.050          31.000  
C 3  36474035.223 6 189929873.706 6        37.526          38.000    36474033.300 5 146865825.10725        29.500          32.250  
C 9  36706229.505 5 191138961.849 5     -1329.101          33.750    36706230.385 5 147800784.080 5     -1028.725          31.750  
> 2021  5 17  2 36 37.0000000  0 14                     
G21  20545658.915 7 107968158.613 7       698.417          42.250    20545656.150 4  84131035.981 4       544.222          26.500  
G 7  20976444.905 6 110231972.225 6      2151.219          40.750    20976442.644 6  85895011.430 6      1676.277          40.750  
G 8  21124351.758 6 111009222.777 6     -1959.398          40.250    21124352.612 6  86500702.590 6     -1526.803          38.750  
G 1  21416839.629 6 112546266.199 6      3009.367          37.750    21416843.892 6  87698384.007 6      2344.961          37.250  
R 9  20970991.057 6 111983523.57426      2657.920          37.750                                                                  
R16  20169272.943 5 107740256.555 5       -19.236          35.500    20169272.404 4  83797970.36514       -14.961          29.250  
C10  37345986.957 6 194470349.97526       113.903          36.750    37345987.636 5 150376817.43225        87.370          31.500  
C27  21664990.088 7 112815283.021 7     -1182.357          43.000                                                                  
C30  22465137.985 6 116981872.619 6      1671.352          40.750                                                                  
C 7  36814832.189 6 191704474.95426       205.538          38.000    36814828.569 5 148238060.15925       158.594          33.500  
C 1  37405824.821 6 194781947.500 6       -13.175          38.750    37405825.523 5 150617763.42315       -10.186          33.000  
C 4  38345235.873 5 199673692.78825       -11.964          34.000    38345234.101 5 154400367.88925        -8.640          30.750  
C 3  36474028.357 6 189929838.263 6        34.712          39.750    36474025.184 5 146865797.66525        27.447          32.500  
C 9  36706485.160 6 191140293.140 6     -1331.907          37.250    36706486.076 5 147801813.551 5     -1030.563          33.750  
> 2021  5 17  2 36 38.0000000  0 11                     
G21  20545526.076 6 107967460.713 6       697.686          41.250    20545523.157 5  84130492.166 5       543.656          31.000  
G 7  20976035.385 6 110229818.955 6      2154.652          38.250    20976032.546 6  85893333.562 6      1678.952          38.000  
G 8  21124725.620 6 111011178.002 6     -1950.743          39.250    21124725.733 6  86502226.150 6     -1520.060          38.750  
R 9  20970491.782 6 111980860.81426      2667.716          39.250                                                                  
R16  20169274.063 6 107740272.019 6       -12.113          36.500    20169275.222 4  83797982.33724        -9.421          28.250  
C27  21665216.486 6 112816462.649 6     -1176.828          41.750                                                                  
C 7  36814791.458 6 191704265.37426       213.754          36.750    36814788.018 5 148237898.07925       165.868          32.000  
C 1  37405827.443 6 194781960.988 6       -13.696          37.750    37405831.014 5 150617773.85825       -10.684          33.000  
C 4  38345237.184 5 199673703.64625       -10.543          32.500    38345236.208 4 154400376.44324        -8.129          30.000  
C 3  36474021.985 6 189929805.196 6        31.726          38.000    36474018.731 5 146865772.17225        24.244          33.500  
C 9  36706741.447 6 191141627.857 6     -1337.202          36.500    36706742.323 5 147802845.550 5     -1033.896          32.250  
> 2021  5 17  2 36 39.0000000  0 11                     
G21  20545393.456 6 107966763.797 6       696.165          41.000    20545390.611 5  84129949.119 5       542.470          33.000  
G 8  21125095.447 6 111013126.474 6     -1945.891          39.750    21125096.594 6  86503744.470 6     -1516.278          39.750  
G 1  21415695.135 6 112540236.84016      2998.813          40.500                                                                  
R 9  20969988.871 5 111978190.724 5      2672.689          32.750    20969989.363 4  87094146.51814      2078.758          25.000  
R16  20169276.070 5 107740282.643 5        -8.231          35.500    20169277.414 4  83797990.60124        -6.402          29.250  
R19  19407859.518 5 103818581.63325     -1310.823          30.500                                                                  
C27  21665442.340 7 112817638.205 7     -1174.022          42.500                                                                  
C 7  36814749.815 5 191704049.28825       219.014          36.000    36814746.633 5 148237730.528 5       169.350          34.500  
C 1  37405830.062 6 194781974.433 6       -13.306          38.000    37405831.973 5 150617783.761 5       -10.397          33.750  
C 4  38345238.647 5 199673721.08415        -9.477          33.500    38345237.871 5 154400381.59615        -5.976          31.500  
C 3  36474016.231 6 189929775.489 6        27.678          37.500    36474013.404 5 146865749.263 5        20.624          34.000  
> 2021  5 17  2 36 40.0000000  0 10                     
G21  20545261.173 6 107966068.704 6       694.472          41.250    20545258.170 5  84129407.495 5       541.150          33.750  
G 8  21125465.414 6 111015070.578 6     -1942.663          40.000    21125466.623 6  86505259.374 6     -1513.764          40.250  
G 1  21415125.871 6 112537240.91826      2992.287          39.500                                                                  
R16  20169277.101 6 107740289.471 6        -4.983          36.250    20169279.161 4  83797995.92024        -3.876          29.250  
R19  19408099.691 5 103819876.38415     -1309.391          30.750    19408103.217 5  80748794.45915     -1018.415          30.250  
C27  21665667.716 6 112818811.789 6     -1173.603          40.500                                                                  
C 7  36814707.382 5 191703828.588 5       221.531          35.750    36814704.623 5 148237560.293 5       170.482          33.000  
C 1  37405832.666 5 194781988.065 5       -13.614          36.000    37405833.970 5 150617794.337 5       -10.931          33.250  
C 4  38345240.862 5 199673728.28725        -6.261          32.000    38345238.789 4 154400387.27024        -4.923          29.500  
C 3  36474011.561 6 189929751.277 6        21.296          37.500    36474009.472 5 146865730.517 5        15.836          33.000  
> 2021  5 17  2 36 41.0000000  0  8                     
G21  20545128.998 6 107965374.215 6       695.279          41.250    20545125.566 4  84128866.340 4       541.779          27.000  
G 8  21125835.011 6 111017012.449 6     -1940.659          40.250    21125836.249 6  86506772.507 6     -1512.204          38.000  
G 1  21414558.528 6 112534249.74726      2991.325          39.000    21414559.897 6  87689037.28016      2330.903          36.500  
R16  20169277.852 5 107740276.68015         0.575          33.500    20169280.366 4  83797997.64614         0.447          28.500  
C16  38152582.856 4 198670518.26024     -1648.181          29.750                                                                  
C27  21665892.967 6 112819984.571 6     -1171.656          40.500                                                                  
C 7  36814664.804 6 191703606.261 6       223.712          36.750    36814662.000 5 148237388.328 5       172.988          32.750  
C 3  36474007.936 6 189929732.361 6        17.626          36.750                                                                  
> 2021  5 17  2 36 42.0000000  0  7                     
G21  20544996.174 6 107964676.607 6       698.916          41.000    20544992.888 5  84128322.762 5       544.616          34.250  
G 8  21126204.004 6 111018950.673 6     -1936.914          40.250    21126204.542 6  86508282.810 6     -1509.285          40.000  
G 1  21413987.645 6 112531258.31926      2991.322          38.750    21413989.728 6  87686706.28926      2330.900          37.500  
R16  20169276.769 5 107740272.55525         5.572          30.500    20169279.203 4  83797994.435 4         4.334          27.750  
C27  21666117.597 6 112821154.376 6     -1168.516          41.500                                                                  
C 7  36814621.649 5 191703380.328 5       226.962          35.000    36814618.854 5 148237213.603 5       176.080          31.500  
C 3  36474004.368 5 189929713.877 5        18.869          36.000    36474004.195 5 146865697.63225        13.966          33.750  
> 2021  5 17  2 36 43.0000000  0  7                     
G21  20544863.181 6 107963978.055 6       697.462          39.500    20544860.023 5  84127778.450 5       543.486          33.750  
G 8  21126572.522 6 111020886.910 6     -1935.560          40.000    21126572.797 6  86509791.586 6     -1508.224          39.000  
G 1  21413417.547 6 112528266.972 6      2989.260          40.500    21413420.748 6  87684375.269 6      2329.293          41.000  
R16  20169274.912 5 107740265.20425         8.758          32.000    20169277.150 4  83797988.728 4         6.812          29.500  
C27  21666341.888 6 112822322.884 6     -1167.816          38.750                                                                  
C 7  36814578.015 5 191703152.294 5       228.411          35.250    36814574.932 5 148237037.239 5       177.460          32.000  
C 3  36474000.932 6 189929696.272 6        16.625          36.000    36473998.791 5 146865683.94725        12.766          32.750  
> 2021  5 17  2 36 44.0000000  0  8                     
G21  20544730.604 6 107963281.208 6       697.564          40.250    20544727.343 5  84127235.457 5       543.561          34.000  
G 8  21126940.516 6 111022821.785 6     -1932.954          38.000    21126941.676 6  86511299.296 6     -1506.192          37.250  
G 1  21412849.114 6 112525279.310 6      2986.505          39.750    21412852.045 6  87682047.220 6      2327.147          39.500  
R16  20169273.725 5 107740257.59525         8.537          32.750    20169276.291 4  83797982.826 4         6.640          28.750  
C27  21666566.162 6 112823491.057 6     -1166.951          40.000                                                                  
C 7  36814533.711 5 191702922.677 5       231.588          34.750    36814530.359 5 148236859.815 5       178.747          32.500  
C 6  37718387.719 5 196409564.83925     -1581.620          31.000    37718389.484 4 151876314.19414     -1223.466          30.000  
C 3  36473997.950 6 189929680.862 6        15.217          36.250                                                                  
> 2021  5 17  2 36 45.0000000  0  7                     
G21  20544598.168 6 107962585.296 6       695.800          38.250    20544594.631 5  84126693.168 5       542.183          31.500  
G 8  21127308.284 6 111024754.194 6     -1930.245          37.000    21127309.053 6  86512805.050 6     -1504.087          36.250  
G 1  21412281.437 6 112522293.719 6      2984.845          40.000    21412284.023 6  87679720.803 6      2325.854          40.500  
C27  21666790.340 6 112824657.836 6     -1165.223          40.750                                                                  
C 7  36814489.068 6 191702690.605 6       233.949          36.000    36814485.488 5 148236680.357 5       180.793          32.500  
C 6  37718691.166 4 196411148.45524     -1584.695          30.000    37718689.417 4 151877538.68824     -1225.270          29.500  
C 3  36473995.222 6 189929666.639 6        14.111          36.500                                                                  
> 2021  5 17  2 36 46.0000000  0  8                     
G21  20544466.233 6 107961891.745 6       692.182          41.750    20544462.544 5  84126152.745 5       539.369          31.500  
G 8  21127676.191 6 111026686.127 6     -1931.088          39.500    21127676.699 6  86514310.455 6     -1504.743          38.250  
G 1  21411714.420 7 112519311.821 7      2980.536          42.250    21411716.265 6  87677397.256 6      2322.495          40.750  
C16  38154172.271 6 198678785.06816     -1662.303          37.000    38154175.917 5 153631042.94115     -1285.028          31.250  
C27  21667014.545 7 112825825.177 7     -1167.147          42.750                                                                  
C 7  36814444.266 6 191702457.899 6       233.179          36.500                                                                  
C 6  37718997.107 5 196412735.799 5     -1589.071          33.250    37718994.925 5 151878770.17915     -1228.944          30.750  
C 3  36473992.959 6 189929655.009 6        10.349          38.750    36473991.093 5 146865643.03225         8.446          33.250  
> 2021  5 17  2 36 47.0000000  0  8                     
G21  20544334.292 6 107961198.642 6       691.698          39.500    20544330.540 4  84125612.684 4       538.991          25.500  
G 8  21128043.827 6 111028617.194 6     -1931.082          36.750    21128045.500 5  86515815.196 5     -1504.735          35.000  
G 1  21411146.734 6 112516330.497 6      2982.778          40.750    21411148.781 6  87675074.128 6      2324.237          40.250  
C16  38154491.609 5 198680446.13825     -1660.646          33.000    38154497.363 4 153632349.36214     -1283.912          29.000  
C27  21667238.710 7 112826992.192 7     -1167.178          42.750                                                                  
C 7  36814399.518 6 191702224.166 6       232.522          36.750    36814395.394 5 148236314.05825       181.280          30.750  
C 6  37719303.073 5 196414323.826 5     -1586.132          31.750    37719304.459 5 151879998.09625     -1227.308          32.000  
C 3  36473990.685 6 189929643.519 6        12.652          38.500    36473988.794 5 146865634.15825         9.687          32.750  
> 2021  5 17  2 36 48.0000000  0  8                     
G21  20544201.985 6 107960503.523 6       695.659          39.000    20544197.962 4  84125071.061 4       542.084          29.000  
G 8  21128411.462 6 111030548.062 6     -1932.306          40.500    21128412.366 6  86517319.789 6     -1505.684          37.750  
G 1  21410578.831 6 112513346.719 6      2984.894          40.000    21410580.878 6  87672749.121 6      2325.891          38.750  
C16  38154808.225 4 198682104.70424     -1657.790          30.000                                                                  
C27  21667462.617 7 112828158.605 7     -1167.742          43.250                                                                  
C 7  36814354.563 6 191701989.769 6       233.635          37.750    36814350.703 5 148236132.92825       180.076          33.000  
C 6  37719606.912 5 196415909.284 5     -1584.351          32.750    37719606.530 5 151881223.98325     -1224.897          31.250  
C 3  36473988.105 6 189929630.017 6        13.890          39.000    36473985.539 5 146865623.75125        10.831          32.750  
> 2021  5 17  2 36 49.0000000  0  8                     
G21  20544069.647 6 107959808.008 6       694.842          41.000    20544065.260 4  84124529.121 4       541.447          28.250  
G 8  21128778.984 6 111032479.467 6     -1930.541          40.750    21128780.008 6  86518824.781 6     -1504.313          39.000  
G 1  21410011.041 6 112510361.922 6      2984.850          40.500    21410013.187 6  87670423.306 6      2325.857          40.000  
C16  38155128.541 5 198683762.28525     -1657.329          32.000                                                                  
C27  21667686.683 7 112829325.307 7     -1166.278          42.500                                                                  
C 7  36814309.750 6 191701755.550 6       234.999          36.750    36814305.655 5 148235951.81225       181.662          33.000  
C 6  37719911.726 5 196417493.432 5     -1584.984          32.250    37719911.993 5 151882449.01425     -1225.539          31.000  
C 3  36473985.336 6 189929615.684 6        14.165          37.750    36473983.703 5 146865612.630 5        11.005          34.000  
> 2021  5 17  2 36 50.0000000  0  9                     
G21  20543937.260 6 107959112.179 6       695.083          40.250    20543933.238 5  84123986.925 5       541.637          34.250  
G 8  21129146.005 6 111034408.550 6     -1927.614          39.250    21129146.444 6  86520327.948 6     -1502.036          37.250  
G 1  21409443.074 6 112507377.647 6      2983.375          40.000    21409445.299 6  87668097.900 6      2324.709          41.250  
C16  38155446.542 5 198685420.43825     -1658.938          35.500                                                                  
C27  21667910.487 7 112830490.513 7     -1165.237          44.250                                                                  
C 7  36814264.291 6 191701518.906 6       238.335          38.000    36814260.240 5 148235768.76925       183.862          32.000  
C 1  37405842.432 6 194782036.99516        -5.701          36.750                                                                  
C 6  37720215.884 5 196419078.380 5     -1586.582          33.750    37720215.797 5 151883674.58925     -1226.639          30.500  
C 3  36473982.565 6 189929601.120 6        14.671          40.000    36473980.138 5 146865601.439 5        10.980          34.000  
> 2021  5 17  2 36 51.0000000  0  6                     
G 8  21129512.424 6 111036335.231 6     -1924.785          38.500    21129512.980 6  86521829.259 6     -1499.831          38.750  
C16  38155765.768 6 198687081.011 6     -1661.835          37.000    38155768.812 5 153637467.85615     -1284.943          31.250  
C27  21668134.001 7 112831654.477 7     -1164.258          43.250                                                                  
C 7  36814218.411 6 191701279.823 6       239.842          37.000    36814214.192 5 148235583.373 5       185.901          31.750  
C 6  37720521.279 5 196420665.790 5     -1589.679          32.750                                                                  
C 3  36473979.972 6 189929587.802 6        12.629          37.500                                                                  
> 2021  5 17  2 36 52.0000000  0  6                     
G 8  21129878.921 6 111038261.461 6     -1927.494          38.000    21129879.692 6  86523330.220 6     -1501.942          36.500  
C16  38156085.012 6 198688743.778 6     -1662.883          37.250    38156092.755 5 153638753.66025     -1286.224          31.750  
C27  21668357.657 7 112832818.804 7     -1165.216          43.000                                                                  
C 7  36814172.369 5 191701039.972 5       238.515          36.000    36814168.091 5 148235397.924 5       184.327          30.250  
C 6  37720826.021 5 196422255.459 5     -1588.248          33.500    37720827.855 5 151886139.33725     -1229.610          30.000  
C 3  36473977.637 6 189929575.923 6        12.072          38.500    36473974.350 5 146865590.93615         8.590          33.500  
> 2021  5 17  2 36 53.0000000  0  6                     
G 8  21130245.842 5 111040190.88115     -1927.503          35.500    21130245.819 5  86524832.98815     -1501.951          33.750  
C16  38156403.713 6 198690406.036 6     -1661.322          36.250    38156409.229 5 153640039.03225     -1284.932          32.750  
C27  21668581.492 5 112833984.675 5     -1168.625          35.750                                                                  
C 7  36814126.670 5 191700817.52215       239.120          30.500    36814121.851 4 148235212.53414       185.764          29.500  
C 6  37721131.095 5 196423844.814 5     -1587.041          31.000    37721131.883 5 151887368.33125     -1228.211          31.000  
C 3  36473975.338 6 189929564.083 6        12.228          36.000    36473972.987 5 146865581.82125         9.228          33.000  
> 2021  5 17  2 36 54.0000000  0  2                     
C16  38156722.529 5 198692065.197 5     -1657.079          34.250    38156728.029 4 153641321.94624     -1281.314          30.000  
C 6  37721435.892 4 196425414.02614     -1582.774          29.250    37721437.249 4 151888594.80024     -1222.806          28.500  
> 2021  5 17  2 36 55.0000000  0  2                     
C16  38157040.161 5 198693718.749 5     -1651.838          33.250    38157045.389 4 153642600.67324     -1276.000          29.250  
C 6  37721739.768 4 196426994.40124     -1575.596          29.000                                                                  
> 2021  5 17  2 36 56.0000000  0  3                     
G 8  21131349.482 5 111046007.17015     -1941.711          35.000                                                                  
C16  38157356.768 5 198695366.208 5     -1646.201          33.000    38157361.439 4 153643874.52824     -1272.833          30.000  
C27  21669256.031 6 112837510.85416     -1175.666          41.000                                                                  
> 2021  5 17  2 36 57.0000000  0  3                     
G 8  21131718.539 5 111047938.06615     -1943.132          34.000                                                                  
C16  38157672.743 5 198697012.203 5     -1644.431          32.000    38157677.146 4 153645146.795 4     -1271.591          27.750  
C 7  36813948.949 5 191699898.30725       222.882          32.250                                                                  
> 2021  5 17  2 36 58.0000000  0  4                     
G 8  21132091.075 6 111049882.73026     -1944.324          37.750    21132089.340 6  86532373.22116     -1515.057          37.750  
C16  38157988.797 5 198698656.942 5     -1645.668          33.500    38157992.289 4 153646424.09714     -1271.849          29.250  
C 7  36813907.320 6 191699673.589 6       224.775          36.000                                                                  
C 3  36473958.200 5 189929468.29015        22.260          35.250    36473953.916 5 146865491.99015        17.349          32.000  
> 2021  5 17  2 36 59.0000000  0  6                     
G 8  21132460.065 5 111051826.85425     -1943.137          36.000    21132460.709 5  86533888.10725     -1514.133          35.000  
G 1  21404333.692 6 112480527.63216      2989.898          40.250                                                                  
C16  38158304.971 6 198700302.489 6     -1648.738          36.000    38158308.089 5 153647696.45125     -1273.599          31.250  
C27  21669934.080 6 112841034.44116     -1176.480          40.500                                                                  
C 7  36813863.364 5 191699448.279 5       226.600          33.750    36813859.717 5 148234169.46625       175.481          30.250  
C 3  36473953.204 5 189929443.62715        21.079          32.000    36473946.697 4 146865475.780 4        14.698          29.000  
> 2021  5 17  2 37  0.0000000  0  6                     
G 8  21132829.211 6 111053767.80926     -1938.602          38.750    21132829.643 6  86535400.56526     -1510.599          37.500  
G 1  21403766.746 7 112477538.50827      2988.715          42.500                                                                  
C16  38158621.356 6 198701949.626 6     -1647.322          36.750    38158625.278 5 153648970.21625     -1273.429          31.000  
C27  21670158.204 6 112842209.40716     -1173.114          40.500                                                                  
C 7  36813819.966 6 191699218.22716       230.685          38.000                                                                  
C 3  36473949.302 6 189929422.306 6        21.229          40.250    36473945.826 5 146865458.54515        16.739          36.000  
> 2021  5 17  2 37  1.0000000  0  5                     
G 8  21133198.403 6 111055704.559 6     -1937.195          38.250    21133198.174 6  86536909.783 6     -1509.502          37.250  
G 1  21403194.865 6 112474548.248 6      2990.929          38.250    21403195.250 5  87642505.52315      2330.594          33.750  
C16  38158937.493 5 198703595.720 5     -1645.358          35.000    38158942.345 5 153650243.14725     -1272.762          31.250  
C27  21670384.076 6 112843381.12026     -1172.314          41.000                                                                  
C 7  36813774.282 5 191698985.40225       232.505          34.750    36813773.212 5 148233817.32615       180.289          31.750  
> 2021  5 17  2 37  2.0000000  0  3                     
C16  38159253.557 5 198705242.016 5     -1646.700          35.750    38159258.264 5 153651516.06225     -1272.759          32.250  
C27  21670610.148 6 112844554.43126     -1173.803          40.000                                                                  
C 7  36813730.198 6 191698753.61526       231.147          36.250    36813725.848 5 148233638.10225       178.727          32.500  
> 2021  5 17  2 37  3.0000000  0  4                     
C16  38159569.939 6 198706888.973 6     -1647.325          36.500    38159574.757 5 153652789.63225     -1274.021          33.000  
C27  21670835.858 6 112845728.50126     -1174.973          40.500                                                                  
C 7  36813685.850 5 191698522.26625       231.947          34.500    36813684.013 5 148233459.17925       179.333          32.500  
C 3  36473936.886 6 189929357.21426        20.213          37.500                                                                  
> 2021  5 17  2 37  4.0000000  0  5                     
G 1  21401487.273 6 112465570.27916      2989.050          40.750    21401489.519 6  87635524.38216      2329.130          39.250  
C16  38159886.417 6 198708536.645 6     -1647.065          36.750    38159891.417 5 153654063.70825     -1273.495          30.250  
C27  21671061.823 6 112846903.55316     -1173.273          40.750                                                                  
C 7  36813640.269 5 191698286.33515       232.871          34.250    36813639.602 5 148233279.82225       180.798          31.000  
C 3  36473931.966 6 189929335.301 6        22.152          39.000    36473931.054 5 146865405.49515        16.970          31.750  
> 2021  5 17  2 37  5.0000000  0  3                     
C16  38160202.141 5 198710181.331 5     -1643.204          35.250    38160207.223 5 153655335.34225     -1268.195          30.750  
C27  21671286.773 6 112848076.05526     -1169.498          38.750                                                                  
C 7  36813596.085 5 191698052.33125       236.150          35.750    36813593.838 5 148233083.88415       183.658          32.000  
> 2021  5 17  2 37  6.0000000  0  4                     
G 8  21135040.962 6 111065395.42416     -1933.015          40.750    21135040.519 6  86544452.00616     -1506.245          38.750  
C16  38160517.887 4 198711829.30314     -1644.031          29.500    38160522.877 4 153656611.89814     -1271.208          27.750  
C27  21671511.160 6 112849245.92526     -1169.468          39.500                                                                  
C 7  36813550.700 5 191697815.07725       237.965          35.500    36813547.655 5 148232900.39525       184.004          32.250  
> 2021  5 17  2 37  7.0000000  0  4                     
G 8  21135409.756 6 111067330.914 6     -1939.592          40.000    21135409.856 5  86545960.139 5     -1511.370          36.000  
C16  38160834.008 5 198713474.86625     -1649.282          31.250                                                                  
C27  21671736.499 6 112850418.40126     -1176.115          41.250                                                                  
C 7  36813505.292 5 191697579.64125       232.429          36.000    36813502.348 5 148232718.44725       179.100          31.500  
> 2021  5 17  2 37  8.0000000  0  5                     
G21  20541568.514 6 107946667.75016       683.301          41.500                                                                  
G 8  21135779.932 6 111069272.109 6     -1942.004          41.000    21135779.384 6  86547472.761 6     -1513.250          38.750  
C16  38161151.095 4 198715126.75214     -1651.146          29.500                                                                  
C27  21671962.553 6 112851596.01526     -1178.661          41.250                                                                  
C 7  36813461.040 5 191697349.19625       230.286          35.750    36813457.849 5 148232540.21425       177.729          30.750  
> 2021  5 17  2 37  9.0000000  0  7                     
G21  20541437.135 6 107945984.33826       683.259          41.000                                                                  
G 8  21136148.676 6 111071213.501 6     -1940.810          40.750    21136149.417 6  86548985.532 6     -1512.319          38.250  
G 1  21398643.115 6 112450629.02016      2980.683          41.250                                                                  
R16  20169252.791 5 107740159.69115        -5.821          32.500                                                                  
C16  38161468.029 5 198716777.02315     -1653.583          30.250                                                                  
C27  21672188.835 7 112852773.902 7     -1178.645          42.750                                                                  
C 7  36813416.664 6 191697118.73026       231.133          37.750    36813412.999 5 148232361.509 5       178.600          31.000  
> 2021  5 17  2 37 10.0000000  0  7                     
G21  20541310.078 7 107945303.32927       675.249          42.750                                                                  
G 8  21136518.279 6 111073155.495 6     -1946.732          40.750    21136518.382 6  86550498.786 6     -1516.934          39.000  
G 1  21398075.534 7 112447649.85927      2973.326          43.000    21398077.695 6  87621549.61316      2316.878          39.750  
R16  20169252.881 5 107740164.98925       -10.656          34.250                                                                  
C27  21672415.315 6 112853953.498 6     -1184.863          41.000                                                                  
C 7  36813372.437 5 191696888.601 5       224.764          35.500    36813367.973 5 148232183.544 5       174.550          30.750  
C 6  37726272.784 5 196450605.73825     -1588.944          32.250                                                                  
> 2021  5 17  2 37 11.0000000  0  9                     
G21  20541181.573 7 107944633.80527       667.372          42.250                                                                  
G 8  21136889.548 6 111075107.508 6     -1953.603          40.750    21136889.718 6  86552019.845 6     -1522.288          38.750  
G27  23330149.218 5 122600761.44915     -3036.013          31.750                                                                  
G 1  21397512.582 7 112444683.29727      2962.522          43.000    21397513.022 6  87619238.04426      2308.459          37.750  
R16  20169259.308 5 107740180.81025       -17.653          33.500    20169254.670 3  83797898.29413       -13.730          22.000  
C27  21672643.833 6 112855143.720 6     -1192.178          41.500                                                                  
C 7  36813330.223 5 191696668.245 5       219.140          35.250    36813325.203 5 148232013.132 5       169.630          31.000  
C 6  37726579.431 5 196452200.19125     -1597.268          31.250                                                                  
C 3  36473905.758 6 189929197.85616         0.325          37.250                                                                  
> 2021  5 17  2 37 12.0000000  0  8                     
G21  20541054.012 6 107943966.70426       666.808          39.500                                                                  
G 8  21137261.163 6 111077060.096 6     -1951.187          38.750    21137261.522 6  86553541.328 6     -1520.409          38.000  
G 1  21396949.222 6 112441720.17326      2962.520          41.750    21396950.753 6  87616929.14126      2308.457          42.000  
R16  20169260.533 5 107740197.07825       -15.384          36.000    20169259.615 4  83797911.01624       -11.965          25.000  
C27  21672872.671 6 112856335.206 6     -1190.492          40.500                                                                  
C 7  36813287.939 5 191696448.353 5       221.351          34.250    36813283.256 5 148231843.085 5       171.478          30.250  
C 6  37726885.693 5 196453798.71725     -1599.263          31.250                                                                  
C 3  36473906.985 6 189929197.017 6         1.058          37.250    36473905.502 5 146865303.71215         0.925          32.250  
> 2021  5 17  2 37 13.0000000  0  8                     
G21  20540928.449 7 107943298.741 7       668.926          42.000    20540927.995 5  84111666.06215       521.241          31.750  
G 8  21137632.602 6 111079009.959 6     -1947.962          39.000    21137632.074 6  86555060.700 6     -1517.895          39.000  
G 1  21396385.679 6 112438757.188 6      2963.572          40.750    21396386.019 6  87614620.338 6      2309.277          39.250  
R16  20169263.687 5 107740210.451 5       -11.391          32.500    20169262.853 4  83797921.87624        -8.860          27.750  
C27  21673100.987 6 112857524.724 6     -1188.257          41.000                                                                  
C 7  36813245.214 5 191696225.530 5       225.059          34.750    36813240.519 5 148231670.801 5       174.164          31.000  
C 6  37727192.575 5 196455397.86725     -1599.026          31.750                                                                  
C 3  36473907.069 6 189929196.509 6         1.155          37.250    36473906.775 5 146865303.31225         1.151          31.500  
> 2021  5 17  2 37 14.0000000  0  8                     
G21  20540800.136 6 107942628.915 6       668.621          39.750    20540799.071 4  84111137.88514       521.004          29.750  
G 8  21138002.812 6 111080956.325 6     -1946.784          39.250    21138002.498 6  86556577.354 6     -1516.976          39.000  
G 1  21395821.193 6 112435793.191 6      2962.605          41.000    21395821.450 6  87612310.735 6      2308.523          41.000  
R16  20169267.367 5 107740221.330 5       -11.122          33.500    20169266.427 4  83797930.35724        -8.651          28.000  
C27  21673328.862 6 112858711.383 6     -1187.607          41.500                                                                  
C 7  36813201.512 6 191695999.133 6       225.915          36.000    36813197.411 5 148231495.754 5       174.669          31.250  
C 6  37727500.224 5 196456996.10225     -1599.534          30.750                                                                  
C 3  36473907.408 6 189929194.242 6         1.334          37.000    36473906.135 5 146865301.56525         1.369          31.750  
> 2021  5 17  2 37 15.0000000  0  8                     
G21  20540672.939 6 107941959.835 6       670.253          40.750    20540672.695 4  84110616.453 4       522.275          29.250  
G 8  21138374.046 6 111082903.773 6     -1946.801          39.000    21138374.011 6  86558094.853 6     -1516.987          38.750  
G 1  21395257.012 6 112432829.008 6      2966.691          40.500    21395257.902 6  87610000.978 6      2311.710          41.000  
R16  20169269.206 5 107740233.428 5       -11.609          33.750    20169270.206 4  83797939.778 4        -9.030          29.000  
C27  21673557.011 6 112859899.034 6     -1186.497          41.500                                                                  
C 7  36813158.304 6 191695773.435 6       226.522          36.000    36813154.508 5 148231321.238 5       175.481          32.250  
C 6  37727806.411 5 196458593.679 5     -1594.536          32.250                                                                  
C 3  36473906.016 6 189929191.715 6         5.213          37.250    36473906.663 5 146865299.68425         3.413          31.500  
> 2021  5 17  2 37 16.0000000  0  9                     
G21  20540544.882 6 107941287.320 6       673.132          40.250    20540543.199 5  84110092.364 5       524.518          34.500  
G 8  21138743.707 6 111084849.169 6     -1944.490          39.250    21138744.164 6  86559610.744 6     -1515.186          38.500  
G 1  21394691.710 6 112429860.044 6      2971.388          39.250    21394692.521 6  87607687.514 6      2315.367          38.750  
R16  20169272.024 5 107740243.089 5        -8.445          34.500    20169271.361 4  83797947.291 4        -6.570          28.250  
C16  38163710.452 5 198728444.11125     -1663.614          35.250    38163712.029 4 153669448.16114     -1286.851          28.500  
C27  21673784.605 6 112861084.323 6     -1184.206          41.500                                                                  
C 7  36813114.509 5 191695545.268 5       229.522          35.250    36813110.820 5 148231144.800 5       177.550          31.000  
C 6  37728112.136 5 196460185.882 5     -1591.027          32.250                                                                  
C 3  36473905.025 6 189929184.502 6         9.967          37.500                                                                  
> 2021  5 17  2 37 17.0000000  0  9                     
G21  20540416.107 6 107940613.394 6       674.155          41.750    20540411.450 5  84109567.255 5       525.316          34.500  
G 8  21139113.950 6 111086794.096 6     -1945.817          40.500    21139114.333 6  86561126.274 6     -1516.221          39.000  
G 1  21394126.322 7 112426889.117 7      2970.163          43.250    21394127.963 6  87605372.487 6      2314.412          41.750  
R16  20169272.410 5 107740252.138 5       -10.245          32.750    20169273.015 4  83797954.332 4        -7.967          28.750  
C16  38164031.445 5 198730107.36425     -1662.478          32.750    38164036.194 4 153670734.30524     -1285.187          29.000  
C27  21674012.082 6 112862268.928 6     -1185.474          39.750                                                                  
C 7  36813070.458 5 191695316.330 5       228.466          34.500    36813067.034 5 148230967.789 5       176.154          31.250  
C 6  37728416.797 4 196461775.246 4     -1589.017          30.000    37728417.681 4 151916702.86514     -1227.759          28.000  
C 3  36473903.103 5 189929175.098 5         9.915          35.500    36473899.080 5 146865287.81225         7.336          33.000  
> 2021  5 17  2 37 18.0000000  0 10                     
G21  20540288.047 6 107939939.582 6       676.134          39.000    20540284.315 5  84109042.209 5       526.857          32.500  
G 8  21139484.368 6 111088740.785 6     -1947.195          40.250    21139485.211 6  86562643.177 6     -1517.293          39.500  
G 1  21393560.048 7 112423916.412 7      2974.499          42.250    21393562.889 6  87603056.096 6      2317.793          41.750  
R16  20169273.581 5 107740262.599 5        -9.427          32.250    20169274.735 4  83797962.471 4        -7.331          29.750  
C16  38164349.607 6 198731768.22726     -1657.952          36.000    38164349.701 4 153672018.57824     -1281.888          27.750  
C27  21674239.804 7 112863454.786 7     -1185.751          42.250                                                                  
C 7  36813026.626 5 191695088.691 5       227.528          36.000    36813023.356 5 148230791.763 5       175.511          30.000  
C 1  37405861.140 5 194782134.02915        -2.517          35.750    37405864.389 5 150617914.90115        -1.330          32.000  
C 6  37728721.539 5 196463362.152 5     -1584.224          32.000    37728723.190 4 151917929.98624     -1224.517          28.250  
C 3  36473901.022 6 189929164.289 6        12.592          37.750    36473899.514 5 146865279.406 5        10.277          32.750  
> 2021  5 17  2 37 19.0000000  0 10                     
G21  20540159.650 6 107939263.671 6       675.207          41.000    20540158.425 4  84108515.524 4       526.132          27.750  
G 8  21139855.195 6 111090689.824 6     -1951.224          40.000    21139855.868 6  86564161.903 6     -1520.435          39.250  
G 1  21392993.834 6 112420939.061 6      2980.630          40.000    21392996.205 6  87600736.090 6      2322.571          39.500  
R16  20169276.944 5 107740273.483 5       -13.120          33.250    20169275.918 4  83797970.943 4       -10.202          28.250  
C16  38164666.814 6 198733423.89426     -1651.953          37.250    38164669.910 4 153673298.83424     -1277.423          28.000  
C27  21674467.752 7 112864641.641 7     -1188.110          43.000                                                                  
C 7  36812983.316 6 191694862.862 6       223.165          37.000    36812980.036 5 148230617.089 5       172.779          31.000  
C 1  37405860.597 5 194782136.00625        -1.930          36.000    37405864.114 5 150617916.56725        -0.081          32.250  
C 6  37729025.614 5 196464943.567 5     -1578.150          34.000    37729024.982 4 151919152.98224     -1220.690          29.000  
C 3  36473898.452 6 189929149.867 6        16.217          38.250                                                                  
> 2021  5 17  2 37 20.0000000  0  9                     
G21  20540030.725 6 107938586.348 6       679.043          39.250    20540028.951 5  84107987.725 5       529.121          34.500  
G 8  21140227.104 6 111092643.991 6     -1957.049          39.750    21140227.584 6  86565684.623 6     -1524.975          40.000  
G 1  21392426.410 6 112417956.430 6      2985.775          40.750    21392428.521 6  87598411.975 6      2326.580          40.500  
R16  20169279.465 5 107740287.785 5       -16.207          32.750    20169278.495 4  83797982.067 4       -12.604          27.750  
C16  38164983.731 6 198735072.11626     -1642.993          36.250    38164987.316 4 153674573.26824     -1270.038          29.250  
C27  21674696.283 7 112865831.623 7     -1191.272          42.750                                                                  
C 7  36812940.821 6 191694641.264 6       219.412          36.750    36812937.555 5 148230445.738 5       169.711          31.500  
C 6  37729328.296 5 196466517.524 5     -1569.988          32.250    37729328.215 4 151920369.95924     -1213.314          29.250  
C 3  36473894.581 6 189929130.947 6        21.580          38.500    36473894.861 5 146865258.61015        16.951          33.250  
> 2021  5 17  2 37 21.0000000  0 11                     
G21  20539901.404 6 107937906.337 6       681.763          40.750    20539898.451 4  84107457.865 4       531.248          29.750  
G 7  20958519.522 6 110137760.64426      2121.290          39.500                                                                  
G 8  21140599.904 6 111094602.870 6     -1960.836          39.500    21140600.337 6  86567211.014 6     -1527.928          38.750  
G 1  21391856.850 6 112414965.408 6      2995.042          39.000    21391859.429 6  87596081.294 6      2333.801          38.000  
R16  20169283.269 5 107740304.946 5       -17.979          33.500                                                                  
C10  37344988.188 5 194465145.13915       106.413          32.250    37344987.577 4 150372791.06014        82.271          28.500  
C16  38165298.065 6 198736709.280 6     -1632.374          37.000    38165301.079 4 153675839.63824     -1262.882          28.250  
C27  21674925.242 7 112867023.801 7     -1192.619          42.000                                                                  
C 7  36812899.152 6 191694423.538 6       216.133          37.000    36812896.009 5 148230277.359 5       167.596          32.500  
C 6  37729628.679 5 196468080.700 5     -1557.325          31.750    37729628.303 4 151921578.176 4     -1204.377          29.250  
C 3  36473889.485 6 189929105.187 6        29.004          38.500    36473887.197 5 146865238.69225        22.409          33.000  
> 2021  5 17  2 37 22.0000000  0 10                     
G21  20539772.134 7 107937223.655 7       683.863          43.000    20539768.465 5  84106925.902 5       532.878          31.750  
G 7  20958114.783 6 110135640.79526      2119.281          40.500                                                                  
G 8  21140973.289 6 111096565.632 6     -1964.225          38.750    21140973.901 6  86568740.434 6     -1530.568          36.750  
G 1  21391286.339 6 112411967.475 6      3001.193          38.750    21391288.316 6  87593745.258 6      2338.598          36.500  
R16  20169287.190 5 107740324.097 5       -19.417          33.000    20169287.383 5  83798030.30315       -15.102          30.750  
C16  38165610.656 6 198738338.271 6     -1625.577          36.750    38165614.595 4 153677099.350 4     -1257.380          29.500  
C27  21675154.588 7 112868217.930 7     -1194.930          42.500                                                                  
C 7  36812858.032 6 191694208.942 6       213.302          37.500    36812854.939 5 148230111.395 5       165.198          31.250  
C 6  37729927.207 5 196469635.007 5     -1550.067          31.500    37729927.074 4 151922780.240 4     -1199.479          29.750  
C 3  36473883.661 6 189929073.830 6        33.405          38.500    36473882.068 5 146865214.50325        25.678          32.750  
> 2021  5 17  2 37 23.0000000  0 10                     
G21  20539641.983 6 107936539.822 6       683.720          40.750    20539638.972 5  84106393.032 5       532.767          31.250  
G 7  20957713.275 6 110133522.93826      2116.932          38.000                                                                  
G 8  21141347.267 5 111098532.450 5     -1968.655          35.000    21141349.189 5  86570273.023 5     -1534.020          34.250  
G 1  21390715.048 6 112408965.409 6      3003.574          41.500    21390717.392 6  87591405.990 6      2340.449          41.250  
R16  20169291.078 5 107740345.778 5       -22.976          32.750    20169291.364 4  83798047.16424       -17.870          29.750  
C16  38165922.448 5 198739961.567 5     -1621.612          36.000    38165927.876 5 153678354.512 5     -1253.331          30.750  
C27  21675384.265 7 112869414.338 7     -1197.488          42.000                                                                  
C 7  36812817.460 5 191693997.565 5       209.584          34.750    36812814.428 4 148229947.956 4       162.468          29.000  
C 6  37730224.357 5 196471179.79115     -1547.155          31.250    37730224.127 5 151923977.655 5     -1196.004          30.500  
C 3  36473877.135 6 189929039.010 6        36.038          39.500    36473875.056 5 146865187.52625        27.661          32.000  
> 2021  5 17  2 37 24.0000000  0 11                     
G21  20539511.996 6 107935855.777 6       684.396          42.000    20539509.827 5  84105860.017 5       533.294          32.250  
G 7  20957309.532 6 110131406.50526      2117.629          37.000                                                                  
G 8  21141721.856 5 111100501.482 5     -1968.785          34.500    21141724.046 4  86571807.264 4     -1534.137          29.000  
G 1  21390143.627 6 112405960.856 6      3005.195          41.750    21390146.334 6  87589064.767 6      2341.708          40.750  
R16  20169295.697 5 107740369.001 5       -23.092          35.500    20169292.725 4  83798065.22424       -17.961          28.750  
C16  38166233.329 6 198741581.462 6     -1619.227          36.000    38166238.308 5 153679607.166 5     -1252.224          30.500  
C27  21675614.212 7 112870612.305 7     -1197.925          42.500                                                                  
C 7  36812777.278 5 191693788.058 5       209.651          33.250    36812774.587 4 148229785.958 4       162.152          28.000  
C 1  37405856.871 5 194782119.82415         9.117          33.500                                                                  
C 6  37730521.127 5 196472724.86925     -1544.433          33.500    37730521.461 5 151925172.384 5     -1193.880          31.000  
C 3  36473870.102 6 189929002.148 6        37.668          37.750    36473867.999 5 146865159.030 5        29.118          32.250  
> 2021  5 17  2 37 25.0000000  0 11                     
G21  20539382.052 6 107935171.644 6       683.923          41.750    20539379.874 5  84105326.903 5       532.919          31.000  
G 7  20956907.515 6 110129289.617 6      2116.335          36.500                                                                  
G 8  21142096.954 5 111102470.604 5     -1969.178          34.250    21142098.600 4  86573341.594 4     -1534.449          29.250  
G 1  21389571.906 6 112402955.786 6      3004.603          41.500    21389575.058 6  87586723.135 6      2341.244          41.750  
R16  20169300.171 5 107740392.398 5       -23.342          33.750    20169296.385 4  83798083.427 4       -18.155          28.750  
C16  38166543.483 6 198743200.417 6     -1618.750          37.500    38166549.909 5 153680859.043 5     -1251.660          31.000  
C27  21675844.106 7 112871810.356 7     -1198.408          43.250                                                                  
C 7  36812737.114 5 191693578.305 5       209.074          34.750    36812734.576 4 148229623.722 4       162.331          28.750  
C 1  37405856.426 5 194782110.41125         9.401          34.500                                                                  
C 6  37730817.695 5 196474268.98425     -1544.679          34.500    37730818.341 5 151926366.396 5     -1193.985          30.250  
C 3  36473862.651 6 189928964.466 6        37.467          39.250    36473859.522 5 146865129.838 5        29.552          32.500  
> 2021  5 17  2 37 26.0000000  0 10                     
G21  20539252.266 6 107934488.000 6       683.816          41.250    20539249.989 4  84104794.178 4       532.836          30.000  
G 7  20956505.400 5 110127173.550 5      2116.169          36.000                                                                  
G 8  21142471.661 5 111104439.727 5     -1968.475          34.250    21142473.614 5  86574875.974 5     -1533.895          30.000  
G 1  21389000.115 6 112399950.889 6      3005.234          40.750    21389003.607 6  87584381.647 6      2341.734          40.500  
R16  20169304.948 5 107740416.141 5       -23.474          34.000    20169299.814 4  83798101.899 4       -18.257          28.250  
C16  38166854.467 5 198744819.229 5     -1618.229          35.000    38166861.218 5 153682110.822 5     -1251.786          31.000  
C27  21676074.113 6 112873008.648 6     -1197.982          41.250                                                                  
C 7  36812696.585 5 191693368.186 5       210.913          32.250    36812694.164 4 148229461.286 4       162.756          28.500  
C 6  37731114.372 5 196475812.91325     -1543.740          33.000    37731114.338 4 151927560.265 4     -1193.405          29.750  
C 3  36473855.259 6 189928926.623 6        37.947          37.000    36473852.495 5 146865100.596 5        29.464          32.750  
> 2021  5 17  2 37 27.0000000  0 10                     
G21  20539122.300 6 107933804.154 6       683.868          41.750    20539120.247 5  84104261.310 5       532.878          32.500  
G 7  20956102.801 6 110125057.068 6      2116.528          36.500    20956100.407 6  85811721.14416      1649.242          36.750  
G 8  21142846.475 5 111106408.296 5     -1968.476          34.500    21142847.391 5  86576409.889 5     -1533.901          33.250  
G 1  21388428.217 6 112396945.546 6      3005.631          41.250    21388431.895 6  87582039.816 6      2342.046          41.000  
R16  20169309.165 5 107740439.511 5       -22.831          33.750    20169304.623 4  83798120.078 4       -17.756          28.000  
C16  38167165.008 5 198746437.313 5     -1617.786          34.750    38167171.385 5 153683362.005 5     -1250.866          30.750  
C27  21676304.099 6 112874206.543 6     -1197.710          41.000                                                                  
C 7  36812656.088 5 191693157.258 5       211.088          31.750    36812653.562 4 148229298.137 4       163.643          28.500  
C 6  37731410.897 5 196477356.127 5     -1543.062          32.500    37731410.835 5 151928753.568 5     -1192.941          31.000  
C 3  36473847.782 6 189928887.942 6        38.778          36.500                                                                  
> 2021  5 17  2 37 28.0000000  0 10                     
G21  20538992.336 6 107933120.511 6       683.604          41.750    20538990.100 4  84103728.608 4       532.676          29.500  
G 7  20955699.369 6 110122940.613 6      2116.678          36.500    20955697.340 6  85810071.965 6      1649.360          37.000  
G 8  21143221.164 5 111108376.550 5     -1967.780          34.750    21143222.758 4  86577943.591 4     -1533.352          29.500  
G 1  21387856.338 6 112393940.154 6      3005.396          41.000    21387860.184 6  87579697.955 6      2341.865          41.000  
R16  20169313.833 5 107740462.957 5       -23.363          33.000    20169309.363 4  83798138.317 4       -18.169          28.000  
C16  38167475.937 5 198748054.960 5     -1617.407          34.750    38167482.279 5 153684612.811 5     -1249.746          31.000  
C27  21676534.060 6 112875404.405 6     -1197.955          41.000                                                                  
C 7  36812615.287 5 191692945.811 5       211.334          31.750    36812613.192 4 148229134.651 4       163.429          28.500  
C 6  37731707.392 5 196478898.909 5     -1542.761          32.000    37731707.191 5 151929946.547 5     -1192.578          31.000  
C 3  36473840.207 6 189928848.805 6        39.324          36.500                                                                  
> 2021  5 17  2 37 29.0000000  0 10                     
G21  20538862.232 6 107932436.804 6       683.135          42.000    20538859.853 5  84103195.858 5       532.315          32.750  
G 7  20955296.601 6 110120823.933 6      2116.141          36.750    20955293.883 6  85808422.604 6      1648.941          36.500  
G 8  21143595.773 5 111110344.423 5     -1968.265          34.500    21143597.092 5  86579477.015 5     -1533.724          34.500  
G 1  21387284.345 6 112390934.419 6      3005.195          41.000    21387288.239 6  87577355.828 6      2341.709          41.250  
R16  20169318.088 5 107740486.192 5       -23.694          33.000    20169313.299 4  83798156.395 4       -18.426          27.250  
C16  38167786.455 5 198749671.977 5     -1616.814          34.750    38167792.876 5 153685863.244 5     -1250.447          30.750  
C27  21676764.020 6 112876601.979 6     -1197.931          41.000                                                                  
C 7  36812574.571 5 191692733.561 5       211.754          31.750    36812572.405 4 148228970.534 4       164.489          29.500  
C 6  37732003.868 5 196480441.020 5     -1541.837          32.250    37732003.212 5 151931138.983 5     -1192.537          30.750  
C 3  36473832.493 6 189928808.969 6        39.795          36.750    36473830.289 5 146865007.643 5        30.759          32.750  
> 2021  5 17  2 37 30.0000000  0 10                     
G21  20538732.255 7 107931753.435 7       683.360          42.000    20538729.699 5  84102663.376 5       532.490          30.250  
G 7  20954893.647 6 110118707.392 6      2116.464          36.250    20954890.655 6  85806773.357 6      1649.192          36.500  
G 8  21143970.099 5 111112312.214 5     -1967.978          34.750    21143971.084 4  86581010.359 4     -1533.498          28.750  
G 1  21386712.393 6 112387928.747 6      3006.147          41.250    21386716.387 6  87575013.749 6      2342.452          41.000  
R16  20169322.274 5 107740509.570 5       -23.418          32.750    20169317.684 4  83798174.577 4       -18.214          28.000  
C16  38168096.610 5 198751288.787 5     -1616.475          34.750    38168103.649 5 153687113.411 5     -1250.040          31.750  
C27  21676993.937 6 112877799.672 6     -1197.340          41.000                                                                  
C 7  36812533.784 5 191692520.931 5       212.773          31.750    36812531.589 4 148228806.162 4       164.548          29.000  
C 6  37732300.037 5 196481982.930 5     -1541.639          32.500    37732298.885 5 151932331.314 5     -1192.258          30.500  
C 3  36473824.625 6 189928768.865 6        40.858          36.000                                                                  
> 2021  5 17  2 37 31.0000000  0 10                     
G21  20538602.405 7 107931070.281 7       683.112          42.250    20538600.664 5  84102131.051 5       532.297          33.500  
G 7  20954490.613 6 110116590.849 6      2116.606          36.750    20954489.153 5  85805124.102 5      1649.303          35.750  
G 8  21144344.581 5 111114279.776 5     -1967.668          35.000    21144344.617 5  86582543.539 5     -1533.250          30.250  
G 1  21386140.417 6 112384923.068 6      3005.685          41.250    21386144.450 6  87572671.663 6      2342.092          41.000  
R16  20169326.954 5 107740533.038 5       -23.346          32.750    20169322.005 4  83798192.820 4       -18.160          28.000  
C16  38168407.019 5 198752905.153 5     -1616.053          34.500    38168414.099 5 153688363.354 5     -1250.189          31.000  
C27  21677223.891 6 112878997.392 6     -1197.847          41.000                                                                  
C 7  36812492.806 5 191692307.813 5       213.401          31.750    36812490.674 4 148228641.359 4       165.182          29.250  
C 6  37732596.193 5 196483524.479 5     -1541.697          31.750    37732595.047 5 151933523.333 5     -1192.203          30.250  
C 3  36473816.968 6 189928728.386 6        40.430          37.000    36473815.691 5 146864943.32115        31.388          32.250  
> 2021  5 17  2 37 32.0000000  0 10                     
G21  20538472.693 6 107930387.686 6       681.932          42.000    20538471.624 5  84101599.163 5       531.380          35.500  
G 7  20954087.850 6 110114474.710 6      2115.853          36.750    20954085.568 6  85803475.158 6      1648.716          36.250  
G 8  21144719.100 5 111116247.528 5     -1968.483          35.000    21144719.362 5  86584076.827 5     -1533.891          33.250  
G 1  21385568.523 6 112381917.668 6      3005.077          41.000    21385572.688 6  87570329.794 6      2341.619          41.000  
R16  20169331.246 5 107740556.865 5       -23.761          33.000    20169326.541 4  83798211.346 4       -18.483          28.000  
C16  38168717.508 5 198754521.523 5     -1616.114          34.750    38168724.752 5 153689613.214 5     -1250.025          31.500  
C27  21677453.887 6 112880195.402 6     -1198.373          40.750                                                                  
C 7  36812451.788 5 191692094.568 5       213.413          31.750    36812450.002 4 148228476.414 4       164.937          28.500  
C 6  37732891.946 5 196485065.931 5     -1542.022          31.500    37732890.815 5 151934715.247 5     -1191.726          31.250  
C 3  36473809.107 6 189928687.769 6        40.348          37.000    36473808.246 5 146864911.912 5        31.396          33.250  
> 2021  5 17  2 37 33.0000000  0 10                     
G21  20538343.028 6 107929706.207 6       681.034          42.000    20538341.617 4  84101068.148 4       530.680          28.500  
G 7  20953685.177 6 110112359.503 6      2115.151          36.500    20953683.862 6  85801826.947 6      1648.170          36.500  
G 8  21145093.673 5 111118215.898 5     -1968.525          34.750    21145093.962 5  86585610.651 5     -1533.914          32.500  
G 1  21384996.634 6 112378913.131 6      3004.133          40.750    21385001.017 6  87567988.594 6      2340.883          41.250  
R16  20169336.198 5 107740581.724 5       -25.080          32.750    20169331.015 4  83798230.673 4       -19.510          28.500  
C16  38169027.927 5 198756138.449 5     -1617.195          35.250    38169035.087 5 153690863.486 5     -1250.506          31.250  
C27  21677684.111 6 112881394.329 6     -1199.458          41.000                                                                  
C 7  36812410.811 5 191691881.713 5       212.683          31.750    36812409.106 4 148228311.862 4       164.339          28.750  
C 6  37733188.148 5 196486607.935 5     -1542.577          31.250    37733187.167 5 151935907.634 5     -1192.424          31.000  
C 3  36473801.339 6 189928647.641 6        40.353          36.750                                                                  
> 2021  5 17  2 37 34.0000000  0 10                     
G21  20538213.580 6 107929025.378 6       680.342          42.000    20538212.363 5  84100537.630 5       530.138          33.750  
G 7  20953282.714 6 110110244.787 6      2114.460          36.750    20953281.242 6  85800179.119 6      1647.633          37.250  
G 8  21145468.254 5 111120184.554 5     -1968.778          34.750    21145469.406 5  86587144.690 5     -1534.107          33.750  
G 1  21384424.947 6 112375908.972 6      3003.988          40.750    21384429.390 6  87565647.692 6      2340.770          40.750  
R16  20169340.513 5 107740607.052 5       -25.098          32.750    20169336.174 4  83798250.367 4       -19.525          28.500  
C16  38169338.513 5 198757755.379 5     -1617.147          35.000    38169345.552 5 153692113.818 5     -1250.770          31.250  
C27  21677914.338 6 112882593.649 6     -1199.377          41.000                                                                  
C 7  36812369.883 5 191691668.803 5       212.451          31.750    36812368.244 4 148228147.221 4       164.675          28.750  
C 6  37733484.385 5 196488149.959 5     -1542.076          32.000    37733483.662 5 151937100.044 5     -1192.136          31.000  
C 3  36473793.726 6 189928607.553 6        40.196          37.000                                                                  
> 2021  5 17  2 37 35.0000000  0 10                     
G21  20538084.324 7 107928345.427 7       679.570          42.000    20538082.655 5  84100007.790 5       529.537          33.250  
G 7  20952880.558 6 110108130.699 6      2113.867          36.750    20952879.013 5  85798531.784 5      1647.171          36.000  
G 8  21145842.894 5 111122153.652 5     -1969.166          35.000    21145844.833 5  86588679.029 5     -1534.415          31.750  
G 1  21383853.506 6 112372905.419 6      3003.210          40.750    21383857.870 6  87563307.261 6      2340.163          40.750  
R16  20169345.064 5 107740633.182 5       -26.238          33.000    20169341.168 4  83798270.685 4       -20.410          27.750  
C16  38169649.094 5 198759372.594 5     -1617.287          35.250    38169656.526 5 153693364.394 5     -1251.009          31.250  
C27  21678144.735 6 112883793.634 6     -1200.263          41.000                                                                  
C 7  36812328.855 5 191691456.014 5       212.876          31.500    36812327.526 4 148227982.622 4       164.483          28.750  
C 6  37733780.540 5 196489692.320 5     -1543.617          31.250    37733779.908 5 151938292.665 5     -1193.312          31.000  
C 3  36473786.007 6 189928567.681 6        39.769          37.000    36473783.527 5 146864812.053 5        30.804          33.000  
> 2021  5 17  2 37 36.0000000  0 10                     
G21  20537955.103 7 107927666.548 7       678.366          42.250    20537953.599 5  84099478.798 5       528.598          32.750  
G 7  20952478.419 6 110106017.547 6      2112.429          37.000    20952476.883 6  85796885.172 6      1646.050          36.500  
G 8  21146217.698 5 111124123.421 5     -1970.231          35.000    21146220.040 5  86590213.918 5     -1535.245          30.500  
G 1  21383282.070 6 112369902.676 6      3002.525          40.750    21383286.462 6  87560967.457 6      2339.629          40.750  
R16  20169350.297 5 107740660.144 5       -27.100          32.750    20169346.451 4  83798291.658 4       -21.081          28.750  
C16  38169959.811 5 198760990.300 5     -1617.767          35.250    38169967.025 5 153694615.254 5     -1251.196          31.000  
C27  21678375.308 6 112884994.473 6     -1201.348          41.000                                                                  
C 7  36812288.021 5 191691243.577 5       212.974          31.500    36812286.840 4 148227818.419 4       164.201          29.000  
C 6  37734076.900 5 196491235.062 5     -1542.916          31.750    37734076.397 5 151939485.597 5     -1192.880          31.500  
C 3  36473778.406 6 189928528.251 6        39.039          37.000                                                                  
> 2021  5 17  2 37 37.0000000  0 10                     
G21  20537826.220 7 107926988.831 7       677.072          42.000    20537824.035 4  84098950.695 4       527.585          28.750  
G 7  20952076.667 6 110103905.364 6      2111.706          37.000    20952075.365 6  85795239.329 6      1645.490          36.750  
G 8  21146592.707 5 111126093.926 5     -1971.141          35.500    21146595.697 5  86591749.373 5     -1535.954          31.500  
G 1  21382710.824 6 112366900.886 6      3000.991          40.750    21382715.277 6  87558628.403 6      2338.434          40.750  
R16  20169355.407 5 107740688.143 5       -28.337          32.500    20169352.167 4  83798313.434 4       -22.042          29.000  
C16  38170270.737 5 198762608.623 5     -1618.800          35.000    38170277.646 5 153695866.634 5     -1251.732          31.500  
C27  21678606.018 6 112886196.227 6     -1202.163          41.250                                                                  
C 7  36812247.161 5 191691031.618 5       211.907          32.000    36812246.365 4 148227659.98714       163.581          28.500  
C 6  37734373.333 5 196492778.377 5     -1543.234          32.000    37734372.658 5 151940679.034 5     -1193.719          30.750  
C 3  36473770.861 6 189928489.344 6        38.474          37.000    36473770.031 5 146864762.48115        29.693          32.750  
> 2021  5 17  2 37 38.0000000  0 10                     
G21  20537697.448 6 107926312.045 6       676.486          41.750    20537695.264 5  84098423.317 5       527.126          31.250  
G 7  20951674.961 6 110101793.886 6      2111.628          37.000    20951673.389 6  85793594.022 6      1645.426          37.000  
G 8  21146967.681 5 111128064.945 5     -1971.415          34.750    21146971.190 4  86593285.216 4     -1536.171          26.750  
G 1  21382139.706 6 112363899.689 6      3001.239          40.750    21382144.059 6  87556289.805 6      2338.627          40.250  
R16  20169360.534 5 107740716.935 5       -28.862          32.250    20169357.578 4  83798335.819 4       -22.452          28.250  
C16  38170581.611 5 198764227.179 5     -1618.293          35.000    38170588.248 5 153697118.235 5     -1251.475          31.250  
C27  21678836.916 6 112887398.685 6     -1202.420          41.250                                                                  
C 7  36812206.500 5 191690819.838 5       212.087          32.500    36812205.666 4 148227496.21224       163.878          29.000  
C 6  37734669.696 5 196494322.086 5     -1543.798          31.500    37734669.013 5 151941872.703 5     -1193.464          31.000  
C 3  36473763.483 6 189928450.733 6        38.325          36.750                                                                  
> 2021  5 17  2 37 39.0000000  0 10                     
G21  20537568.807 7 107925636.050 7       675.746          43.250    20537566.758 5  84097896.569 5       526.554          31.250  
G 7  20951273.310 6 110099682.899 6      2110.796          38.000    20951271.788 6  85791949.101 6      1644.780          37.750  
G 8  21147342.666 5 111130035.957 5     -1971.210          35.000    21147346.433 4  86594821.091 4     -1536.004          29.750  
G 1  21381568.794 7 112360899.265 7      2999.884          43.750    21381573.035 6  87553951.819 6      2337.573          41.750  
R16  20169365.914 5 107740746.128 5       -28.842          32.000    20169363.265 4  83798358.522 4       -22.436          29.250  
C16  38170892.546 6 198765846.322 6     -1619.376          36.250    38170899.038 5 153698370.199 5     -1252.691          30.500  
C27  21679067.885 7 112888601.471 7     -1202.725          42.750                                                                  
C 7  36812165.845 5 191690607.837 5       212.431          33.250    36812165.112 4 148227331.754 4       164.591          28.250  
C 6  37734966.173 5 196495866.179 5     -1545.037          33.750    37734965.681 5 151943066.777 5     -1194.496          30.500  
C 3  36473756.092 6 189928412.339 6        37.956          39.500    36473755.961 5 146864699.94515        29.561          32.250  
> 2021  5 17  2 37 40.0000000  0 10                     
G21  20537440.250 6 107924961.260 6       673.439          39.750    20537438.090 5  84097370.772 5       524.758          32.500  
G 7  20950871.240 6 110097571.054 6      2112.217          36.250    20950869.793 5  85790303.508 5      1645.886          35.250  
G 8  21147717.251 4 111132003.36714     -1966.198          30.000                                                                  
G 1  21380998.454 7 112357901.329 7      2995.924          44.000    21381002.231 6  87551615.778 6      2334.492          41.750  
R16  20169370.980 5 107740774.406 5       -27.534          33.750    20169368.986 4  83798380.510 4       -21.420          29.500  
C16  38171204.063 6 198767468.125 6     -1624.974          38.000    38171210.458 5 153699624.344 5     -1256.888          30.750  
C27  21679298.713 7 112889803.291 7     -1200.865          43.000                                                                  
C 7  36812124.754 5 191690393.691 5       216.219          34.250                                                                  
C 6  37735263.287 5 196497413.220 5     -1550.382          34.250    37735262.529 5 151944262.934 5     -1198.663          31.250  
C 3  36473749.057 6 189928375.502 6        34.595          39.750    36473745.829 5 146864671.395 5        27.934          32.250  
> 2021  5 17  2 37 41.0000000  0  8                     
G21  20537312.212 6 107924288.571 6       671.802          41.000    20537309.605 4  84096846.589 4       523.480          28.000  
G 7  20950468.839 4 110095458.012 4      2115.450          29.250    20950467.150 4  85788656.971 4      1648.402          26.500  
G 1  21380429.092 7 112354908.622 7      2989.905          43.250    21380432.597 7  87549283.814 7      2329.804          43.500  
R16  20169375.642 4 107740800.42314       -24.836          27.250    20169374.276 3  83798401.13413       -19.319          22.750  
C16  38171516.621 5 198769096.076 5     -1630.655          35.500    38171523.423 4 153700883.120 4     -1260.434          28.000  
C27  21679529.198 6 112891003.087 6     -1198.578          38.750                                                                  
C 1  37405823.511 5 194781942.31825         7.192          35.750                                                                  
C 6  37735561.531 5 196498966.352 5     -1556.082          30.500    37735560.847 5 151945464.027 5     -1202.958          30.750  
> 2021  5 17  2 37 42.0000000  0  4                     
G21  20537184.705 6 107923619.974 6       664.065          41.250    20537182.513 5  84096325.611 5       517.456          30.500  
G 1  21379861.022 7 112351922.906 7      2980.960          43.250    21379864.370 7  87546957.304 7      2322.836          43.000  
C16  38171830.755 6 198770731.672 6     -1640.725          36.250    38171837.492 5 153702147.895 5     -1269.405          30.500  
C 6  37735861.183 5 196500527.417 5     -1567.126          31.500    37735860.479 4 151946671.097 4     -1212.039          29.250  
> 2021  5 17  2 37 43.0000000  0  5                     
G 8  21148837.842 6 111137909.83816     -1962.815          39.000    21148839.615 6  86600969.53616     -1529.467          38.500  
G 1  21379294.479 6 112348945.247 6      2974.258          37.250    21379297.606 5  87544637.064 5      2317.615          36.000  
C16  38172146.572 6 198772375.622 6     -1646.019          37.750    38172153.049 5 153703419.004 5     -1272.149          30.750  
C 7  36811999.740 6 191689740.24816       220.539          37.000    36811997.480 5 148226659.31215       170.006          31.500  
C 6  37736162.444 5 196502096.806 5     -1571.720          33.250    37736161.711 4 151947884.680 4     -1215.153          28.750  
> 2021  5 17  2 37 44.0000000  0  5                     
G 8  21149211.740 6 111139869.378 6     -1956.115          39.750    21149210.498 6  86602496.485 6     -1524.246          38.250  
G16  24358134.700 4 128002841.33714     -1718.858          27.000                                                                  
R16  20169392.649 5 107740874.28315       -23.937          34.750                                                                  
C27  21680222.459 7 112894605.08317     -1196.891          44.000                                                                  
C 7  36811955.778 6 191689516.91226       226.571          37.500    36811953.340 5 148226486.55925       175.701          31.250  
> 2021  5 17  2 37 45.0000000  0  7                     
G21  20536804.069 6 107921629.24816       663.956          41.500    20536806.139 4  84094778.21514       517.369          26.750  
G 8  21149583.102 6 111141824.578 6     -1953.750          39.750    21149582.057 6  86604020.015 6     -1522.403          36.500  
R16  20169394.102 5 107740897.40225       -21.341          33.500    20169395.141 4  83798484.02614       -16.599          27.500  
C27  21680451.269 7 112895801.19827     -1194.852          43.000                                                                  
C 7  36811912.201 6 191689288.578 6       229.599          37.250    36811907.105 5 148226310.42025       177.555          31.750  
C 1  37405820.561 6 194781926.83816         2.532          37.000                                                                  
C 3  36473724.692 6 189928256.506 6        21.415          38.750    36473724.192 5 146864560.52125        16.923          32.500  
> 2021  5 17  2 37 46.0000000  0  7                     
G21  20536677.854 7 107920964.99027       666.328          42.250    20536676.886 4  84094260.69624       519.217          28.500  
G 8  21149955.235 6 111143776.822 6     -1949.890          38.750    21149953.874 6  86605541.228 6     -1519.395          36.000  
R16  20169397.663 5 107740918.76725       -16.092          30.000    20169398.616 4  83798500.66724       -12.516          25.250  
C27  21680680.453 7 112896995.491 7     -1192.109          42.500                                                                  
C 7  36811868.923 5 191689057.716 5       235.002          35.500    36811864.538 4 148226131.926 4       181.360          29.000  
C 1  37405821.498 5 194781923.881 5         4.082          35.000                                                                  
C 3  36473719.985 6 189928235.105 6        22.114          38.250                                                                  
> 2021  5 17  2 37 47.0000000  0  9                     
G21  20536550.835 6 107920299.77526       667.303          38.000    20536554.394 4  84093742.33824       519.976          29.250  
G 8  21150324.903 6 111145724.643 6     -1946.840          38.750    21150325.318 6  86607059.041 6     -1517.018          37.250  
G 1  21377029.527 6 112337044.17926      2972.406          40.750    21377030.499 6  87535364.58216      2316.161          38.750  
C16  38173410.906 5 198778969.95625     -1650.689          34.500    38173419.269 4 153708521.15314     -1277.578          29.250  
C27  21680909.901 6 112898186.703 6     -1191.143          36.750                                                                  
C30  22443200.807 6 116867632.35916      1612.849          40.000                                                                  
C 7  36811822.501 5 191688822.573 5       236.932          32.750    36811818.215 4 148225950.163 4       181.925          28.750  
C 6  37737369.712 5 196508376.38615     -1576.681          32.250                                                                  
C 3  36473718.172 6 189928213.292 6        20.713          37.250    36473714.812 5 146864534.21115        15.565          33.500  
> 2021  5 17  2 37 48.0000000  0  6                     
G 4  23804519.641 5 125093611.47015     -2896.126          34.000                                                                  
G 8  21150696.515 5 111147659.76915     -1946.781          35.250    21150697.248 5  86608576.26115     -1516.982          32.750  
C16  38173732.312 5 198780622.90325     -1655.069          33.750                                                                  
C27  21681139.275 6 112899378.201 6     -1194.040          36.000                                                                  
C30  22442891.538 5 116866021.20225      1608.681          33.750                                                                  
C 7  36811776.782 4 191688577.14014       235.896          28.750                                                                  
> 2021  5 17  2 37 49.0000000  0  2                     
G 4  23805072.228 5 125096508.712 5     -2898.559          33.250                                                                  
C27  21681368.333 6 112900569.472 6     -1191.140          37.000                                                                  
> 2021  5 17  2 37 51.0000000  0  2                     
G 8  21151804.274 6 111153484.90616     -1943.503          38.250                                                                  
C 7  36811640.291 5 191687858.33815       240.924          32.500    36811638.246 4 148225212.51514       185.602          29.750  
> 2021  5 17  2 37 52.0000000  0  3                     
G21  20535923.420 6 107917005.77716       657.289          36.750    20535929.601 5  84091188.74315       512.174          32.250  
G 8  21152178.871 5 111155427.60025     -1940.560          35.500                                                                  
C 7  36811593.605 5 191687617.384 5       242.980          32.000    36811588.942 4 148225026.22824       187.571          29.000  
> 2021  5 17  2 37 53.0000000  0  3                     
G 8  21152545.800 6 111157369.84926     -1941.870          39.500    21152547.548 6  86616141.34916     -1513.145          39.000  
G 1  21373644.774 6 112319268.72916      2960.409          37.250                                                                  
C 7  36811546.972 5 191687375.756 5       241.262          35.750    36811543.550 5 148224838.29715       187.104          31.000  
> 2021  5 17  2 37 54.0000000  0  6                     
G 8  21152914.730 6 111159312.09126     -1941.964          39.250    21152916.187 6  86617654.78326     -1513.219          38.750  
G 1  21373080.804 7 112316309.34127      2959.396          42.250                                                                  
R16  20169424.641 5 107741096.36315       -17.032          33.250                                                                  
C 7  36811501.069 5 191687133.848 5       241.868          35.000    36811498.495 5 148224651.28225       187.458          31.750  
C 1  37405819.512 5 194781911.13915        -0.424          36.000    37405819.408 5 150617731.86815        -0.994          31.750  
C 3  36473696.120 6 189928112.84326        12.708          37.250    36473694.740 5 146864454.48125         8.976          33.250  
> 2021  5 17  2 37 55.0000000  0  6                     
G 8  21153285.063 6 111161254.858 6     -1943.331          41.000    21153287.061 6  86619168.628 6     -1514.284          36.750  
G 1  21372516.144 6 112313350.703 6      2958.267          40.250    21372518.731 6  87516892.62616      2305.143          40.000  
C16  38175963.134 5 198792256.87915     -1663.945          36.000                                                                  
C27  21682739.888 6 112907713.97716     -1190.887          40.000                                                                  
C 7  36811454.339 6 191686892.168 6       241.685          36.250    36811452.096 5 148224464.38925       186.796          31.500  
C 3  36473694.711 6 189928100.227 6        12.526          37.500                                                                  
> 2021  5 17  2 37 56.0000000  0  5                     
G 4  23808944.113 6 125116834.60516     -2905.227          37.500                                                                  
G 8  21153654.732 6 111163198.120 6     -1942.611          40.250    21153656.402 6  86620682.852 6     -1513.723          39.000  
C16  38176280.596 5 198793921.08225     -1663.127          33.500    38176289.439 4 153720078.94224     -1285.240          29.750  
C27  21682969.130 7 112908905.83327     -1190.018          42.250                                                                  
C 7  36811407.883 6 191686650.623 6       242.871          37.750    36811406.270 5 148224277.60625       187.763          32.250  
> 2021  5 17  2 37 57.0000000  0  5                     
G21  20535298.043 6 107913715.54416       660.972          38.250                                                                  
G 8  21154024.130 6 111165138.607 6     -1935.270          36.750    21154025.046 5  86622194.922 5     -1508.003          34.250  
C16  38176602.506 5 198795581.457 5     -1655.819          34.500    38176607.701 4 153721362.84124     -1280.486          30.000  
C27  21683196.744 6 112910095.01926     -1184.474          41.250                                                                  
C 7  36811360.995 5 191686405.999 5       250.821          33.750    36811359.984 5 148224088.53325       192.491          31.000  
> 2021  5 17  2 37 58.0000000  0  5                     
G 4  23810045.777 5 125122630.34625     -2893.203          35.000                                                                  
G 8  21154391.498 6 111167069.577 6     -1931.391          37.750    21154391.738 5  86623699.565 5     -1504.981          35.250  
C16  38176920.175 5 198797231.468 5     -1649.613          34.500                                                                  
C27  21683423.137 6 112911275.083 6     -1182.932          40.250                                                                  
C 7  36811312.233 5 191686151.731 5       254.862          32.750    36811308.821 4 148223891.814 4       197.222          29.750  
> 2021  5 17  2 37 59.0000000  0  5                     
G 4  23810593.508 5 125125512.34715     -2896.702          30.250                                                                  
G 8  21154760.047 6 111169007.655 6     -1938.638          39.000    21154761.177 6  86625209.756 6     -1510.627          38.500  
C16  38177236.852 5 198798891.18215     -1655.678          34.500                                                                  
C27  21683650.952 6 112912461.752 6     -1187.860          41.000                                                                  
C 7  36811264.450 6 191685904.097 6       246.300          36.500    36811261.368 5 148223700.316 5       190.895          32.000  
> 2021  5 17  2 38  0.0000000  0  2                     
G21  20534924.885 6 107911765.60616       649.916          38.500                                                                  
C16  38177556.351 5 198800547.10615     -1662.589          32.000                                                                  
> 2021  5 17  2 38  1.0000000  0  2                     
C16  38177875.046 6 198802215.44416     -1659.998          36.250                                                                  
C27  21684110.767 6 112914855.02016     -1204.147          39.750                                                                  
> 2021  5 17  2 38  2.0000000  0  1                     
C27  21684341.350 5 112916056.80125     -1201.164          35.750                                                                  
> 2021  5 17  2 38  3.0000000  0  2                     
G21  20534548.790 6 107909800.12016       654.304          40.750                                                                  
C27  21684571.777 6 112917257.08826     -1201.694          40.750                                                                  
> 2021  5 17  2 38  4.0000000  0  2                     
G 8  21156618.282 5 111178777.87215     -1959.669          34.750    21156620.352 5  86632846.70815     -1527.015          34.500  
C27  21684803.232 5 112918459.06415     -1201.253          33.000                                                                  
> 2021  5 17  2 38  5.0000000  0  3                     
G 8  21156990.484 5 111180739.24915     -1964.024          35.500    21156992.170 5  86634375.05215     -1530.409          33.250  
R 9  20927056.752 5 111748932.62115      2652.888          35.750                                                                  
C27  21685034.360 6 112919663.54126     -1207.012          38.750                                                                  
> 2021  5 17  2 38  6.0000000  0  4                     
G21  20534177.376 6 107907836.71816       655.165          37.750                                                                  
G 8  21157364.282 5 111182692.40715     -1965.763          33.000    21157362.749 4  86635907.86914     -1531.763          29.500  
R 9  20926562.348 5 111746282.31825      2648.541          35.750                                                                  
C27  21685266.435 6 112920871.30126     -1210.296          36.750                                                                  
> 2021  5 17  2 38  7.0000000  0  5                     
G21  20534050.760 6 107907181.174 6       652.542          37.250    20534050.127 4  84083520.830 4       508.474          26.250  
G 7  20940007.462 6 110040485.10016      2100.531          39.500                                                                  
G 8  21157741.651 6 111184662.41326     -1971.155          37.500                                                                  
R 9  20926066.132 6 111743636.69326      2644.655          36.000                                                                  
C27  21685498.567 5 112922081.48315     -1210.462          35.250                                                                  
> 2021  5 17  2 38  8.0000000  0  5                     
G 7  20939605.805 6 110038384.303 6      2099.625          39.500    20939604.929 6  85744181.51316      1636.071          37.500  
G 8  21158115.895 6 111186633.796 6     -1972.886          40.500    21158114.878 6  86638942.39416     -1537.314          40.000  
R 9  20925571.326 6 111740992.52426      2644.891          36.750                                                                  
C27  21685731.332 6 112923292.58926     -1210.903          40.250                                                                  
C 7  36810867.798 6 191683847.72316       220.158          36.000                                                                  
> 2021  5 17  2 38  9.0000000  0  6                     
G 7  20939205.073 6 110036284.932 6      2098.243          40.250    20939204.933 6  85742545.722 6      1634.994          40.000  
G 8  21158491.777 6 111188606.691 6     -1973.639          38.750    21158490.591 6  86640479.742 6     -1537.901          37.500  
G 1  21364604.208 6 112271750.73316      2985.153          37.500                                                                  
R 9  20925074.961 6 111738349.680 6      2641.539          37.000    20925075.532 5  86907604.76725      2054.531          32.500  
C27  21685964.074 6 112924504.91626     -1212.401          41.250                                                                  
C 7  36810827.063 5 191683629.37925       217.142          35.250                                                                  
> 2021  5 17  2 38 10.0000000  0  6                     
G 7  20938806.828 6 110034186.725 6      2097.691          39.000    20938805.587 6  85740910.754 6      1634.565          39.500  
G 8  21158867.654 6 111190581.623 6     -1976.066          37.750    21158867.174 6  86642018.651 6     -1539.792          36.750  
G 1  21364039.764 5 112268764.84425      2984.925          32.500                                                                  
R 9  20924580.388 5 111735709.202 5      2640.913          34.750    20924582.134 5  86905551.06125      2054.043          31.000  
C27  21686197.041 6 112925718.583 6     -1214.122          42.000                                                                  
C 7  36810785.711 5 191683411.877 5       216.400          35.250    36810780.834 5 148221772.37425       166.855          31.500  
> 2021  5 17  2 38 11.0000000  0  6                     
G 7  20938408.373 6 110032091.329 6      2092.855          38.500    20938406.806 6  85739277.978 6      1630.797          38.750  
G 8  21159243.471 6 111192559.721 6     -1981.232          39.000    21159243.686 6  86643559.998 6     -1543.817          38.250  
R 9  20924085.823 5 111733072.411 5      2634.233          35.500    20924087.959 5  86903500.221 5      2048.848          30.750  
C10  37343896.532 5 194459473.46215       103.764          33.750                                                                  
C27  21686430.603 6 112926935.128 6     -1219.686          41.500                                                                  
C 7  36810743.855 5 191683197.732 5       211.653          34.750    36810740.822 5 148221606.80325       163.154          32.250  
> 2021  5 17  2 38 12.0000000  0  7                     
G 7  20938010.818 6 110030001.027 6      2087.380          37.750    20938008.780 6  85737649.181 6      1626.530          37.250  
G 8  21159621.211 6 111194543.545 6     -1986.669          41.250    21159621.824 6  86645105.825 6     -1548.054          40.750  
G 1  21362901.857 5 112262800.61025      2979.393          34.000                                                                  
R 9  20923594.504 6 111730441.430 6      2628.144          39.250    20923596.715 5  86901453.908 5      2044.112          33.000  
C10  37343875.209 5 194459371.68325        98.711          32.750    37343875.205 5 150368306.24915        76.647          33.500  
C27  21686665.309 6 112928156.896 6     -1224.632          41.000                                                                  
C 7  36810703.585 5 191682988.785 5       206.352          33.750    36810701.780 5 148221445.20225       159.415          30.500  
> 2021  5 17  2 38 13.0000000  0  7                     
G 7  20937614.250 6 110027914.598 6      2085.663          38.000    20937612.186 6  85736023.412 6      1625.193          37.750  
G 8  21159999.707 6 111196531.064 6     -1988.357          40.750    21160000.152 6  86646654.550 6     -1549.369          41.000  
G 1  21362335.592 5 112259821.529 5      2979.058          33.750                                                                  
R 9  20923103.189 6 111727814.082 6      2626.031          38.250    20923105.554 5  86899410.422 5      2042.468          32.500  
C10  37343855.098 5 194459273.27525        97.627          32.500    37343855.148 5 150368230.14225        75.525          33.750  
C27  21686900.808 6 112929382.489 6     -1226.359          40.750                                                                  
C 7  36810663.520 5 191682783.179 5       205.143          33.750    36810660.049 5 148221286.21725       158.466          31.000  
> 2021  5 17  2 38 14.0000000  0  8                     
G21  20533182.381 5 107902595.62625       644.594          33.500                                                                  
G 7  20937217.318 6 110025829.738 6      2085.019          38.250    20937215.301 6  85734398.846 6      1624.691          38.000  
G 8  21160378.088 6 111198519.880 6     -1988.230          41.000    21160378.802 6  86648204.277 6     -1549.269          40.000  
G 1  21361769.436 5 112256843.998 5      2978.500          33.500                                                                  
R 9  20922611.766 6 111725187.979 6      2626.281          38.000    20922613.825 5  86897367.894 5      2042.662          32.750  
C10  37343835.566 5 194459175.80925        97.800          33.000    37343836.049 5 150368154.75025        75.767          33.500  
C27  21687136.465 6 112930609.554 6     -1226.641          41.750                                                                  
C 7  36810624.754 5 191682578.610 5       205.257          34.750    36810621.054 5 148221128.01725       158.802          31.750  
> 2021  5 17  2 38 15.0000000  0  8                     
G21  20533056.558 5 107901950.11325       646.965          33.750                                                                  
G 7  20936820.467 6 110023742.984 6      2088.309          38.000    20936817.224 6  85732772.808 6      1627.256          37.500  
G 8  21160756.088 6 111200506.565 6     -1984.582          40.250    21160757.054 6  86649752.347 6     -1546.426          40.500  
G 1  21361202.477 5 112253864.556 5      2981.448          34.250                                                                  
R 9  20922119.468 6 111722559.609 6      2630.241          38.000    20922121.542 5  86895323.600 5      2045.741          32.250  
C10  37343817.563 5 194459075.90025       102.110          33.500    37343817.302 5 150368077.55325        78.653          34.000  
C27  21687371.693 6 112931834.732 6     -1223.487          41.750                                                                  
C 7  36810585.001 5 191682371.644 5       208.827          33.500    36810582.590 5 148220967.974 5       161.390          31.250  
> 2021  5 17  2 38 16.0000000  0  8                     
G21  20532936.484 5 107901300.50025       651.633          33.750                                                                  
G 7  20936422.878 6 110021652.063 6      2092.590          37.750    20936419.577 6  85731143.518 6      1630.591          37.750  
G 8  21161133.495 6 111202488.860 6     -1980.645          40.250    21161134.380 6  86651296.996 6     -1543.358          40.500  
G 1  21360634.745 5 112250880.791 5      2985.447          34.250                                                                  
R 9  20921626.494 6 111719926.707 6      2634.487          38.250    20921628.598 5  86893275.785 5      2049.044          33.000  
C10  37343798.054 5 194458971.398 5       106.450          33.000    37343796.700 5 150367996.724 5        82.071          34.000  
C27  21687606.056 6 112933055.714 6     -1219.501          41.750                                                                  
C 7  36810544.903 5 191682160.002 5       213.105          33.750    36810540.607 5 148220804.337 5       164.696          31.500  
> 2021  5 17  2 38 17.0000000  0  8                     
G21  20532812.550 5 107900650.39125       650.236          33.250                                                                  
G 7  20936024.847 6 110019560.385 6      2091.341          38.000    20936021.323 6  85729513.644 6      1629.619          38.000  
G 8  21161510.576 6 111204470.155 6     -1981.433          40.000    21161511.328 6  86652840.860 6     -1543.974          40.000  
G 1  21360066.734 5 112247896.207 5      2984.612          34.250                                                                  
R 9  20921133.279 6 111717292.703 6      2633.977          38.000    20921135.391 5  86891227.120 5      2048.648          33.000  
C10  37343776.543 5 194458865.617 5       105.536          32.750    37343776.835 5 150367914.892 5        81.916          34.000  
C27  21687840.366 6 112934275.911 6     -1220.541          41.750                                                                  
C 7  36810504.232 5 191681947.038 5       213.226          33.500    36810499.447 5 148220639.653 5       164.515          31.000  
> 2021  5 17  2 38 18.0000000  0  8                     
G21  20532687.847 5 107900001.47025       648.569          33.500    20532691.868 5  84077915.63115       505.379          32.000  
G 7  20935627.160 6 110017469.738 6      2090.143          37.750    20935623.581 6  85727884.566 6      1628.684          37.750  
G 8  21161887.869 6 111206452.231 6     -1982.479          40.000    21161888.655 6  86654385.332 6     -1544.789          40.250  
G 1  21359498.896 5 112244912.679 5      2982.447          34.250    21359509.232 4  87463610.63714      2323.985          28.250  
R 9  20920640.239 6 111714659.462 6      2632.867          38.000    20920642.621 5  86889179.050 5      2047.787          32.750  
C10  37343756.495 5 194458760.310 5       104.651          33.000    37343757.617 5 150367833.485 5        81.222          34.500  
C27  21688074.932 6 112935497.115 6     -1221.778          41.750                                                                  
C 7  36810463.531 5 191681734.650 5       211.756          33.500    36810458.961 5 148220475.389 5       163.876          30.750  
> 2021  5 17  2 38 19.0000000  0  8                     
G21  20532565.559 5 107899353.371 5       647.920          33.750    20532571.426 4  84077410.594 4       504.873          29.000  
G 7  20935229.296 6 110015379.725 6      2089.478          37.750    20935226.365 6  85726255.981 6      1628.165          37.500  
G 8  21162264.995 6 111208434.682 6     -1982.705          40.250    21162266.240 6  86655930.099 6     -1544.965          39.750  
G 1  21358930.666 5 112241929.571 5      2982.702          34.500    21358945.019 5  87461286.240 5      2324.184          30.250  
R 9  20920147.180 6 111712026.527 6      2632.412          37.750    20920149.506 5  86887131.213 5      2047.433          32.000  
C10  37343736.205 5 194458655.072 5       104.944          32.750    37343737.663 5 150367752.064 5        81.727          34.250  
C27  21688309.571 6 112936718.850 6     -1221.987          41.750                                                                  
C 7  36810422.731 5 191681522.289 5       212.208          33.250    36810416.772 5 148220311.177 5       164.413          31.250  
> 2021  5 17  2 38 20.0000000  0  8                     
G21  20532442.120 5 107898706.672 5       646.133          33.750    20532443.131 5  84076906.622 5       503.480          33.000  
G 7  20934831.893 6 110013290.972 6      2088.281          37.750    20934829.207 6  85724628.371 6      1627.229          37.250  
G 8  21162642.487 6 111210418.165 6     -1984.147          40.000    21162644.003 6  86657475.666 6     -1546.089          39.750  
G 1  21358363.543 5 112238947.682 5      2981.273          34.750    21358375.787 5  87458962.733 5      2323.070          32.000  
R 9  20919654.130 6 111709394.496 6      2631.627          37.500    20919656.689 5  86885084.083 5      2046.823          32.250  
C10  37343716.075 5 194458550.524 5       104.389          33.000    37343716.843 5 150367671.285 5        80.348          34.250  
C27  21688544.387 6 112937941.788 6     -1223.270          41.500                                                                  
C 7  36810381.650 5 191681310.644 5       211.410          33.500    36810376.461 5 148220147.550 5       162.973          31.250  
> 2021  5 17  2 38 21.0000000  0  8                     
G21  20532319.737 5 107898060.676 5       646.145          33.750    20532321.603 4  84076403.251 4       503.490          28.750  
G 7  20934434.774 6 110011202.705 6      2088.287          38.000    20934431.472 6  85723001.146 6      1627.235          38.000  
G 8  21163019.875 6 111212401.897 6     -1983.648          40.000    21163021.525 6  86659021.430 6     -1545.701          39.500  
G 1  21357796.533 5 112235966.202 5      2981.854          35.000    21357809.777 5  87456639.454 5      2323.522          33.500  
R 9  20919160.963 6 111706762.678 6      2631.820          37.750    20919164.089 5  86883037.114 5      2046.973          32.750  
C10  37343696.381 5 194458446.005 5       104.275          33.000    37343697.268 5 150367590.441 5        80.651          34.250  
C27  21688779.276 6 112939165.211 6     -1223.509          41.250                                                                  
C 7  36810341.048 5 191681099.011 5       211.716          32.750    36810336.062 5 148219983.875 5       163.720          30.500  
> 2021  5 17  2 38 22.0000000  0  8                     
G21  20532196.994 5 107897414.971 5       645.842          33.750    20532193.482 5  84075900.086 5       503.253          31.750  
G 7  20934037.450 6 110009114.516 6      2088.457          38.000    20934033.866 6  85721373.988 6      1627.367          38.500  
G 8  21163397.291 6 111214385.444 6     -1983.075          39.750    21163399.061 6  86660567.050 6     -1545.254          39.750  
G 1  21357229.596 5 112232984.772 5      2981.615          35.250    21357236.999 5  87454316.277 5      2323.336          33.750  
R 9  20918667.901 6 111704130.598 6      2632.487          37.750    20918670.950 5  86880989.940 5      2047.491          32.500  
C10  37343675.921 5 194458340.935 5       106.022          33.000    37343676.991 5 150367509.194 5        81.478          34.000  
C27  21689014.191 6 112940388.643 6     -1223.242          41.250                                                                  
C 7  36810300.166 5 191680886.840 5       212.552          32.500    36810295.969 5 148219819.841 5       164.493          30.500  
> 2021  5 17  2 38 23.0000000  0  9                     
G21  20532074.228 5 107896769.348 5       645.176          35.000    20532073.753 5  84075397.013 5       502.737          31.000  
G 7  20933640.055 6 110007026.135 6      2088.534          38.750    20933636.369 6  85719746.679 6      1627.427          39.250  
G 8  21163774.655 6 111216368.532 6     -1982.535          40.000    21163776.125 6  86662112.325 6     -1544.830          39.500  
G 1  21356662.354 6 112230003.271 6      2981.495          37.500    21356669.233 5  87451993.037 5      2323.243          34.000  
R 9  20918174.671 6 111701497.992 6      2633.014          37.500    20918177.833 5  86878942.358 5      2047.901          33.000  
C10  37343656.026 5 194458235.156 5       106.570          34.250    37343656.693 5 150367427.452 5        82.075          33.500  
C27  21689249.218 6 112941611.844 6     -1222.738          41.750                                                                  
C 7  36810259.294 5 191680673.946 5       213.313          34.250    36810255.118 5 148219655.164 5       165.391          31.250  
C 1  37405797.976 5 194781808.78015         9.208          32.750                                                                  
> 2021  5 17  2 38 24.0000000  0  9                     
G21  20531951.431 5 107896123.231 5       648.372          32.750    20531947.184 2  84074893.563 2       505.234          17.500  
G 7  20933242.350 6 110004936.760 6      2090.977          41.000    20933238.511 6  85718118.599 6      1629.333          37.750  
G 8  21164151.638 6 111218349.991 6     -1979.671          40.000    21164153.074 6  86663656.328 6     -1542.598          38.500  
G 1  21356094.786 6 112227021.634 6      2983.317          38.250    21356103.578 5  87449669.695 5      2324.666          34.000  
R 9  20917680.786 6 111698863.527 6      2636.287          36.250    20917683.954 5  86876893.336 5      2050.447          31.750  
C10  37343635.475 6 194458127.750 6       109.648          36.500    37343636.432 5 150367344.326 5        84.531          33.000  
C27  21689483.899 7 112942833.902 7     -1220.256          42.750                                                                  
C 7  36810217.983 5 191680459.221 5       216.622          34.000    36810214.091 5 148219489.084 5       167.720          31.000  
C 1  37405795.924 5 194781800.33725        10.236          33.750                                                                  
> 2021  5 17  2 38 25.0000000  0 10                     
G21  20531827.735 5 107895474.704 5       647.676          30.500    20531823.950 4  84074388.287 4       504.712          28.500  
G 7  20932844.211 6 110002844.816 6      2090.577          39.250    20932840.781 6  85716488.492 6      1629.013          39.000  
G 8  21164528.127 6 111220328.755 6     -1980.165          38.750    21164529.409 6  86665198.233 6     -1542.980          38.500  
G 1  21355526.897 5 112224037.107 5      2983.405          35.750    21355534.381 5  87447344.089 5      2324.731          35.000  
R 9  20917186.759 6 111696226.207 6      2635.561          36.750    20917189.463 5  86874842.084 5      2049.881          33.000  
C10  37343614.322 6 194458017.175 6       109.273          36.750    37343615.407 5 150367258.859 5        84.366          33.250  
C27  21689718.059 7 112944053.344 7     -1220.778          42.500                                                                  
C 7  36810176.361 6 191680241.444 6       216.387          36.500    36810172.743 5 148219320.705 5       167.056          31.250  
C 1  37405788.291 5 194781788.59125        10.963          31.750                                                                  
C 4  38344961.110 5 199672282.252 5        18.895          35.250                                                                  
> 2021  5 17  2 38 26.0000000  0  9                     
G21  20531705.978 5 107894830.453 5       642.249          35.500                                                                  
G 7  20932446.598 6 110000756.910 6      2086.475          37.750    20932443.346 6  85714861.518 6      1625.815          37.750  
G 8  21164905.452 5 111222311.354 5     -1983.717          34.000    21164906.398 5  86666743.111 5     -1545.748          34.000  
G 1  21354960.027 6 112221056.611 6      2979.134          38.000    21354967.500 5  87445021.564 5      2321.384          34.750  
R 9  20916693.894 5 111693592.830 5      2633.008          35.500    20916695.997 5  86872793.893 5      2047.895          30.750  
R16  20169668.989 5 107742358.73415       -54.930          33.500                                                                  
C10  37343593.953 6 194457910.299 6       106.219          36.500    37343595.080 5 150367176.176 5        82.033          34.000  
C27  21689953.081 6 112945276.930 6     -1224.808          40.750                                                                  
C 7  36810135.376 6 191680027.342 6       212.980          37.500    36810131.840 5 148219155.138 5       165.056          32.000  
> 2021  5 17  2 38 27.0000000  0 11                     
G21  20531584.611 6 107894187.752 6       642.873          37.250                                                                  
G 7  20932049.391 6 109998670.124 6      2086.769          40.750    20932046.001 6  85713235.488 6      1626.055          40.000  
G 8  21165282.682 6 111224294.404 6     -1982.342          37.000    21165283.545 6  86668288.372 6     -1544.674          37.250  
G 1  21354393.021 6 112218077.511 6      2978.774          38.500    21354399.321 5  87442700.110 5      2321.098          32.250  
R 9  20916200.669 5 111690959.629 5      2634.550          35.500    20916202.339 5  86870745.852 5      2049.095          30.750  
R16  20169687.810 5 107742413.86325       -55.478          30.750                                                                  
C10  37343574.008 6 194457803.638 6       107.129          37.000    37343574.543 5 150367093.706 5        82.782          31.750  
C16  38186008.227 5 198844558.15915     -1625.363          34.500                                                                  
C27  21690188.234 7 112946501.203 7     -1223.392          42.750                                                                  
C 7  36810094.306 6 191679813.285 6       215.168          37.250    36810090.879 5 148218989.657 5       165.605          31.500  
C 6  37749391.903 4 196570986.842 4     -1549.529          29.750                                                                  
> 2021  5 17  2 38 28.0000000  0 10                     
G21  20531463.136 6 107893547.764 6       637.386          39.750                                                                  
G 7  20931652.536 6 109996584.906 6      2082.505          39.500    20931649.344 6  85711610.643 6      1622.731          38.750  
G 8  21165660.400 6 111226278.496 6     -1986.764          38.000    21165661.117 6  86669834.424 6     -1548.123          37.000  
G 1  21353826.909 6 112215102.027 6      2971.729          39.000    21353834.607 4  87440381.552 4      2315.612          29.500  
R 9  20915707.791 5 111688327.371 5      2630.453          34.500    20915709.019 5  86868698.535 5      2045.906          30.750  
C10  37343553.791 5 194457697.996 5       102.990          35.500    37343554.224 5 150367011.992 5        79.978          33.250  
C16  38186319.756 5 198846186.46425     -1631.589          35.500                                                                  
C27  21690423.676 7 112947727.114 7     -1228.144          43.000                                                                  
C 7  36810053.338 5 191679600.076 5       210.907          35.000    36810050.451 4 148218824.815 4       163.781          29.000  
C 4  38344949.381 5 199672209.21215        11.347          31.500    38344953.539 5 154399230.70015         8.859          30.750  
> 2021  5 17  2 38 29.0000000  0 10                     
G21  20531342.494 5 107892911.368 5       638.419          33.250                                                                  
G 7  20931256.190 6 109994502.231 6      2084.504          39.000    20931253.085 6  85709987.778 6      1624.287          38.250  
G 8  21166038.231 6 111228263.818 6     -1984.070          37.250    21166038.821 5  86671381.402 5     -1546.029          35.250  
G 1  21353261.452 5 112212130.838 5      2970.050          33.000                                                                  
R 9  20915214.740 5 111685696.110 5      2632.964          35.250    20915216.106 5  86866651.996 5      2047.859          32.250  
C10  37343533.915 5 194457593.903 5       105.369          36.000    37343534.301 5 150366931.590 5        80.534          32.500  
C16  38186634.870 5 198847819.05625     -1634.419          35.250                                                                  
C27  21690659.456 6 112948955.135 6     -1227.515          39.750                                                                  
C 7  36810012.712 5 191679388.086 5       213.454          33.750                                                                  
C 4  38344951.222 5 199672201.13915        10.932          34.500    38344949.989 5 154399222.16425         7.377          30.000  
> 2021  5 17  2 38 30.0000000  0 10                     
G21  20531221.461 6 107892275.668 6       634.931          37.250    20531217.000 3  84071898.61713       494.779          18.750  
G 7  20930859.509 6 109992418.074 6      2083.707          40.000    20930856.671 6  85708363.752 6      1623.666          38.500  
G 8  21166415.313 6 111230245.666 6     -1979.438          39.750    21166415.809 6  86672925.685 6     -1542.423          39.750  
R 9  20914721.116 5 111683061.148 5      2636.911          35.500    20914722.549 5  86864602.579 5      2050.929          32.500  
C10  37343513.432 5 194457487.024 5       109.215          35.750    37343513.870 5 150366848.909 5        84.003          32.250  
C16  38186946.849 5 198849454.73025     -1637.157          30.500                                                                  
C27  21690894.835 6 112950181.174 6     -1224.554          41.500                                                                  
C 7  36809971.370 6 191679172.561 6       217.875          36.500    36809968.390 5 148218488.22225       168.156          31.250  
C 1  37405780.299 5 194781707.96015         3.018          35.000                                                                  
C 4  38344948.598 5 199672189.46425        13.229          34.500    38344946.011 5 154399213.07125        10.051          32.500  
> 2021  5 17  2 38 31.0000000  0  8                     
G21  20531100.690 6 107891641.485 6       630.612          36.250    20531095.695 4  84071404.529 4       491.425          28.000  
G 7  20930462.628 6 109990332.756 6      2084.071          39.500    20930459.914 6  85706738.832 6      1623.950          37.750  
G 8  21166791.895 6 111232224.546 6     -1978.484          39.500    21166792.203 6  86674467.666 6     -1541.678          38.500  
R 9  20914226.952 6 111680422.562 6      2638.556          36.250    20914228.196 5  86862550.343 5      2052.208          30.500  
C10  37343492.476 5 194457378.210 5       108.605          35.500    37343492.663 5 150366764.740 5        84.278          32.750  
C27  21691129.941 7 112951405.603 7     -1225.161          42.250                                                                  
C 7  36809929.598 5 191678954.142 5       218.130          36.000    36809926.489 5 148218319.29525       169.381          31.750  
C 4  38344946.432 5 199672183.74615        10.017          33.250    38344944.441 4 154399201.01814         9.313          29.500  
> 2021  5 17  2 38 32.0000000  0  7                     
G 7  20930065.550 6 109988246.694 6      2088.619          39.500    20930063.028 6  85705113.327 6      1627.495          39.000  
G 8  21167167.926 6 111234200.285 6     -1972.174          39.250    21167168.331 6  86676007.201 6     -1536.761          38.750  
R 9  20913732.123 6 111677780.420 6      2645.410          36.250    20913733.497 5  86860495.349 5      2057.542          30.500  
C10  37343471.150 5 194457267.168 5       113.638          35.250    37343471.265 5 150366678.867 5        88.620          33.000  
C27  21691364.817 6 112952628.580 6     -1220.031          41.750                                                                  
C 7  36809886.963 6 191678732.656 6       224.354          36.500    36809884.050 5 148218148.01625       174.091          31.500  
C 4  38344944.241 5 199672172.30625        12.741          33.500                                                                  
> 2021  5 17  2 38 33.0000000  0  7                     
G 7  20929667.809 6 109986156.986 6      2090.717          39.500    20929665.470 6  85703484.980 6      1629.129          38.750  
G 8  21167542.916 6 111236170.193 6     -1968.261          39.000    21167542.976 6  86677542.191 6     -1533.712          38.750  
G 1  21351004.279 6 112200277.37626      2959.969          37.000    21351002.073 6  87428784.60016      2306.469          37.000  
R 9  20913236.206 6 111675131.911 6      2649.642          36.000    20913237.526 5  86858435.402 5      2060.834          31.750  
C10  37343449.118 5 194457138.25015       118.402          35.250    37343448.814 5 150366589.292 5        90.476          33.000  
C27  21691598.863 7 112953847.351 7     -1218.086          42.500                                                                  
C 7  36809843.315 6 191678505.334 6       229.085          36.250    36809840.511 5 148217972.311 5       176.790          31.750  
> 2021  5 17  2 38 34.0000000  0  9                     
G21  20530735.714 6 107889726.47126       632.943          40.500                                                                  
G 7  20929269.695 6 109984065.388 6      2092.381          39.500    20929267.594 6  85701855.164 6      1630.425          38.750  
G 8  21167916.938 6 111238136.205 6     -1965.118          37.250    21167917.096 5  86679074.143 5     -1531.265          35.250  
R 9  20912739.384 6 111672476.64716      2654.519          36.750    20912740.822 5  86856372.14815      2064.628          31.500  
C10  37343426.306 5 194457019.43515       120.493          35.000    37343425.752 5 150366497.385 5        92.616          32.750  
C16  38188211.978 5 198856047.13015     -1650.509          34.750                                                                  
C27  21691832.432 6 112955063.580 6     -1215.253          41.000                                                                  
C 7  36809798.899 5 191678274.169 5       233.998          34.750    36809796.076 5 148217793.595 5       180.168          30.500  
C 3  36473475.695 6 189926953.99516        20.913          37.250                                                                  
> 2021  5 17  2 38 35.0000000  0  8                     
G21  20530616.246 6 107889094.51326       633.468          37.000    20530608.934 4  84069417.56024       493.612          28.250  
G 7  20928871.691 6 109981974.295 6      2091.345          39.500    20928869.782 6  85700225.745 6      1629.620          40.250  
R18  22406531.502 5 119607193.51115     -3946.267          31.000                                                                  
R 9  20912242.443 6 111669822.42826      2655.618          36.500    20912243.652 5  86854307.762 5      2065.484          33.250  
C10  37343403.251 5 194456899.96025       121.158          35.000    37343402.738 5 150366404.997 5        94.004          32.500  
C16  38188531.440 5 198857700.89725     -1655.114          36.000                                                                  
C27  21692065.898 6 112956279.585 6     -1214.197          39.500                                                                  
C 7  36809754.225 5 191678041.639 5       233.702          35.250    36809751.606 5 148217614.70515       180.836          31.250  
> 2021  5 17  2 38 36.0000000  0  8                     
G21  20530497.035 6 107888493.81516       630.778          40.750    20530490.690 5  84068925.25915       491.515          31.750  
G 7  20928473.581 6 109979882.022 6      2091.585          39.750    20928471.551 6  85698595.407 6      1629.808          39.750  
R18  22407269.953 5 119611138.27125     -3944.665          31.750                                                                  
R 9  20911744.774 6 111667165.16726      2657.308          37.000    20911746.043 5  86852241.002 5      2066.798          32.500  
C10  37343379.962 5 194456778.56525       121.098          35.000    37343379.458 5 150366311.136 5        93.552          33.000  
C27  21692299.028 7 112957493.551 7     -1214.470          42.250                                                                  
C30  22428060.287 6 116788796.51116      1588.609          41.000                                                                  
C 7  36809708.944 6 191677806.116 6       235.418          36.000    36809706.487 5 148217432.63425       181.853          32.000  
> 2021  5 17  2 38 37.0000000  0 11                     
G21  20530377.199 6 107887863.236 6       628.366          41.000    20530376.895 4  84068433.867 4       489.636          28.750  
G 7  20928075.761 6 109977791.159 6      2089.874          39.750    20928073.667 6  85696966.158 6      1628.472          38.750  
G 8  21169037.108 6 111244034.37716     -1963.076          39.250                                                                  
G 1  21348753.138 6 112188451.64716      2948.631          39.500    21348754.711 6  87419580.53216      2297.635          40.000  
R18  22408006.604 5 119615082.36825     -3944.941          30.000                                                                  
R 9  20911247.286 6 111664507.558 6      2656.033          36.500    20911248.430 5  86850174.360 5      2065.804          31.750  
C10  37343356.795 5 194456657.68325       120.036          35.750    37343356.162 5 150366217.681 5        92.533          33.000  
C27  21692532.329 7 112958708.474 7     -1216.141          43.000                                                                  
C30  22427754.184 6 116787210.07226      1584.663          41.750                                                                  
C 7  36809663.628 6 191677570.654 6       234.196          36.750    36809661.293 5 148217250.53325       181.144          31.000  
C 3  36473467.055 6 189926915.72116        14.543          38.750    36473465.650 5 146863531.02915        10.857          33.000  
> 2021  5 17  2 38 38.0000000  0 15                     
G21  20530257.434 6 107887236.916 6       625.851          40.750    20530254.683 5  84067945.838 5       487.676          32.500  
G 7  20927678.545 6 109975703.655 6      2087.048          39.500    20927676.356 6  85695339.527 6      1626.270          39.000  
G 8  21169411.533 6 111245998.500 6     -1964.115          39.500                                                                  
G 1  21348191.436 6 112185505.872 6      2944.624          39.250    21348195.315 6  87417285.102 6      2294.512          39.750  
R18  22408750.514 5 119619028.19425     -3946.080          30.750                                                                  
R 9  20910750.091 6 111661852.764 6      2655.124          37.500    20910751.339 5  86848109.521 5      2065.098          32.000  
R16  20169780.310 5 107742978.11315       -49.141          33.000                                                                  
C10  37343334.038 6 194456539.36726       118.671          36.750    37343333.493 5 150366126.195 5        91.369          32.750  
C16  38189486.271 6 198862678.43016     -1664.144          38.000    38189489.791 4 153773241.31214     -1286.035          29.500  
C27  21692766.171 7 112959926.192 7     -1217.938          44.250                                                                  
C30  22427450.667 7 116785628.09227      1581.588          43.000                                                                  
C 7  36809618.846 6 191677337.219 6       233.597          38.000    36809616.498 5 148217070.05925       180.104          31.250  
C 1  37405777.971 6 194781701.16316        -1.877          38.250                                                                  
C 3  36473464.758 6 189926902.975 6        11.972          40.250    36473464.130 5 146863521.54125         8.885          33.000  
C 9  36738181.055 6 191305336.45226     -1388.387          39.250    36738181.926 5 147929425.71815     -1074.025          33.250  
> 2021  5 17  2 38 39.0000000  0 17                     
G21  20530138.430 6 107886608.959 6       628.671          41.000    20530133.086 5  84067456.547 5       489.873          32.000  
G 7  20927281.034 6 109973614.774 6      2089.396          40.000    20927278.805 6  85693711.831 6      1628.101          39.250  
G 8  21169784.259 6 111247960.739 6     -1961.268          39.500    21169785.381 6  86686720.835 6     -1528.260          39.750  
G 1  21347631.564 6 112182558.233 6      2948.532          40.250    21347633.798 6  87414988.227 6      2297.557          40.000  
R18  22409488.313 5 119622971.374 5     -3942.632          31.000                                                                  
R 9  20910252.777 6 111659196.151 6      2657.131          37.750    20910253.591 5  86846043.267 5      2066.659          32.000  
R16  20169796.479 5 107743024.27025       -45.316          33.250                                                                  
C 2  37111117.638 6 193247315.755 6       -18.935          37.500    37111115.703 5 149431085.18415       -14.777          34.000  
C10  37343310.942 6 194456419.22826       121.570          37.250    37343310.345 5 150366033.246 5        94.004          33.000  
C16  38189805.303 6 198864339.109 6     -1659.846          38.250    38189809.282 4 153774525.91324     -1284.521          29.500  
C27  21692999.690 7 112961142.190 7     -1215.231          44.250                                                                  
C30  22427146.459 7 116784044.295 7      1584.153          43.000                                                                  
C 7  36809573.706 6 191677101.657 6       236.702          38.000    36809571.263 5 148216887.861 5       182.943          31.500  
C 1  37405779.463 6 194781699.874 6         2.006          37.750    37405780.776 5 150617571.271 5         1.741          32.500  
C 6  37753017.345 5 196589857.94625     -1585.399          33.500    37753021.216 4 152015750.72814     -1226.223          28.000  
C 3  36473462.354 6 189926888.729 6        15.416          40.250    36473461.079 5 146863510.508 5        12.030          32.750  
C 9  36738446.027 6 191306722.85426     -1386.048          39.500    36738446.583 5 147930497.73325     -1071.369          33.250  
> 2021  5 17  2 38 40.0000000  0 16                     
G21  20530018.517 6 107885979.531 6       630.412          41.250    20530012.614 4  84066966.089 4       491.230          29.250  
G 7  20926883.450 6 109971525.259 6      2089.788          40.000    20926881.105 6  85692083.637 6      1628.406          39.000  
G 8  21170157.180 6 111249921.780 6     -1960.148          39.500    21170158.165 6  86688248.915 6     -1527.388          38.250  
G 1  21347069.897 6 112179608.887 6      2950.342          39.500    21347072.708 6  87412690.038 6      2298.968          40.000  
R18  22410226.148 4 119626913.739 4     -3941.057          28.250                                                                  
R 9  20909755.189 6 111656538.508 6      2658.227          37.750    20909755.985 5  86843976.217 5      2067.512          32.500  
R16  20169800.572 5 107743068.98225       -44.498          33.250                                                                  
C10  37343287.786 6 194456297.955 6       121.662          37.000    37343287.280 5 150365939.480 5        94.688          32.250  
C16  38190123.785 6 198865998.491 6     -1657.166          37.250                                                                  
C27  21693232.992 7 112962357.014 7     -1214.071          44.500                                                                  
C30  22426842.223 7 116782459.977 7      1584.956          42.500                                                                  
C 7  36809528.133 6 191676864.589 6       238.242          39.000    36809525.832 5 148216704.566 5       184.129          31.500  
C 1  37405778.536 6 194781696.869 6         3.971          37.750    37405779.783 5 150617568.893 5         3.459          33.000  
C 6  37753319.592 5 196591441.838 5     -1583.576          34.250    37753318.079 4 152016975.84924     -1224.486          28.250  
C 3  36473458.289 6 189926872.704 6        17.193          40.000                                                                  
C 9  36738711.441 6 191308107.841 6     -1384.632          39.500    36738714.658 5 147931568.199 5     -1070.437          34.000  
> 2021  5 17  2 38 41.0000000  0 18                     
G 4  23833548.224 5 125246147.07615     -2892.732          35.750                                                                  
G21  20529897.807 6 107885348.636 6       630.805          40.250    20529894.218 4  84066474.478 4       491.532          27.500  
G 7  20926485.945 6 109969436.219 6      2087.713          39.000    20926483.694 6  85690455.816 6      1626.789          39.000  
G 8  21170530.683 6 111251882.724 6     -1961.497          38.750    21170531.545 6  86689776.932 6     -1528.440          39.250  
G27  23382231.016 5 122874452.96615     -3019.736          31.250                                                                  
G 1  21346508.786 6 112176657.343 6      2952.529          37.750    21346510.682 6  87410390.135 6      2300.672          37.750  
R18  22410965.213 4 119630868.61614     -3942.272          28.750                                                                  
R 9  20909257.510 6 111653881.361 6      2656.153          39.500    20909258.289 5  86841909.545 5      2065.898          32.750  
R16  20169808.359 5 107743111.977 5       -43.046          35.250                                                                  
C10  37343264.570 5 194456176.868 5       119.689          35.000    37343264.022 5 150365845.856 5        93.011          32.250  
C16  38190441.853 5 198867655.746 5     -1656.510          34.500    38190445.860 5 153777101.50525     -1280.618          30.250  
C27  21693466.254 7 112963571.459 7     -1214.738          42.750                                                                  
C30  22426537.875 6 116780874.921 6      1584.666          41.000                                                                  
C 7  36809482.557 6 191676627.094 6       237.175          37.000    36809480.237 5 148216520.923 5       183.228          31.250  
C 1  37405777.603 5 194781691.220 5         6.631          35.500                                                                  
C 6  37753621.753 5 196593023.901 5     -1581.008          30.750    37753622.227 4 152018199.15424     -1222.437          30.000  
C 3  36473455.580 6 189926854.829 6        18.525          38.000    36473454.062 5 146863497.32625        13.687          32.750  
C 9  36738977.542 6 191309491.464 6     -1383.399          37.250    36738978.968 5 147932638.139 5     -1069.959          33.750  
> 2021  5 17  2 38 42.0000000  0 18                     
G 4  23834099.202 5 125249037.24425     -2887.604          36.000                                                                  
G21  20529777.600 6 107884716.452 6       633.647          40.750    20529774.330 5  84065981.860 5       493.749          30.000  
G 7  20926088.758 6 109967349.401 6      2086.507          38.750    20926086.402 6  85688829.728 6      1625.851          37.250  
G 8  21170904.080 6 111253845.506 6     -1963.153          38.750    21170905.077 6  86691306.378 6     -1529.729          38.500  
G27  23382809.093 5 122877474.09125     -3022.416          31.250                                                                  
G 1  21345946.771 6 112173703.248 6      2957.026          38.000    21345949.109 6  87408088.223 6      2304.174          39.000  
R18  22411706.351 4 119634813.34824     -3944.952          29.250                                                                  
R 9  20908760.526 6 111651227.101 6      2653.992          38.750    20908761.201 5  86839845.113 5      2064.215          34.000  
R16  20169816.695 5 107743155.411 5       -42.397          35.000                                                                  
C10  37343241.726 5 194456057.996 5       118.135          35.250    37343241.326 5 150365753.976 5        91.391          32.000  
C16  38190760.174 5 198869310.496 5     -1650.944          35.500    38190764.257 5 153778381.05725     -1277.275          30.500  
C27  21693699.720 7 112964786.990 7     -1215.543          43.250                                                                  
C30  22426233.149 6 116779289.588 6      1586.745          41.500                                                                  
C 7  36809437.170 6 191676391.004 6       235.521          37.750    36809434.782 5 148216338.358 5       182.198          31.500  
C 1  37405775.969 6 194781683.145 6        10.011          37.250                                                                  
C 6  37753925.624 5 196594603.151 5     -1576.094          33.500    37753925.843 5 152019420.29425     -1218.799          31.500  
C 3  36473451.392 6 189926835.333 6        21.573          39.500    36473450.013 5 146863482.22825        16.445          33.250  
C 9  36739243.208 6 191310874.023 6     -1380.407          38.250    36739245.080 5 147933707.194 5     -1067.639          33.250  
> 2021  5 17  2 38 43.0000000  0 18                     
G 4  23834646.132 5 125251919.537 5     -2880.075          34.500                                                                  
G21  20529656.625 6 107884081.229 6       636.677          40.500    20529653.760 5  84065486.890 5       496.114          33.500  
G 7  20925691.842 6 109965263.151 6      2083.772          40.500    20925689.287 6  85687204.078 6      1623.719          39.750  
G 8  21171277.789 6 111255809.638 6     -1966.240          39.750    21171279.215 6  86692836.867 6     -1532.135          38.750  
G 1  21345383.620 6 112170743.605 6      2962.351          38.000    21345384.795 6  87405781.996 6      2308.323          37.250  
R18  22412447.108 4 119638778.61114     -3948.689          28.000                                                                  
R 9  20908263.781 6 111648574.999 6      2648.460          39.000    20908264.533 5  86837782.354 5      2059.909          34.500  
R16  20169822.628 5 107743198.171 5       -42.501          35.000    20169824.893 4  83800262.71824       -33.056          29.000  
C 2  37111131.011 5 193247386.79125       -12.526          35.000    37111128.159 5 149431140.36115        -9.646          32.500  
C10  37343219.029 5 194455939.849 5       115.174          34.500    37343218.612 5 150365662.615 5        89.293          30.250  
C16  38191075.724 5 198870958.934 5     -1645.710          35.000    38191080.681 5 153779655.75325     -1272.985          31.750  
C27  21693933.182 7 112966002.626 7     -1216.962          42.250                                                                  
C30  22425928.177 6 116777700.569 6      1589.343          40.750                                                                  
C 7  36809391.986 6 191676155.645 6       233.322          37.500    36809389.550 5 148216156.360 5       180.375          32.500  
C28  25488045.991 4 132722936.49714     -2944.428          29.750                                                                  
C 6  37754229.207 5 196596175.800 5     -1569.725          34.250    37754229.591 5 152020636.36725     -1213.938          31.500  
C 3  36473446.649 6 189926811.259 6        25.441          38.250    36473445.355 5 146863463.60425        19.539          33.250  
C 9  36739507.556 6 191312251.837 6     -1376.895          37.000    36739508.611 5 147934772.609 5     -1064.587          33.500  
> 2021  5 17  2 38 44.0000000  0 17                     
G 4  23835194.266 5 125254795.418 5     -2870.091          33.500                                                                  
G21  20529535.275 6 107883442.385 6       641.949          39.750    20529532.680 5  84064989.080 5       500.219          32.000  
G 7  20925295.848 6 109963182.624 6      2077.219          40.250    20925293.229 6  85685582.886 6      1618.611          39.750  
G 8  21171652.388 6 111257778.477 6     -1971.571          39.250    21171653.431 6  86694371.026 6     -1536.289          38.500  
G 1  21344819.467 6 112167777.555 6      2971.550          38.000    21344820.812 6  87403470.798 6      2315.494          38.250  
R 9  20907768.326 6 111645930.181 6      2639.686          37.500    20907769.194 5  86835725.267 5      2053.086          33.750  
R16  20169831.678 5 107743240.224 5       -41.013          34.000    20169834.068 4  83800295.42424       -31.899          27.750  
C 2  37111130.037 5 193247398.197 5       -10.249          33.750    37111129.994 5 149431149.109 5        -8.709          32.750  
C10  37343197.520 5 194455828.008 5       107.952          34.250    37343196.982 5 150365576.161 5        83.096          31.250  
C16  38191391.365 5 198872601.700 5     -1638.166          34.750    38191396.228 5 153780926.04125     -1266.710          30.750  
C27  21694167.146 6 112967220.786 6     -1219.378          39.750                                                                  
C30  22425623.131 6 116776111.105 6      1590.614          39.750                                                                  
C 7  36809347.493 5 191675924.312 5       229.484          35.500    36809345.132 5 148215977.528 5       176.958          34.250  
C28  25488614.836 4 132725883.05624     -2948.820          28.750                                                                  
C 6  37754530.625 5 196597742.015 5     -1561.700          30.750    37754531.167 4 152021847.44424     -1206.073          28.250  
C 3  36473441.577 6 189926783.661 6        30.904          37.250    36473439.350 5 146863442.305 5        23.484          33.750  
C 9  36739771.553 6 191313627.528 6     -1373.134          36.750    36739773.444 5 147935836.402 5     -1061.875          35.000  
> 2021  5 17  2 38 45.0000000  0 18                     
G 4  23835739.073 5 125257661.385 5     -2860.985          33.250                                                                  
G 9  23111847.847 6 121453569.37026     -2105.388          36.750                                                                  
G21  20529412.867 6 107882798.324 6       646.177          39.500    20529410.979 5  84064487.236 5       503.520          31.250  
G 7  20924901.180 6 109961108.242 6      2070.618          40.000    20924898.643 6  85683966.480 6      1613.469          39.750  
G 8  21172028.115 6 111259753.001 6     -1978.111          38.500    21172029.118 6  86695909.638 6     -1541.377          38.000  
G 1  21344253.177 6 112164802.420 6      2980.058          36.750    21344254.406 6  87401152.535 6      2322.131          36.750  
R 9  20907274.557 6 111643294.330 6      2630.715          37.250    20907275.556 5  86833675.192 5      2046.120          32.750  
R16  20169837.917 5 107743281.240 5       -40.999          33.750    20169841.731 4  83800327.335 4       -31.888          26.500  
C 2  37111134.214 5 193247407.798 5        -7.852          35.000    37111131.547 6 149431156.545 6        -6.673          36.250  
C10  37343177.395 5 194455723.548 5       100.058          35.250    37343176.895 5 150365495.360 5        77.776          34.250  
C16  38191705.579 5 198874236.003 5     -1629.905          36.000    38191709.241 5 153782189.81525     -1260.196          33.750  
C27  21694401.608 6 112968441.651 6     -1223.246          41.250                                                                  
C30  22425317.363 6 116774519.629 6      1592.206          39.250                                                                  
C 7  36809304.003 5 191675697.903 5       222.869          35.500    36809301.739 5 148215802.439 5       172.884          33.250  
C28  25489183.328 5 132728834.77625     -2956.168          32.500                                                                  
C 6  37754829.761 5 196599298.865 5     -1551.604          33.250    37754828.691 5 152023051.350 5     -1199.906          31.750  
C 3  36473434.872 6 189926750.577 6        35.918          37.000    36473433.227 5 146863416.706 5        27.706          35.500  
C 9  36740034.527 5 191314999.147 5     -1368.852          34.750    36740036.788 5 147936897.044 5     -1059.176          35.500  
> 2021  5 17  2 38 46.0000000  0 20                     
G 4  23836283.376 5 125260516.988 5     -2849.310          32.000                                                                  
G 9  23112247.892 6 121455672.59026     -2102.273          36.000                                                                  
G21  20529289.374 6 107882149.971 6       649.274          40.750    20529286.964 4  84063982.040 4       505.935          30.000  
G 7  20924507.626 6 109959040.057 6      2064.393          40.500    20924505.206 6  85682354.921 6      1608.621          40.750  
G 8  21172404.948 6 111261734.036 6     -1985.003          39.750    21172406.108 6  86697453.343 6     -1546.742          39.250  
G27  23385110.548 5 122889576.69325     -3041.201          34.250                                                                  
G 1  21343684.623 6 112161818.790 6      2986.300          37.250    21343686.307 6  87398827.644 6      2326.995          37.000  
R18  22414669.432 6 119650642.65216     -3973.437          36.250                                                                  
R 9  20906782.719 6 111640667.868 6      2621.453          39.250    20906783.773 5  86831632.416 5      2038.916          35.000  
R16  20169844.225 5 107743322.581 5       -42.846          35.750    20169849.360 4  83800359.502 4       -33.325          28.000  
C10  37343158.780 5 194455626.313 5        93.139          36.000    37343158.328 5 150365420.179 5        72.087          34.000  
C16  38192017.339 5 198875861.871 5     -1622.795          34.750    38192021.963 5 153783447.056 5     -1254.852          31.250  
C27  21694636.725 6 112969666.035 6     -1226.739          41.500                                                                  
C30  22425011.323 6 116772925.671 6      1594.301          40.000                                                                  
C 7  36809261.489 6 191675476.978 6       217.790          37.500    36809259.247 5 148215631.622 5       168.394          33.250  
C 1  37405758.605 5 194781605.00815        34.121          34.750                                                                  
C28  25489747.162 5 132731792.872 5     -2962.151          31.000                                                                  
C 6  37755126.321 5 196600846.452 5     -1544.455          32.750    37755127.218 5 152024248.037 5     -1193.815          31.750  
C 3  36473427.669 6 189926712.248 6        39.540          37.250                                                                  
C 9  36740297.626 5 191316366.293 5     -1366.415          34.750    36740299.369 5 147937954.186 5     -1055.795          34.500  
> 2021  5 17  2 38 47.0000000  0 17                     
G 9  23112647.268 5 121457775.13425     -2102.900          35.750                                                                  
G21  20529165.795 6 107881500.524 6       649.481          40.750    20529163.194 5  84063475.990 5       506.096          31.000  
G 7  20924115.466 6 109956979.151 6      2056.830          39.750    20924113.104 6  85680749.025 6      1602.727          40.500  
G 8  21172783.302 6 111263722.197 6     -1991.658          40.000    21172784.422 6  86699002.578 6     -1551.929          39.250  
G27  23385689.628 5 122892621.08525     -3049.164          34.000                                                                  
G 1  21343116.274 6 112158830.656 6      2989.447          37.500    21343117.632 6  87396499.253 6      2329.452          36.500  
R18  22415410.352 5 119654619.43925     -3980.505          34.000                                                                  
R 9  20906292.522 6 111638050.825 6      2612.299          37.500    20906293.696 5  86829596.935 5      2031.795          34.250  
R16  20169853.657 5 107743366.197 5       -44.773          34.750    20169857.191 4  83800393.439 4       -34.822          28.500  
C10  37343141.653 6 194455537.050 6        85.040          36.500    37343141.057 5 150365351.202 5        65.585          35.000  
C16  38192328.753 5 198877483.328 5     -1620.208          34.000    38192334.536 5 153784700.849 5     -1252.511          31.500  
C27  21694872.777 6 112970895.349 6     -1231.923          42.000                                                                  
C30  22424705.360 6 116771332.373 6      1592.472          39.000                                                                  
C 7  36809220.356 6 191675262.578 6       211.443          37.250    36809218.093 5 148215465.805 5       163.676          34.250  
C 6  37755422.971 5 196602388.917 5     -1539.822          31.500    37755422.718 5 152025440.862 5     -1191.867          30.500  
C 3  36473419.723 6 189926672.071 6        40.487          37.000    36473417.800 5 146863342.98825        31.382          34.250  
C 9  36740559.480 5 191317732.341 5     -1366.274          35.000    36740561.978 5 147939010.532 5     -1056.536          34.750  
> 2021  5 17  2 38 48.0000000  0 17                     
G 9  23113048.620 5 121459878.80725     -2104.160          35.750                                                                  
G21  20529041.992 6 107880849.665 6       653.110          40.500    20529038.776 4  84062968.832 4       508.925          29.750  
G 7  20923724.264 6 109954923.750 6      2054.807          39.750    20923721.930 6  85679147.414 6      1601.151          39.500  
G 8  21173162.454 6 111265714.787 6     -1992.015          40.250    21173163.360 6  86700555.240 6     -1552.212          40.500  
G27  23386271.756 5 122895668.48525     -3046.724          34.000                                                                  
G 1  21342547.190 6 112155839.430 6      2993.586          37.250    21342548.874 6  87394168.440 6      2332.675          37.500  
R18  22416162.479 4 119658601.13424     -3979.743          29.500                                                                  
R 9  20905803.720 6 111635440.295 6      2609.636          37.250    20905804.767 5  86827566.535 5      2029.725          33.750  
R16  20169863.720 5 107743410.150 5       -41.860          34.000    20169865.234 4  83800427.629 4       -32.557          28.250  
C10  37343125.593 6 194455453.703 6        82.153          36.250    37343125.048 5 150365286.716 5        63.670          34.750  
C16  38192639.954 5 198879102.436 5     -1617.789          34.250    38192645.294 5 153785952.885 5     -1251.180          30.500  
C27  21695109.429 6 112972127.574 6     -1231.188          41.500                                                                  
C30  22424399.612 6 116769740.622 6      1591.964          39.250                                                                  
C 7  36809179.888 6 191675051.993 6       210.705          37.500    36809177.706 5 148215303.007 5       163.041          33.000  
C 6  37755718.445 5 196603928.519 5     -1537.275          32.000    37755718.230 5 152026631.303 5     -1188.688          30.750  
C 3  36473411.782 6 189926630.789 6        42.932          37.000                                                                  
C 9  36740821.896 5 191319098.647 5     -1365.557          34.500    36740824.039 5 147940067.059 5     -1056.165          34.000  
> 2021  5 17  2 38 49.0000000  0 14                     
G 9  23113448.149 5 121461982.208 5     -2104.147          35.500                                                                  
G21  20528917.358 6 107880195.612 6       654.477          40.500    20528915.198 5  84062459.196 5       509.990          31.250  
G 7  20923333.416 6 109952870.128 6      2052.090          39.000    20923331.091 6  85677547.199 6      1599.036          38.500  
G 8  21173541.908 6 111267707.472 6     -1993.351          39.750    21173542.894 6  86702107.973 6     -1553.256          39.500  
G 1  21341977.288 6 112152844.530 6      2996.047          37.000    21341978.748 6  87391834.761 6      2334.594          36.250  
R 9  20905315.251 6 111632831.544 6      2607.468          37.000    20905316.179 5  86825537.511 5      2028.038          33.750  
R16  20169871.452 5 107743451.330 5       -40.831          33.250    20169871.852 4  83800459.660 4       -31.755          29.000  
C10  37343109.978 5 194455372.068 5        80.384          35.250    37343109.420 5 150365223.613 5        62.009          34.500  
C16  38192950.469 5 198880718.875 5     -1615.698          34.000    38192955.533 5 153787205.79615     -1249.113          31.250  
C27  21695345.964 6 112973359.131 6     -1231.785          41.000                                                                  
C30  22424093.982 6 116768148.746 6      1591.798          38.000                                                                  
C 7  36809139.395 6 191674841.120 6       210.106          36.500    36809137.119 5 148215139.912 5       162.371          33.250  
C 3  36473403.441 6 189926586.985 6        44.103          36.500    36473402.454 5 146863281.21015        33.774          32.750  
C 9  36741084.268 5 191320463.956 5     -1364.847          34.750    36741086.440 5 147941122.787 5     -1056.092          34.250  
> 2021  5 17  2 38 50.0000000  0 14                     
G 9  23113849.248 5 121464085.897 5     -2104.088          35.500                                                                  
G21  20528792.531 6 107879539.589 6       657.887          40.500    20528789.747 4  84061948.006 4       512.645          26.500  
G 7  20922942.862 6 109950817.783 6      2052.188          39.750    20922940.544 6  85675947.977 6      1599.113          39.500  
G 8  21173921.233 6 111269700.400 6     -1992.753          39.250    21173922.036 6  86703660.899 6     -1552.792          38.250  
G 1  21341406.669 6 112149847.099 6      2998.886          36.750    21341408.841 5  87389499.109 5      2336.805          36.000  
R 9  20904826.886 6 111630223.891 6      2608.397          37.000    20904827.918 5  86823509.336 5      2028.759          33.750  
R16  20169879.444 5 107743490.773 5       -36.358          32.250    20169879.610 4  83800490.343 4       -28.276          26.500  
C10  37343094.544 5 194455291.562 5        80.764          35.250    37343094.056 5 150365161.324 5        62.463          33.500  
C16  38193260.463 5 198882333.124 5     -1613.256          33.500    38193265.701 4 153788453.00014     -1247.706          28.750  
C27  21695582.416 6 112974590.455 6     -1229.829          41.250                                                                  
C30  22423788.436 6 116766556.801 6      1592.339          38.000                                                                  
C 7  36809098.844 6 191674630.058 6       211.721          36.250    36809096.515 5 148214976.704 5       164.080          31.750  
C 3  36473394.658 6 189926541.361 6        46.604          36.250    36473394.305 5 146863245.929 5        35.867          31.250  
C 9  36741346.368 5 191321828.392 5     -1364.072          34.750    36741348.532 5 147942177.851 5     -1054.985          33.000  
> 2021  5 17  2 38 51.0000000  0 10                     
G 9  23114249.818 5 121466191.045 5     -2106.640          35.000    23114251.597 5  94648993.62615     -1641.537          33.500  
G21  20528667.283 6 107878881.930 6       657.384          41.000    20528664.529 5  84061435.540 5       512.248          30.500  
G 7  20922552.380 6 109948765.856 6      2051.020          39.500    20922550.057 6  85674349.076 6      1598.201          39.250  
C10  37343079.036 5 194455210.965 5        79.569          35.750    37343078.611 5 150365099.009 5        61.464          34.000  
C16  38193570.259 5 198883947.280 5     -1614.043          33.750    38193575.339 5 153789701.19625     -1247.931          30.250  
C27  21695818.671 6 112975820.701 6     -1231.194          40.250                                                                  
C30  22423482.875 6 116764965.814 6      1589.402          38.500                                                                  
C 7  36809058.034 5 191674417.554 5       211.810          32.000                                                                  
C 3  36473386.007 6 189926494.966 6        45.766          37.000                                                                  
C 9  36741608.608 5 191323193.327 5     -1366.093          35.250    36741610.526 5 147943233.277 5     -1056.141          34.000  
> 2021  5 17  2 38 52.0000000  0  6                     
G21  20528542.341 6 107878224.762 6       657.308          41.000    20528540.590 5  84060923.427 5       512.185          32.250  
G 7  20922162.248 6 109946715.635 6      2051.288          38.500    20922159.723 6  85672751.492 6      1598.407          38.000  
C27  21696055.022 6 112977051.514 6     -1230.863          40.750                                                                  
C30  22423177.591 6 116763376.145 6      1591.138          38.000                                                                  
C 7  36809017.376 5 191674211.97915       213.872          30.750                                                                  
C 9  36741870.856 5 191324559.203 5     -1364.517          32.500    36741872.945 5 147944289.459 5     -1055.282          32.250  
> 2021  5 17  2 38 53.0000000  0  9                     
G21  20528417.923 6 107877570.585 6       649.415          40.750    20528416.031 5  84060413.685 5       506.036          31.750  
G 7  20921772.541 6 109944667.770 6      2042.739          39.750    20921770.041 6  85671155.755 6      1591.746          40.000  
G 8  21175059.139 6 111275679.74216     -1998.832          39.750                                                                  
G 1  21339694.305 6 112140850.17216      2991.227          37.750                                                                  
C10  37343048.867 5 194455054.14425        73.755          33.750    37343048.597 5 150364977.700 5        58.144          32.250  
C27  21696291.955 6 112978285.278 6     -1238.039          41.500                                                                  
C30  22422872.631 6 116761788.187 6      1583.568          38.250                                                                  
C 7  36808977.042 6 191674002.19716       205.947          36.750                                                                  
C 9  36742133.568 5 191325930.39015     -1371.467          33.000    36742135.401 5 147945346.672 5     -1060.244          32.500  
> 2021  5 17  2 38 54.0000000  0 10                     
G21  20528294.355 6 107876922.183 6       649.483          40.750    20528292.686 5  84059908.449 5       506.094          30.000  
G 7  20921383.755 6 109942624.807 6      2043.526          40.000    20921381.430 6  85669563.836 6      1592.360          40.000  
G 8  21175438.177 5 111277679.95525     -2001.179          35.000                                                                  
R 9  20902873.384 5 111619786.27815      2600.247          34.750    20902876.509 5  86815408.22515      2022.415          30.250  
C10  37343034.859 5 194454981.01925        73.950          36.000    37343034.517 5 150364921.239 5        56.977          34.250  
C16  38194502.171 5 198888786.49425     -1619.353          35.500    38194507.101 5 153793452.43915     -1252.519          30.500  
C27  21696529.877 6 112979524.250 6     -1237.652          40.750                                                                  
C30  22422568.840 6 116760205.376 6      1583.907          40.000                                                                  
C 3  36473361.422 6 189926364.04416        40.828          37.500    36473358.722 5 146863109.60115        31.727          32.750  
C 9  36742396.831 5 191327302.47025     -1370.805          36.000    36742398.853 5 147946407.701 5     -1060.436          34.000  
> 2021  5 17  2 38 55.0000000  0 13                     
G 9  23115854.225 5 121474636.09615     -2108.731          34.250    23115860.042 5  94655572.65215     -1643.167          32.500  
G21  20528170.588 6 107876272.232 6       653.384          41.000    20528169.040 4  84059402.006 4       509.131          29.750  
G 7  20920994.818 6 109940580.898 6      2047.141          40.500    20920992.577 6  85667971.180 6      1595.176          39.000  
G 8  21175819.304 6 111279688.16916     -1994.081          38.750    21175821.817 6  86711450.88216     -1553.829          38.750  
R 9  20902388.005 5 111617184.60025      2603.163          33.250    20902387.371 4  86813384.64424      2024.682          26.250  
R16  20169918.115 5 107743729.93015       -42.615          34.250                                                                  
C10  37343020.471 5 194454906.36525        78.906          34.000    37343020.179 5 150364863.548 5        59.852          33.250  
C16  38194813.180 5 198890405.74925     -1616.170          34.250    38194818.075 5 153794704.56525     -1249.683          30.750  
C27  21696767.521 6 112980761.716 6     -1234.011          41.250                                                                  
C30  22422264.610 6 116758621.450 6      1586.991          38.750                                                                  
C 6  37757782.798 5 196614673.88115     -1534.935          31.250                                                                  
C 3  36473353.131 6 189926322.771 6        44.718          36.500    36473351.793 5 146863077.65725        34.466          32.750  
C 9  36742660.330 5 191328673.22525     -1367.626          34.750    36742661.740 5 147947467.611 5     -1057.411          33.750  
> 2021  5 17  2 38 56.0000000  0 12                     
G 9  23116257.860 5 121476743.393 5     -2107.534          35.250    23116256.643 5  94657214.770 5     -1642.235          34.000  
G21  20528045.979 6 107875617.091 6       655.060          40.500    20528043.596 5  84058891.496 5       510.441          33.250  
G 7  20920604.929 6 109938532.072 6      2049.207          40.250    20920602.763 6  85666374.689 6      1596.785          39.750  
R 9  20901899.518 6 111614577.98626      2604.991          36.250    20901900.979 5  86811357.22925      2026.104          32.000  
C10  37343005.072 6 194454826.47226        80.309          36.500    37343004.840 5 150364801.706 5        61.678          34.250  
C16  38195123.405 5 198892020.14725     -1614.311          34.750    38195126.973 4 153795952.97124     -1248.718          29.250  
C27  21697004.119 7 112981993.805 7     -1232.134          42.000                                                                  
C30  22421959.593 6 116757033.164 6      1588.276          39.000                                                                  
C 7  36808857.527 6 191673376.92716       213.032          37.500                                                                  
C 1  37405671.436 5 194781142.01315        51.536          33.750                                                                  
C 3  36473344.075 6 189926276.107 6        46.853          36.250    36473342.218 5 146863041.60625        36.183          31.000  
C 9  36742922.834 5 191330039.22625     -1365.789          35.500    36742923.597 5 147948523.901 5     -1056.077          33.500  
> 2021  5 17  2 38 57.0000000  0  9                     
G 9  23116656.804 5 121478851.224 5     -2109.702          36.000    23116659.322 5  94658857.231 5     -1643.923          35.000  
G21  20527921.232 6 107874960.806 6       653.980          40.500    20527918.469 5  84058380.138 5       509.603          30.500  
G 7  20920214.753 6 109936481.554 6      2049.428          40.250    20920212.586 6  85664776.875 6      1596.955          40.750  
C10  37342989.227 5 194454744.22125        81.304          35.250    37342989.028 5 150364738.041 5        63.356          32.500  
C27  21697240.300 6 112983223.564 6     -1230.158          42.000                                                                  
C30  22421654.568 6 116755444.748 6      1586.863          39.750                                                                  
C 7  36808816.250 6 191673161.07026       215.817          37.750    36808813.539 5 148213837.16515       167.207          32.250  
C 1  37405660.384 5 194781089.339 5        51.322          33.750                                                                  
C 9  36743184.985 5 191331405.07425     -1367.697          35.750    36743185.869 5 147949580.026 5     -1057.519          34.250  
> 2021  5 17  2 38 58.0000000  0  6                     
G 9  23117058.795 6 121480963.533 6     -2112.784          36.000    23117061.249 5  94660503.149 5     -1646.326          34.750  
G21  20527796.806 6 107874307.290 6       653.189          41.750    20527794.178 4  84057870.911 4       508.984          29.500  
G 7  20919824.865 6 109934432.782 6      2048.510          40.500    20919822.713 6  85663180.421 6      1596.238          38.750  
C10  37342973.488 5 194454662.677 5        82.739          34.000    37342973.386 5 150364675.075 5        63.460          31.250  
C30  22421350.187 6 116753860.191 6      1584.324          39.750                                                                  
C 9  36743448.126 6 191332774.692 6     -1369.286          36.250    36743448.636 5 147950639.064 5     -1058.801          34.500  
> 2021  5 17  2 38 59.0000000  0  5                     
G 9  23117460.241 5 121483075.947 5     -2112.403          35.000    23117461.152 5  94662149.215 5     -1646.029          33.750  
G21  20527672.242 6 107873653.021 6       654.169          40.500    20527669.773 5  84057361.094 5       509.745          32.250  
G 7  20919434.569 6 109932381.743 6      2050.711          40.250    20919432.437 6  85661582.197 6      1597.952          39.250  
C10  37342957.189 6 194454578.094 6        84.876          36.500    37342957.169 5 150364613.56215        66.159          33.250  
C30  22421045.778 6 116752275.284 6      1585.437          39.000                                                                  
> 2021  5 17  2 39  0.0000000  0  4                     
G21  20527547.985 6 107873000.118 6       651.558          40.750    20527545.128 5  84056852.322 5       507.708          33.500  
G 7  20919044.094 5 109930329.911 5      2052.953          33.750    20919042.167 4  85659983.377 4      1599.706          24.500  
C27  21697948.301 6 112986913.24016     -1228.313          38.000                                                                  
C 1  37405631.864 5 194780932.62715        49.729          33.750                                                                  
> 2021  5 17  2 39  1.0000000  0  4                     
G21  20527424.270 6 107872350.393 6       646.034          41.000    20527422.245 4  84056346.039 4       503.401          27.750  
G 1  21335138.409 6 112116911.256 6      2983.097          38.250                                                                  
C27  21698184.287 6 112988142.59026     -1232.108          40.500                                                                  
C 1  37405623.514 5 194780883.868 5        44.898          33.250                                                                  
> 2021  5 17  2 39  2.0000000  0  4                     
G21  20527301.914 6 107871707.452 6       640.216          41.750    20527300.244 5  84055845.017 5       498.865          30.750  
G 1  21334572.075 6 112113931.033 6      2977.575          37.750    21334573.410 5  87361515.35815      2320.189          35.500  
C27  21698422.235 6 112989377.34126     -1243.122          37.000                                                                  
C 1  37405614.098 5 194780841.918 5        39.176          34.750                                                                  
> 2021  5 17  2 39  3.0000000  0  3                     
G21  20527180.507 6 107871069.341 6       636.157          41.750    20527178.426 4  84055347.792 4       495.702          27.250  
G 1  21334006.646 6 112110955.832 6      2973.445          36.750    21334007.399 5  87359197.001 5      2316.970          32.500  
C 6  37760150.579 5 196627011.96215     -1554.799          31.250                                                                  
> 2021  5 17  2 39  4.0000000  0  4                     
G21  20527059.808 6 107870434.522 6       635.751          40.750    20527057.226 4  84054853.122 4       495.388          28.750  
G 1  21333440.875 6 112107983.659 6      2972.479          39.000    21333442.795 6  87356881.010 6      2316.217          37.250  
C27  21698896.492 5 112991844.80215     -1237.522          35.250                                                                  
C 3  36473283.217 6 189925955.49916        31.241          36.250                                                                  
> 2021  5 17  2 39  5.0000000  0  4                     
G21  20526938.901 6 107869799.458 6       634.193          40.250    20526936.068 4  84054358.275 4       494.174          27.250  
C27  21699132.670 5 112993079.96125     -1234.708          36.000                                                                  
C 1  37405594.106 4 194780739.08224        34.755          28.250                                                                  
C 3  36473277.237 5 189925923.276 5        32.342          33.750    36473275.345 5 146862773.31425        24.373          31.500  
> 2021  5 17  2 39  6.0000000  0  3                     
R16  20170001.065 5 107744152.78115       -51.335          34.000                                                                  
C27  21699371.160 6 112994314.88826     -1234.317          39.000                                                                  
C 1  37405588.352 5 194780704.74015        32.786          32.000                                                                  
> 2021  5 17  2 39  7.0000000  0  4                     
G 1  21331747.231 5 112099083.16815      2969.455          35.250    21331746.813 5  87349933.52315      2313.861          32.250  
R16  20170013.699 5 107744206.42325       -55.305          34.000    20170014.641 4  83801054.02814       -43.015          29.000  
C27  21699608.810 6 112995551.39326     -1236.903          38.000                                                                  
C 1  37405582.067 5 194780674.477 5        29.086          35.250                                                                  
> 2021  5 17  2 39  8.0000000  0  5                     
G21  20526578.103 6 107867900.62426       632.313          41.000    20526575.740 5  84052896.00115       492.712          32.000  
G 1  21331177.726 6 112096102.44316      2976.407          36.750    21331180.990 5  87347616.33015      2319.278          35.750  
R16  20170024.852 5 107744262.71125       -56.232          35.500    20170024.771 4  83801097.85424       -43.736          29.500  
C27  21699845.619 6 112996789.63426     -1238.946          42.000                                                                  
C 1  37405575.622 5 194780644.755 5        31.901          35.000                                                                  
> 2021  5 17  2 39  9.0000000  0  7                     
G21  20526458.374 6 107867268.94126       631.585          41.500    20526453.667 4  84052403.68624       492.144          28.750  
G 7  20915534.976 6 109911877.29016      2048.698          39.750    20915529.461 6  85645596.14616      1596.388          40.000  
G 1  21330612.717 5 112093125.74525      2977.208          33.500    21330615.284 5  87345296.78625      2319.902          30.500  
R16  20170037.810 5 107744320.596 5       -60.572          33.000    20170035.181 5  83801143.28525       -47.111          30.250  
C27  21700084.337 6 112998030.400 6     -1242.554          41.500                                                                  
C 1  37405570.514 5 194780613.394 5        32.048          34.250                                                                  
C 3  36473250.474 5 189925791.354 5        37.652          35.500    36473247.772 5 146862667.18915        29.254          32.750  
> 2021  5 17  2 39 10.0000000  0  9                     
G21  20526338.799 6 107866638.19026       626.882          42.000    20526334.499 4  84051912.16324       488.479          29.250  
G 7  20915144.027 6 109909831.21426      2039.913          41.000    20915140.776 6  85644001.65626      1589.543          40.250  
G 1  21330044.168 5 112090141.19915      2975.398          34.250    21330048.185 5  87342975.83115      2318.492          31.250  
R16  20170049.011 5 107744382.637 5       -67.601          31.750    20170047.726 4  83801191.55024       -52.578          28.500  
R19  19446499.422 4 104025262.78524     -1445.876          29.500                                                                  
C27  21700323.580 7 112999275.228 7     -1250.111          42.000                                                                  
C30  22417713.818 6 116734922.44816      1580.763          37.000                                                                  
C 1  37405564.442 5 194780581.965 5        28.153          35.250                                                                  
C 3  36473240.765 5 189925752.441 5        35.814          34.500    36473242.094 5 146862637.02725        28.494          32.250  
> 2021  5 17  2 39 11.0000000  0  8                     
G21  20526218.565 6 107866009.51326       632.397          41.500    20526215.212 4  84051422.32324       492.777          29.000  
G 7  20914756.256 6 109907789.91326      2043.651          40.750    20914753.959 6  85642410.99526      1592.455          40.500  
G 8  21181882.273 6 111311541.70816     -2007.991          37.750                                                                  
G 1  21329477.509 6 112087161.11226      2986.587          38.750    21329479.729 6  87340653.68026      2327.210          37.750  
R16  20170060.394 4 107744465.46414       -66.240          30.000    20170061.593 4  83801243.92414       -51.520          27.750  
C27  21700563.711 6 113000525.604 6     -1249.355          40.250                                                                  
C 3  36473234.883 6 189925712.754 6        45.349          36.750    36473233.790 5 146862606.42125        35.086          33.250  
C 9  36746878.541 5 191350644.64525     -1359.408          33.000    36746881.899 5 147964457.27225     -1050.873          32.250  
> 2021  5 17  2 39 12.0000000  0  6                     
G21  20526098.393 6 107865376.33226       634.265          40.750    20526094.636 5  84050928.96325       494.232          32.000  
G 7  20914366.282 6 109905744.64426      2047.918          41.250    20914363.683 6  85640817.28226      1595.780          40.250  
G 8  21182264.522 6 111313549.83526     -2009.388          38.250                                                                  
C10  37342737.435 5 194453436.72615        87.214          35.250    37342738.156 5 150363728.67415        67.217          32.250  
C27  21700803.722 6 113001774.902 6     -1249.930          40.750                                                                  
C 7  36808195.529 5 191669928.17325       202.622          35.500    36808197.461 5 148211350.88215       156.790          33.750  
> 2021  5 17  2 39 13.0000000  0  4                     
G 7  20913976.988 6 109903694.460 6      2047.407          36.750    20913972.911 5  85639219.638 5      1595.382          35.000  
G 8  21182647.461 6 111315559.525 6     -2010.502          41.500    21182647.864 6  86739402.16316     -1566.625          41.250  
C10  37342722.886 6 194453347.41526        91.896          36.000    37342720.858 5 150363659.58725        71.330          33.750  
C 7  36808156.474 5 191669725.40325       202.683          35.250    36808154.701 5 148211194.09325       156.930          34.500  
> 2021  5 17  2 39 15.0000000  0  2                     
G21  20525737.488 6 107863483.16316       625.522          40.000                                                                  
G 1  21327201.434 6 112075190.10816      2988.551          36.750    21327201.073 5  87331323.11515      2328.741          35.750  
> 2021  5 17  2 39 16.0000000  0  5                     
G21  20525618.688 6 107862858.63626       623.386          39.750    20525613.463 5  84048968.42225       485.756          30.750  
G 7  20912804.873 6 109897528.84816      2052.560          40.000    20912802.833 6  85634432.80816      1599.397          40.000  
G 1  21326630.610 5 112072203.06625      2984.889          35.750    21326634.145 5  87328995.41725      2325.887          34.750  
R16  20170132.588 5 107744842.07625       -83.050          32.750                                                                  
C27  21701764.971 7 113006779.39117     -1252.897          43.750                                                                  
