     3.03           OBSERVATION DATA    M: Mixed            RINEX VERSION / TYPE
RTKCONV demo5 b33c                      20210520 090433 UTC PGM / RUN BY / DATE 
log: C:\Users\Ivan_PolyU_Dktp\Dropbox\HUAWEI Exp\20210518_  COMMENT             
format: RINEX                                               COMMENT             
Geo++                                                       MARKER NAME         
                                                            MARKER NUMBER       
                                                            MARKER TYPE         
                                                            OBSERVER / AGENCY   
unknown             HUAWEI              ELS-AN00            REC # / TYPE / VERS 
unknown             ELS-AN00                                ANT # / TYPE        
 -2419219.6360  5385467.2026  2405342.6703                  APPROX POSITION XYZ 
        0.0000        0.0000        0.0000                  ANTENNA: DELTA H/E/N
G    8 C1C L1C D1C S1C C5Q L5Q D5Q S5Q                      SYS / # / OBS TYPES 
R    4 C1C L1C D1C S1C                                      SYS / # / OBS TYPES 
E    4 C5Q L5Q D5Q S5Q                                      SYS / # / OBS TYPES 
J    8 C1C L1C D1C S1C C5Q L5Q D5Q S5Q                      SYS / # / OBS TYPES 
C    4 C2I L2I D2I S2I                                      SYS / # / OBS TYPES 
  2021     5    18     3     7   14.9981320     GPS         TIME OF FIRST OBS   
  2021     5    18     4     3   21.9990193     GPS         TIME OF LAST OBS    
G                                                           SYS / PHASE SHIFT   
R                                                           SYS / PHASE SHIFT   
E                                                           SYS / PHASE SHIFT   
J                                                           SYS / PHASE SHIFT   
C                                                           SYS / PHASE SHIFT   
  3 R01  1 R09 -2 R17  4                                    GLONASS SLOT / FRQ #
 C1C    0.000 C1P    0.000 C2C    0.000 C2P    0.000        GLONASS COD/PHS/BIS 
                                                            END OF HEADER       
> 2021  5 18  3  7 14.9981320  0  6                     
C10  37272901.907 1 194089976.204 1      -741.358          25.000  
C23  23085966.418 1 120214653.252 1     -2647.178          25.000  
C37  22086159.770 1 115008422.027 1        70.490          41.000  
G 7  20340046.479 1 106887659.348 1        -4.592          31.000                                                                  
G21  20529444.261 1 107882944.539 1     -1654.439          31.000                                                                  
J 3  38975685.894 1 204818609.904 1     -1809.267          25.000                                                                  
> 2021  5 18  3  7 15.9981315  0  8                     
C10  37272893.513 1 194089935.875 1      -740.048          24.000  
C13  38598379.998 1 200991861.11811       547.114          24.000  
C23  23086322.871 1 120216519.503 1     -2648.011          25.000  
C37  22085996.683 1 115007570.990 1        69.954          40.000  
G 1  20405525.049 1 107231553.15111       983.618          13.000                                                                  
G 7  20339900.180 1 106886876.690 1        -7.501          31.000                                                                  
G21  20529615.143 1 107883812.607 1     -1655.788          30.000                                                                  
J 3  38975880.160 1 204819631.127 1     -1808.868          25.000                                                                  
> 2021  5 18  3  7 16.9981307  0  8                     
C10  37272796.380 1 194089426.159 1      -737.429          24.000  
C13  38598036.735 1 200990064.956 1       547.037          22.000  
C23  23086591.185 1 120217918.249 1     -2647.334          24.000  
C37  22085743.358 1 115006251.927 1        69.700          40.000  
G 7  20339657.048 1 106885622.014 1        -5.270          30.000                                                                  
G21  20529683.496 1 107884208.604 1     -1656.015          30.000                                                                  
J 3  38975983.888 1 204820179.557 1     -1807.903          25.000                                                                  
R21  20193695.296 1 108060542.57611       985.821          17.000  
> 2021  5 18  3  7 17.9981302  0  9                     
C10  37272788.286 1 194089383.465 1      -737.988          26.000  
C13  38597779.513 1 200988737.189 1       547.664          24.000  
C23  23086950.037 1 120219784.518 1     -2646.139          24.000  
C37  22085579.072 1 115005401.376 1        70.032          40.000  
G 1  20404763.876 1 107227538.12511       983.362          17.000                                                                  
G 7  20339505.953 1 106884840.410 1        -7.399          30.000                                                                  
G21  20529850.780 1 107885077.648 1     -1654.590          30.000                                                                  
J 3  38976176.954 1 204821199.441 1     -1807.083          24.000                                                                  
R21  20193368.822 1 108058794.984 1       985.059          18.000  
> 2021  5 18  3  7 18.9981294  0  7                     
C10  37272691.153 1 194088872.207 1      -737.536          25.000  
C13  38597434.452 1 200986940.097 1       548.061          24.000  
C23  23087220.150 1 120221182.577 1     -2649.036          22.000  
C37  22085326.347 1 115004082.620 1        69.467          40.000  
G 7  20339265.819 1 106883586.404 1        -7.914          30.000                                                                  
G21  20529926.628 1 107885474.501 1     -1659.653          29.000                                                                  
J 3  38976278.884 1 204821746.710 1     -1808.142          23.000                                                                  
> 2021  5 18  3  7 19.9981289  0  8                     
C10  37272682.759 1 194088829.051 1      -737.249          26.000  
C13  38597179.629 1 200985611.531 1       548.319          24.000  
C28  22156304.609 1 115373587.13111     -2572.528          16.000  
C37  22085163.260 1 115003232.453 1        69.741          39.000  
G 1  20404000.305 1 107223521.74011       984.486          20.000                                                                  
G 7  20339119.820 1 106882805.682 1        -7.130          30.000                                                                  
G21  20530088.815 1 107886344.493 1     -1657.578          30.000                                                                  
J 3  38976471.950 1 204822766.336 1     -1806.581          25.000                                                                  
> 2021  5 18  3  7 20.9981281  0  9                     
C10  37272584.127 1 194088318.095 1      -738.563          26.000  
C13  38596834.567 1 200983814.154 1       548.844          25.000  
C37  22084909.935 1 115001914.062 1        68.946          40.000  
E27  25630052.584 1 100577830.75611       581.002          23.000  
G 1  20403573.100 1 107221278.261 1       982.251          25.000                                                                  
G 7  20338880.886 1 106881552.573 1        -7.464          31.000                                                                  
G21  20530161.365 1 107886742.173 1     -1658.142          30.000                                                                  
J 3  38976576.877 1 204823312.153 1     -1806.034          25.000                                                                  
R21  20192196.034 1 108052519.33011       984.340          18.000  
> 2021  5 18  3  7 21.9981274  0 10                     
C10  37272515.774 1 194087963.738 1      -737.954          26.000  
C13  38596523.083 1 200982173.242 1       546.933          23.000  
C23  23088144.410 1 120226005.86411     -2644.662          18.000  
C37  22084686.590 1 115000752.041 1        68.534          40.000  
E27  25629694.931 1 100576426.797 1       579.596          23.000  
G 1  20403177.374 1 107219193.503 1       981.556          24.000                                                                  
G 7  20338670.431 1 106880457.553 1        -9.183          31.000                                                                  
G21  20530267.492 1 107887298.012 1     -1657.978          30.000                                                                  
J 3  38976710.885 1 204824014.976 1     -1805.276          24.000                                                                  
R21  20191803.006 1 108050416.192 1       983.574          19.000  
> 2021  5 18  3  7 22.9981268  0  9                     
C10  37272476.801 1 194087765.310 1      -739.190          26.000  
C28  22157155.720 1 115378026.93511     -2570.889          16.000  
C37  22084493.223 1 114999746.380 1        68.725          40.000  
E27  25629366.359 1 100575140.399 1       580.712          25.000  
G 1  20402809.529 1 107217268.652 1       978.360          24.000                                                                  
G 7  20338492.954 1 106879520.565 1        -8.200          31.000                                                                  
G21  20530408.994 1 107888011.857 1     -1660.948          30.000                                                                  
J 3  38976874.271 1 204824875.631 1     -1806.708          24.000                                                                  
R21  20191445.953 1 108048505.127 1       983.645          19.000  
> 2021  5 18  3  7 23.9981263  0  8                     
C10  37272469.906 1 194087723.769 1      -739.413          25.000  
C13  38595984.656 1 200979366.51011       544.712          20.000  
C37  22084330.136 1 114998896.991 1        68.422          40.000  
E27  25629068.665 1 100573972.394 1       580.653          23.000  
G 1  20402473.162 1 107215502.524 1       978.497          24.000                                                                  
G 7  20338345.456 1 106878741.514 1        -9.593          32.000                                                                  
G21  20530573.879 1 107888883.640 1     -1660.198          30.000                                                                  
R21  20191117.081 1 108046745.985 1       982.226          19.000  
> 2021  5 18  3  7 24.9981256  0 10                     
C10  37272402.753 1 194087368.074 1      -737.460          26.000  
C13  38595669.874 1 200977727.897 1       546.398          25.000  
C28  22157782.287 1 115381295.88911     -2572.185          17.000  
C37  22084107.391 1 114997735.510 1        67.906          41.000  
E27  25628709.813 1 100572567.939 1       581.853          24.000  
G 1  20402077.436 1 107213421.510 1       978.747          22.000                                                                  
G 7  20338143.996 1 106877647.818 1       -10.074          32.000                                                                  
G21  20530672.811 1 107889440.756 1     -1662.091          30.000                                                                  
J 3  38977201.045 1 204826596.66111     -1805.971          23.000                                                                  
R21  20190722.853 1 108044635.558 1       981.539          20.000  
> 2021  5 18  3  7 25.9981248  0  9                     
C10  37272304.121 1 194086856.316 1      -737.330          24.000  
C13  38595322.114 1 200975930.730 1       548.245          25.000  
C28  22158035.611 1 115382618.833 1     -2571.007          19.000  
C37  22083854.066 1 114996418.035 1        68.576          40.000  
E27  25628322.482 1 100571044.809 1       580.490          24.000  
G 1  20401650.831 1 107211182.729 1       977.511          23.000                                                                  
G 7  20337902.663 1 106876396.796 1        -8.815          32.000                                                                  
G21  20530750.457 1 107889840.669 1     -1660.106          30.000                                                                  
R21  20190299.546 1 108042371.082 1       981.427          21.000  
> 2021  5 18  3  7 26.9981243  0  9                     
C10  37272298.725 1 194086811.826 1      -736.222          24.000  
C13  38595063.993 1 200974600.703 1       550.635          22.000  
C28  22158379.473 1 115384411.124 1     -2574.621          20.000  
C37  22083691.578 1 114995568.992 1        68.078          40.000  
E27  25628023.888 1 100569874.582 1       582.028          24.000  
G 1  20401313.864 1 107209415.696 1       979.632          23.000                                                                  
G21  20530918.341 1 107890713.675 1     -1662.206          30.000                                                                  
J 3  38977498.439 1 204828159.89311     -1805.902          24.000                                                                  
R21  20189969.475 1 108040604.893 1       980.659          21.000  
> 2021  5 18  3  7 27.9981235  0  9                     
C10  37272200.692 1 194086298.688 1      -735.452          25.000  
C23  23090004.023 1 120235786.20511     -2652.932          13.000  
C37  22083438.254 1 114994251.758 1        68.536          40.000  
E27  25627635.657 1 100568349.904 1       585.075          25.000  
G 1  20400886.360 1 107207174.116 1       981.783          23.000                                                                  
G 7  20337513.233 1 106874368.77711       -10.981          31.000                                                                  
G21  20530999.285 1 107891114.451 1     -1660.659          30.000                                                                  
J 3  38977601.568 1 204828703.913 1     -1803.902          24.000                                                                  
R21  20189548.267 1 108038350.107 1       980.104          21.000  
> 2021  5 18  3  7 28.9981230  0  7                     
C10  37272191.099 1 194086252.820 1      -734.877          23.000  
C13  38594460.211 1 200971472.77211       550.012          18.000  
C37  22083275.167 1 114993402.958 1        68.010          40.000  
E27  25627337.364 1 100567176.991 1       583.407          25.000  
G 7  20337369.632 1 106873591.537 1       -10.194          32.000                                                                  
G21  20531166.269 1 107891988.158 1     -1661.499          31.000                                                                  
R21  20189213.398 1 108036558.726 1       979.806          21.000  
> 2021  5 18  3  7 29.9981222  0  8                     
C10  37272090.669 1 194085739.267 1      -736.171          25.000  
C13  38594116.049 1 200969672.889 1       551.479          23.000  
C37  22083022.741 1 114992085.959 1        67.867          41.000  
E27  25626950.331 1 100565654.141 1       582.426          24.000  
G 1  20400121.889 1 107203167.20411       978.202          21.000                                                                  
G21  20531243.016 1 107892389.676 1     -1663.200          32.000                                                                  
J 3  38977895.964 1 204830262.60811     -1801.877          25.000                                                                  
R21  20188789.192 1 108034288.352 1       979.821          20.000  
> 2021  5 18  3  7 30.9981217  0  7                     
C10  37272080.476 1 194085694.078 1      -735.268          25.000  
C13  38593858.827 1 200968340.328 1       551.989          25.000  
C37  22082859.055 1 114991237.519 1        67.739          43.000  
E27  25626652.038 1 100564485.426 1       579.526          24.000  
G 7  20336978.403 1 106871565.81111        -9.726          32.000                                                                  
G21  20531402.806 1 107893264.322 1     -1662.046          30.000                                                                  
J 3  38978087.532 1 204831277.855 1     -1803.018          23.000                                                                  
> 2021  5 18  3  7 31.9981210  0 10                     
C 3  36458861.355 1 189850722.02111      -974.884          31.000  
C10  37272009.725 1 194085336.425 1      -735.238          24.000  
C13  38593541.347 1 200966695.240 1       551.766          28.000  
C37  22082636.609 1 114990077.077 1        67.347          44.000  
E27  25626293.786 1 100563081.106 1       581.507          24.000  
G 7  20336772.745 1 106870474.799 1       -13.507          33.000                                                                  
G21  20531504.735 1 107893824.347 1     -1662.682          31.000                                                                  
G30  22736811.933 1 119482752.27411      1854.082          26.000                                                                  
J 3  38978220.939 1 204831978.411 1     -1803.922          24.000                                                                  
R21  20188058.898 1 108030380.56411       979.261          20.000  
> 2021  5 18  3  7 32.9981202  0 10                     
C 3  36458808.892 1 189850447.528 1      -973.976          31.000  
C10  37271910.493 1 194084824.019 1      -736.726          24.000  
C37  22082383.884 1 114988760.843 1        67.399          41.000  
E27  25625905.555 1 100561558.599 1       582.683          24.000  
G 1  20398957.496 1 107197085.99211       976.175          19.000                                                                  
G 7  20336535.909 1 106869226.865 1       -12.623          32.000                                                                  
G21  20531586.878 1 107894227.388 1     -1663.287          31.000                                                                  
G30  22736220.742 1 119479638.209 1      1853.270          26.000                                                                  
J 3  38978326.466 1 204832522.048 1     -1803.773          24.000                                                                  
R21  20187635.890 1 108028116.802 1       977.679          20.000  
> 2021  5 18  3  7 33.9981199  0 11                     
C 3  36458906.624 1 189850953.149 1      -974.085          28.000  
C10  37271959.659 1 194085092.156 1      -736.138          26.000  
C28  22160530.784 1 115395569.19111     -2576.741          26.000  
C37  22082281.355 1 114988225.222 1        67.133          41.000  
E27  25625666.021 1 100560622.935 1       583.166          25.000  
G 1  20398679.888 1 107195637.261 1       975.317          19.000                                                                  
G 7  20336448.670 1 106868766.897 1       -12.528          34.000                                                                  
G21  20531815.620 1 107895418.516 1     -1663.858          32.000                                                                  
G30  22735777.948 1 119477312.211 1      1852.185          26.000                                                                  
J 3  38978579.491 1 204833852.928 1     -1803.969          24.000                                                                  
R21  20187363.379 1 108026658.789 1       977.468          21.000  
> 2021  5 18  3  7 34.9981192  0 10                     
C10  37271888.908 1 194084734.652 1      -735.102          26.000  
C28  22160815.587 1 115397052.301 1     -2574.871          27.000  
C37  22082057.710 1 114987065.393 1        66.897          43.000  
E27  25625307.769 1 100559216.864 1       581.726          24.000  
G 1  20398280.564 1 107193559.330 1       974.911          19.000                                                                  
G 7  20336241.513 1 106867677.337 1       -13.789          34.000                                                                  
G21  20531922.046 1 107895979.963 1     -1663.582          32.000                                                                  
G30  22735216.737 1 119474357.227 1      1852.333          27.000                                                                  
J 3  38978711.999 1 204834554.505 1     -1803.810          24.000                                                                  
R21  20186974.548 1 108024577.670 1       977.052          21.000  
> 2021  5 18  3  7 35.9981184  0  9                     
C10  37271789.377 1 194084220.446 1      -734.641          26.000  
C28  22161070.410 1 115398378.645 1     -2575.450          26.000  
C37  22081804.985 1 114985749.598 1        66.948          43.000  
E27  25624919.537 1 100557693.741 1       582.588          24.000  
G 7  20336006.176 1 106866430.605 1       -15.112          33.000                                                                  
G21  20532000.292 1 107896384.262 1     -1665.536          32.000                                                                  
G30  22734626.446 1 119471244.626 1      1852.316          26.000                                                                  
J 3  38978814.528 1 204835096.937 1     -1802.579          24.000                                                                  
R21  20186554.239 1 108022329.211 1       976.597          21.000  
> 2021  5 18  3  7 36.9981176  0  9                     
C10  37271690.745 1 194083706.731 1      -735.426          25.000  
C13  38591998.316 1 200958638.16511       550.607          17.000  
C28  22161322.835 1 115399705.040 1     -2575.367          24.000  
C37  22081552.559 1 114984434.016 1        66.665          42.000  
E27  25624531.006 1 100556169.688 1       583.010          25.000  
G 7  20335768.141 1 106865184.227 1       -14.086          33.000                                                                  
G21  20532075.840 1 107896789.033 1     -1665.437          32.000                                                                  
G30  22734034.655 1 119468131.345 1      1853.180          27.000                                                                  
J 3  38978915.558 1 204835639.706 1     -1803.265          23.000                                                                  
> 2021  5 18  3  7 37.9981171  0 11                     
C10  37271681.152 1 194083660.777 1      -734.037          25.000  
C13  38591742.593 1 200957305.802 1       553.965          17.000  
C28  22161666.398 1 115401498.832 1     -2573.753          23.000  
C37  22081390.971 1 114983586.814 1        66.358          41.000  
E27  25624232.113 1 100554998.487 1       584.313          24.000  
G 1  20397078.696 1 107187321.37811       977.685          18.000                                                                  
G 7  20335626.339 1 106864410.950 1       -15.006          32.000                                                                  
G21  20532244.923 1 107897666.768 1     -1666.240          31.000                                                                  
G30  22733532.203 1 119465490.320 1      1854.180          26.000                                                                  
J 3  38979108.025 1 204836655.860 1     -1805.199          22.000                                                                  
R21  20185810.754 1 108018350.44811       974.787          21.000  
> 2021  5 18  3  7 38.9981166  0 10                     
C10  37271674.856 1 194083614.025 1      -733.851          24.000  
C13  38591490.167 1 200955972.765 1       552.123          17.000  
C28  22162008.461 1 115403292.169 1     -2574.115          23.000  
C37  22081228.184 1 114982739.750 1        66.417          39.000  
E27  25623933.520 1 100553827.385 1       585.021          24.000  
G 1  20396739.931 1 107185557.468 1       974.936          18.000                                                                  
G 7  20335477.942 1 106863637.923 1       -14.207          32.000                                                                  
G21  20532409.509 1 107898544.850 1     -1666.512          30.000                                                                  
G30  22733029.751 1 119462848.434 1      1854.404          24.000                                                                  
J 3  38979302.890 1 204837672.375 1     -1803.339          22.000                                                                  
> 2021  5 18  3  7 39.9981158  0  9                     
C10  37271575.625 1 194083097.359 1      -731.991          24.000  
C28  22162262.385 1 115404618.157 1     -2574.963          24.000  
C37  22080975.459 1 114981424.505 1        65.930          40.000  
E27  25623544.389 1 100552301.611 1       584.984          24.000  
G 1  20396313.026 1 107183322.833 1       973.739          19.000                                                                  
G 7  20335238.108 1 106862392.702 1       -16.447          33.000                                                                  
G21  20532483.557 1 107898950.799 1     -1664.993          31.000                                                                  
G30  22732437.361 1 119459733.986 1      1853.340          26.000                                                                  
J 3  38979405.419 1 204838213.817 1     -1800.571          22.000                                                                  
> 2021  5 18  3  7 40.9981153  0  7                     
C10  37271568.730 1 194083048.822 1      -732.001          25.000  
C28  22162607.146 1 115406413.289 1     -2576.631          24.000  
C37  22080813.271 1 114980577.649 1        65.635          41.000  
G 1  20395976.959 1 107181561.712 1       972.910          18.000                                                                  
G21  20532655.638 1 107899829.618 1     -1667.014          32.000                                                                  
G30  22731934.609 1 119457093.282 1      1852.807          26.000                                                                  
J 3  38979599.685 1 204839226.495 1     -1800.402          24.000                                                                  
> 2021  5 18  3  7 41.9981146  0  6                     
C10  37271499.478 1 194082687.481 1      -731.642          24.000  
C28  22162893.448 1 115407896.930 1     -2575.613          25.000  
C37  22080590.525 1 114979418.793 1        65.894          41.000  
G 7  20334882.254 1 106860533.53211       -13.973          32.000                                                                  
G21  20532758.467 1 107900393.851 1     -1668.871          32.000                                                                  
G30  22731373.398 1 119454138.673 1      1851.620          26.000                                                                  
> 2021  5 18  3  7 42.9981138  0  7                     
C10  37271401.446 1 194082169.537 1      -730.405          25.000  
C37  22080338.100 1 114978103.946 1        66.290          41.000  
G 1  20395158.825 1 107177254.44011       972.221          19.000                                                                  
G 7  20334645.118 1 106859289.406 1       -15.388          31.000                                                                  
G21  20532837.612 1 107900800.981 1     -1668.728          32.000                                                                  
G30  22730781.308 1 119451025.420 1      1852.634          26.000                                                                  
J 3  38979831.424 1 204840464.38111     -1800.003          22.000                                                                  
> 2021  5 18  3  7 43.9981133  0  9                     
C10  37271392.752 1 194082118.837 1      -729.730          25.000  
C28  22163497.830 1 115411020.00111     -2577.078          24.000  
C37  22080175.313 1 114977257.494 1        65.897          41.000  
G 1  20394823.657 1 107175494.391 1       972.314          24.000                                                                  
G 7  20334504.515 1 106858518.381 1       -18.374          31.000                                                                  
G 8  21983068.638 1 115521804.44311     -3267.968          25.000                                                                  
G21  20533009.094 1 107901681.068 1     -1667.735          32.000                                                                  
G30  22730278.855 1 119448385.316 1      1852.578          26.000                                                                  
J 3  38980022.392 1 204841475.963 1     -1799.205          24.000                                                                  
> 2021  5 18  3  7 44.9981128  0  7                     
C10  37271383.458 1 194082067.602 1      -729.861          24.000  
C37  22080012.226 1 114976410.999 1        66.095          40.000  
G 1  20394492.087 1 107173734.515 1       971.907          24.000                                                                  
G 7  20334353.720 1 106857747.519 1       -17.405          31.000                                                                  
G 8  21983543.809 1 115524284.517 1     -3267.623          24.000                                                                  
G21  20533173.680 1 107902561.585 1     -1668.024          30.000                                                                  
J 3  38980212.760 1 204842487.549 1     -1800.427          24.000                                                                  
> 2021  5 18  3  7 45.9981120  0  7                     
C10  37271283.028 1 194081547.285 1      -729.085          26.000  
C28  22164099.213 1 115414143.98511     -2575.721          24.000  
C37  22079759.501 1 114975095.930 1        66.141          39.000  
G 1  20394067.881 1 107171503.086 1       970.875          22.000                                                                  
G 7  20334121.081 1 106856504.143 1       -17.268          30.000                                                                  
G 8  21983923.646 1 115526291.316 1     -3267.207          17.000                                                                  
G21  20533250.427 1 107902970.338 1     -1670.161          26.000                                                                  
> 2021  5 18  3  7 46.9981112  0  7                     
C10  37271182.897 1 194081026.327 1      -727.866          28.000  
C28  22164356.735 1 115415470.659 1     -2575.499          27.000  
C37  22079506.476 1 114973780.558 1        67.261          39.000  
G 7  20333882.746 1 106855261.098 1       -17.303          24.000                                                                  
G 8  21984313.077 1 115528299.119 1     -3268.268          18.000                                                                  
G21  20533325.674 1 107903379.842 1     -1669.688          26.000                                                                  
G30  22728590.424 1 119439524.66611      1849.788          16.000                                                                  
> 2021  5 18  3  7 47.9981107  0  8                     
C10  37271172.404 1 194080973.294 1      -727.265          32.000  
C28  22164704.494 1 115417265.924 1     -2576.782          24.000  
C37  22079341.890 1 114972933.160 1        66.798          40.000  
G 1  20393311.204 1 107167515.18011       967.265          23.000                                                                  
G 7  20333735.848 1 106854490.634 1       -17.482          32.000                                                                  
G 8  21984788.847 1 115530778.329 1     -3265.255          23.000                                                                  
G21  20533491.759 1 107904261.549 1     -1669.681          27.000                                                                  
J 3  38980620.778 1 204844580.03411     -1798.416          19.000                                                                  
> 2021  5 18  3  7 48.9981100  0  8                     
C10  37271101.953 1 194080606.730 1      -726.537          27.000  
C28  22164991.696 1 115418750.023 1     -2577.523          27.000  
C37  22079120.343 1 114971773.361 1        66.398          38.000  
G 1  20392917.277 1 107165444.527 1       969.069          19.000                                                                  
G 7  20333528.091 1 106853405.530 1       -18.249          31.000                                                                  
G21  20533599.985 1 107904829.280 1     -1670.527          23.000                                                                  
G30  22727530.358 1 119433932.63511      1850.895          17.000                                                                  
J 3  38980755.984 1 204845275.046 1     -1798.854          25.000                                                                  
> 2021  5 18  3  7 49.9981094  0  7                     
C10  37271061.481 1 194080395.827 1      -724.476          29.000  
C28  22165309.176 1 115420390.380 1     -2576.370          25.000  
C37  22078929.975 1 114970769.642 1        67.350          38.000  
G 1  20392556.627 1 107163529.998 1       967.904          21.000                                                                  
G 7  20333350.914 1 106852478.757 1       -18.567          32.000                                                                  
G21  20533736.690 1 107905554.772 1     -1670.264          20.000                                                                  
J 3  38980919.071 1 204846127.583 1     -1797.715          23.000                                                                  
> 2021  5 18  3  7 50.9981089  0  8                     
C10  37271049.789 1 194080339.948 1      -724.924          29.000  
C28  22165658.134 1 115422185.721 1     -2576.205          23.000  
C37  22078766.888 1 114969922.357 1        66.810          37.000  
G 7  20333203.716 1 106851709.491 1       -18.444          30.000                                                                  
G 8  21986112.431 1 115537735.85411     -3263.788          24.000                                                                  
G21  20533903.974 1 107906436.952 1     -1669.217          26.000                                                                  
G30  22726497.273 1 119428496.26311      1852.140          18.000                                                                  
J 3  38981113.637 1 204847138.808 1     -1798.927          25.000                                                                  
> 2021  5 18  3  7 51.9981082  0  8                     
C10  37270980.237 1 194079972.484 1      -725.674          30.000  
C28  22165944.436 1 115423668.764 1     -2575.276          22.000  
C37  22078543.542 1 114968763.294 1        66.030          39.000  
G 1  20391830.529 1 107159706.19211       967.357          24.000                                                                  
G 7  20332995.960 1 106850625.250 1       -18.913          35.000                                                                  
G 8  21986521.948 1 115539896.796 1     -3263.604          25.000                                                                  
G21  20534005.604 1 107907003.640 1     -1670.268          24.000                                                                  
J 3  38981247.044 1 204847835.054 1     -1798.931          26.000                                                                  
> 2021  5 18  3  7 52.9981074  0  8                     
C10  37270879.507 1 194079449.584 1      -726.739          27.000  
C28  22166197.761 1 115424996.608 1     -2576.372          22.000  
C37  22078291.117 1 114967448.369 1        66.438          39.000  
G 7  20332760.623 1 106849384.147 1       -19.825          34.000                                                                  
G 8  21986903.284 1 115541899.890 1     -3263.757          20.000                                                                  
G21  20534082.351 1 107907415.423 1     -1673.400          22.000                                                                  
G30  22725338.276 1 119422428.67211      1852.723          18.000                                                                  
J 3  38981352.871 1 204848373.585 1     -1797.596          21.000                                                                  
> 2021  5 18  3  7 53.9981066  0  4                     
C37  22078038.092 1 114966134.355 1        63.878          40.000  
G 1  20390986.914 1 107155250.17311       966.292          24.000                                                                  
G 7  20332531.881 1                       -21.830          34.000                                                                  
G 8  21987284.320 1 115543903.212 1     -3263.952          25.000                                                                  
> 2021  5 18  3  7 54.9981064  0  3                     
C37  22077966.442 1 114965758.054 1        64.325          41.000  
G 7  20332471.923 1                       -20.332          31.000                                                                  
G21  20534419.317 1 107909184.02011     -1672.760          27.000                                                                  
> 2021  5 18  3  7 55.9981056  0  6                     
C10  37270758.990 1 194078814.15411      -722.764          18.000  
C28  22167151.400 1 115429919.08211     -2576.873          17.000  
C37  22077714.916 1 114964445.179 1        63.820          42.000  
G 7  20332239.883 1 106846643.85511       -21.036          30.000                                                                  
G 8  21988223.570 1 115548859.53511     -3268.052          26.000                                                                  
G21  20534497.563 1 107909597.078 1     -1673.653          26.000                                                                  
> 2021  5 18  3  7 56.9981048  0  6                     
C28  22167407.123 1 115431246.171 1     -2576.243          18.000  
C37  22077460.692 1 114963132.330 1        64.164          41.000  
G 1  20389890.872 1 107149513.85011       966.916          19.000                                                                  
G 7  20332001.548 1 106845405.358 1       -20.358          32.000                                                                  
G 8  21988604.306 1 115550867.003 1     -3267.096          26.000                                                                  
G21  20534576.409 1 107910010.477 1     -1674.217          27.000                                                                  
> 2021  5 18  3  7 57.9981043  0  6                     
C13  38585780.320 1 200926302.56411       555.991          26.000  
C28  22167749.187 1 115433041.904 1     -2576.656          19.000  
C37  22077300.303 1 114962287.596 1        64.037          40.000  
G 1  20389559.302 1 107147758.714 1       967.962          20.000                                                                  
G 7  20331855.549 1 106844639.671 1       -21.112          32.000                                                                  
G21  20534747.890 1 107910897.055 1     -1674.482          28.000                                                                  
> 2021  5 18  3  7 58.9981036  0  6                     
C13  38585462.840 1 200924654.533 1       554.523          23.000  
C37  22077077.557 1 114961130.568 1        64.701          40.000  
G 7  20331648.992 1 106843559.166 1       -25.026          34.000                                                                  
G 8  21989481.799 1 115555510.62311     -3266.930          21.000                                                                  
G21  20534858.513 1 107911469.142 1     -1675.105          28.000                                                                  
G30  22722078.632 1 119405326.76011      1852.978          17.000                                                                  
> 2021  5 18  3  7 59.9981028  0  8                     
C10  37270479.884 1 194077343.67311      -726.201          20.000  
C13  38585115.980 1 200922851.182 1       554.199          21.000  
C28  22168284.316 1 115435853.87111     -2577.377          23.000  
C37  22076826.031 1 114959817.265 1        64.832          40.000  
G 1  20388747.464 1 107143461.82911       966.338          21.000                                                                  
G 7  20331413.355 1 106842321.709 1       -26.619          31.000                                                                  
G 8  21989861.036 1 115557516.563 1     -3265.856          21.000                                                                  
G21  20534938.258 1 107911884.736 1     -1676.211          28.000                                                                  
> 2021  5 18  3  8  0.9981023  0  7                     
C10  37270472.389 1 194077289.889 1      -726.525          25.000  
C28  22168624.281 1 115437651.059 1     -2577.074          26.000  
C37  22076663.844 1 114958972.681 1        63.969          40.000  
G 1  20388411.996 1 107141708.336 1       964.593          24.000                                                                  
G 7  20331269.755 1 106841556.959 1       -24.282          31.000                                                                  
G 8  21990330.811 1 115559994.826 1     -3265.743          23.000                                                                  
G21  20535107.041 1 107912773.139 1     -1676.669          27.000                                                                  
> 2021  5 18  3  8  1.9981018  0  8                     
C10  37270461.896 1 194077235.087 1      -726.450          27.000  
C28  22168965.445 1 115439447.385 1     -2576.542          26.000  
C37  22076500.757 1 114958128.158 1        63.828          41.000  
G 1  20388079.526 1 107139957.906 1       961.766          24.000                                                                  
G 7  20331128.553 1 106840792.650 1       -20.313          32.000                                                                  
G 8  21990801.785 1 115562471.582 1     -3263.801          23.000                                                                  
G21  20535278.223 1 107913662.980 1     -1677.469          27.000                                                                  
G30  22720485.535 1 119396934.69811      1851.370          17.000                                                                  
> 2021  5 18  3  8  2.9981010  0  8                     
C10  37270363.264 1 194076710.823 1      -724.528          23.000  
C13  38584264.270 1 200918388.69811       547.753          18.000  
C28  22169218.170 1 115440775.158 1     -2576.721          31.000  
C37  22076248.931 1 114956814.912 1        64.623          40.000  
G 1  20387655.620 1 107137735.431 1       963.303          24.000                                                                  
G 7  20330890.817 1 106839555.957 1       -24.532          30.000                                                                  
G 8  21991185.219 1 115564474.165 1     -3262.457          22.000                                                                  
G21  20535363.364 1 107914079.015 1     -1676.225          21.000                                                                  
> 2021  5 18  3  8  3.9981002  0  7                     
C10  37270262.834 1 194076185.623 1      -723.736          23.000  
C13  38583919.209 1 200916592.210 1       547.389          24.000  
C28  22169469.995 1 115442102.270 1     -2575.091          35.000  
C37  22075995.906 1 114955499.969 1        66.592          39.000  
G 7  20330653.082 1 106838320.712 1       -26.045          30.000                                                                  
G 8  21991566.255 1 115566475.328 1     -3258.509          23.000                                                                  
G21  20535444.008 1 107914494.825 1     -1676.138          22.000                                                                  
> 2021  5 18  3  8  4.9980997  0  8                     
C10  37270248.444 1 194076126.219 1      -719.782          23.000  
C13  38583663.486 1 200915265.341 1       545.577          22.000  
C28  22169812.358 1 115443895.838 1     -2573.678          36.000  
C37  22075834.318 1 114954652.501 1        66.453          39.000  
G 1  20386899.243 1 107133765.62411       958.894          26.000                                                                  
G 7  20330505.584 1 106837558.142 1       -24.667          28.000                                                                  
G21  20535609.793 1 107915383.436 1     -1675.680          24.000                                                                  
G30  22718798.303 1 119388068.04911      1848.967          18.000                                                                  
> 2021  5 18  3  8  5.9980992  0  8                     
C10  37270236.152 1 194076065.056 1      -719.500          22.000  
C13  38583407.163 1 200913939.605 1       546.299          24.000  
C28  22170156.520 1 115445688.549 1     -2572.306          35.000  
C37  22075671.830 1 114953805.380 1        65.654          39.000  
G 1  20386566.774 1 107132019.034 1       958.340          25.000                                                                  
G 7  20330360.484 1 106836795.505 1       -26.443          26.000                                                                  
G 8  21992509.702 1 115571412.39311     -3254.751          22.000                                                                  
G21  20535776.478 1 107916271.361 1     -1676.131          21.000                                                                  
> 2021  5 18  3  8  6.9980984  0  8                     
C10  37270131.525 1 194075535.325 1      -718.143          22.000  
C13  38583059.704 1 200912143.250 1       546.502          25.000  
C28  22170411.643 1                     -2567.969          34.000  
C37  22075417.606 1 114952489.104 1        68.484          38.000  
G 1  20386141.968 1 107129801.943 1       955.485          23.000                                                                  
G 7  20330127.845 1 106835561.075 1       -25.508          22.000                                                                  
G 8  21992888.340 1 115573406.825 1     -3258.143          22.000                                                                  
G21  20535853.824 1 107916687.616 1     -1677.045          25.000                                                                  
> 2021  5 18  3  8  7.9980979  0  7                     
C13  38582805.779 1 200910815.955 1       547.986          19.000  
C28  22170756.405 1 115448940.46111     -2570.465          35.000  
C37  22075256.318 1 114951640.292 1        68.265          38.000  
G 1  20385809.798 1 107128060.176 1       953.368          24.000                                                                  
G 7  20329981.547 1 106834796.555 1       -22.611          26.000                                                                  
G21  20536021.108 1 107917577.917 1     -1679.141          29.000                                                                  
G30  22717205.506 1 119379678.35411      1852.520          18.000                                                                  
> 2021  5 18  3  8  8.9980972  0  7                     
C10  37270045.484 1 194075097.78611      -716.169          22.000  
C28  22171039.409 1 115450418.118 1     -2570.395          37.000  
C37  22075032.973 1 114950479.649 1        66.615          38.000  
G 1  20385418.568 1 107126004.502 1       952.214          23.000                                                                  
G 7  20329773.191 1 106833716.181 1       -22.812          26.000                                                                  
G 8  21993762.835 1 115578020.66211     -3250.550          20.000                                                                  
G21  20536128.734 1 107918154.974 1     -1680.601          33.000                                                                  
> 2021  5 18  3  8  9.9980964  0  7                     
C 7  36697692.816 1 191094416.27711      -631.952          30.000  
C28  22171291.834 1 115451740.305 1     -2571.474          37.000  
C37  22074778.449 1 114949163.509 1        67.189          39.000  
G 1  20384997.360 1 107123788.468 1       958.083          22.000                                                                  
G 7  20329537.254 1 106832478.844 1       -23.357          26.000                                                                  
G 8  21994140.274 1 115580011.397 1     -3252.243          20.000                                                                  
G21  20536206.980 1 107918575.374 1     -1680.933          34.000                                                                  
> 2021  5 18  3  8 10.9980959  0  7                     
C 7  36697663.436 1 191094267.568 1      -631.932          30.000  
C28  22171635.096 1 115453531.514 1     -2573.259          36.000  
C37  22074616.861 1 114948316.260 1        66.563          39.000  
G 1  20384663.091 1 107122044.109 1       955.577          23.000                                                                  
G 7  20329389.157 1 106831714.300 1       -24.090          22.000                                                                  
G 8  21994610.048 1 115582476.278 1     -3252.671          20.000                                                                  
G21  20536377.262 1 107919466.946 1     -1678.666          31.000                                                                  
> 2021  5 18  3  8 11.9980954  0  7                     
C 7  36697633.757 1 191094119.381 1      -632.773          32.000  
C28  22171981.656 1 115455323.983 1     -2574.158          37.000  
C37  22074454.673 1 114947470.125 1        64.613          40.000  
G 1  20384334.519 1 107120301.346 1       955.130          19.000                                                                  
G 7  20329247.355 1 106830951.746 1       -26.384          22.000                                                                  
G21  20536551.141 1 107920357.488 1     -1678.019          22.000                                                                  
G30  22715019.719 1 119368300.07511      1861.671          24.000                                                                  
> 2021  5 18  3  8 12.9980946  0  9                     
C 7  36697515.339 1 191093504.035 1      -634.261          30.000  
C13  38581299.922 1 200902938.37411       545.437          16.000  
C28  22172236.780 1 115456650.494 1     -2576.734          38.000  
C37  22074204.946 1 114946157.667 1        62.785          40.000  
G 1  20383913.011 1 107118085.405 1       955.729          24.000                                                                  
G 7  20329010.819 1 106829718.166 1       -27.022          25.000                                                                  
G 8  21995468.654 1 115586951.16211     -3269.138          21.000                                                                  
G21  20536628.788 1 107920777.003 1     -1681.299          27.000                                                                  
G30  22714424.031 1 119365180.321 1      1857.641          30.000                                                                  
> 2021  5 18  3  8 13.9980938  0  9                     
C 7  36697397.520 1 191092890.579 1      -636.137          29.000  
C28  22172491.304 1 115457978.450 1     -2577.192          38.000  
C37  22073952.221 1 114944846.378 1        62.143          41.000  
G 1  20383490.004 1 107115868.657 1       956.986          24.000                                                                  
G 7  20328772.783 1 106828485.263 1       -28.045          22.000                                                                  
G 8  21995851.789 1 115588958.688 1     -3266.516          21.000                                                                  
G21  20536707.633 1 107921198.346 1     -1682.392          30.000                                                                  
G30  22713826.245 1 119362064.548 1      1854.275          28.000                                                                  
J 2  38010784.082 1 199748002.14611       162.466          27.000                                                                  
> 2021  5 18  3  8 14.9980933  0  8                     
C 7  36697371.139 1 191092746.714 1      -636.673          25.000  
C28  22172835.465 1 115459773.652 1     -2574.081          37.000  
C37  22073789.134 1 114944002.522 1        64.446          40.000  
G 1  20383157.234 1 107114121.872 1       961.676          22.000                                                                  
G 7  20328628.583 1 106827726.460 1       -29.673          24.000                                                                  
G21  20536876.716 1 107922092.917 1     -1682.650          30.000                                                                  
G30  22713321.695 1 119359425.042 1      1851.493          27.000                                                                  
J 2  38010602.707 1 199747052.151 1       161.308          27.000                                                                  
> 2021  5 18  3  8 15.9980925  0  8                     
C 7  36697255.119 1 191092133.402 1      -633.934          22.000  
C28  22173090.289 1 115461098.363 1     -2572.389          32.000  
C37  22073536.709 1 114942688.766 1        65.761          40.000  
G 1  20382733.327 1 107111901.323 1       956.290          21.000                                                                  
G 7  20328394.745 1 106826495.343 1       -28.934          25.000                                                                  
G21  20536959.459 1 107922513.728 1     -1680.491          24.000                                                                  
G30  22712732.003 1 119356312.906 1      1853.712          20.000                                                                  
J 2  38010333.494 1 199745630.193 1       161.630          25.000                                                                  
> 2021  5 18  3  8 16.9980920  0  9                     
C 7  36697227.538 1 191091986.185 1      -632.040          22.000  
C28  22173432.352 1 115462890.957 1     -2572.502          30.000  
C37  22073374.821 1 114941841.941 1        66.547          39.000  
G 1  20382399.059 1 107110160.108 1       950.482          23.000                                                                  
G 7  20328252.943 1 106825736.574 1       -28.831          26.000                                                                  
G 8  21997166.678 1 115595894.90911     -3252.490          22.000                                                                  
G21  20537130.341 1 107923407.404 1     -1682.678          25.000                                                                  
G30  22712228.651 1 119353669.107 1      1858.853          23.000                                                                  
J 2  38010153.918 1 199744680.452 1       163.961          21.000                                                                  
> 2021  5 18  3  8 17.9980915  0  8                     
C 7  36697199.657 1 191091834.778 1      -626.335          25.000  
C28  22173775.914 1 115464681.383 1     -2569.787          34.000  
C37  22073211.733 1 114940994.039 1        67.859          40.000  
G 1  20382071.985 1 107108425.938 1       946.832          21.000                                                                  
G 7  20328109.043 1 106824977.494 1       -28.012          26.000                                                                  
G 8  21997631.956 1 115598356.781 1     -3248.247          22.000                                                                  
G21  20537299.723 1 107924303.230 1     -1684.960          26.000                                                                  
G30  22711727.398 1 119351020.496 1      1862.094          24.000                                                                  
> 2021  5 18  3  8 18.9980908  0  8                     
C 7  36697109.120 1 191091366.662 1      -623.667          33.000  
C28  22174058.019 1 115466157.422 1     -2567.772          36.000  
C37  22072988.088 1 114939833.315 1        67.839          40.000  
G 1  20381683.454 1 107106379.384 1       942.358          23.000                                                                  
G 7  20327905.484 1 106823902.110 1       -26.779          25.000                                                                  
G21  20537413.045 1 107924887.721 1     -1687.832          21.000                                                                  
G30  22711162.889 1 119348054.127 1      1865.925          22.000                                                                  
J 2  38009732.710 1 199742457.77711       167.670          25.000                                                                  
> 2021  5 18  3  8 19.9980900  0  7                     
C 7  36696988.304 1 191090740.744 1      -623.155          33.000  
C28  22174314.342 1 115467476.641 1     -2570.136          37.000  
C37  22072734.164 1 114938517.832 1        65.518          41.000  
G 1  20381264.644 1 107104177.794 1       941.115          20.000                                                                  
G 7  20327671.346 1 106822668.551 1       -26.866          27.000                                                                  
G21  20537495.488 1 107925314.680 1     -1687.558          24.000                                                                  
G30  22710567.201 1 119344925.949 1      1868.279          27.000                                                                  
> 2021  5 18  3  8 20.9980895  0  7                     
C 7  36696958.324 1 191090588.731 1      -630.715          31.000  
C28  22174660.602 1                     -2577.655          38.000  
C37  22072574.375 1 114937674.259 1        60.817          41.000  
G 1  20380936.971 1 107102448.720 1       943.191          24.000                                                                  
G 7  20327527.446 1 106821909.079 1       -30.112          26.000                                                                  
G 8  21998878.194 1 115604945.15711     -3250.373          22.000                                                                  
G21  20537666.669 1 107926213.797 1     -1686.786          25.000                                                                  
> 2021  5 18  3  8 21.9980890  0  7                     
C 7  36696929.245 1 191090440.780 1      -634.436          33.000  
C28  22175005.363 1 115471075.29911     -2582.556          39.000  
C37  22072412.787 1 114936835.074 1        56.164          42.000  
G 1  20380609.598 1 107100715.708 1       948.691          24.000                                                                  
G 7  20327383.545 1 106821153.913 1       -35.368          25.000                                                                  
G 8  21999347.669 1 115607410.748 1     -3258.158          22.000                                                                  
G21  20537838.450 1 107927113.678 1     -1687.308          24.000                                                                  
> 2021  5 18  3  8 22.9980882  0  7                     
C 7  36696817.122 1 191089830.125 1      -638.820          32.000  
C28  22175264.684 1 115472409.598 1     -2583.603          38.000  
C37  22072163.059 1 114935530.212 1        55.675          42.000  
G 1  20380189.888 1 107098503.674 1       955.031          23.000                                                                  
G 7  20327152.105 1 106819929.648 1       -36.797          23.000                                                                  
G21  20537918.195 1 107927540.427 1     -1686.999          24.000                                                                  
G30  22708958.815 1 119336513.19511      1843.926          31.000                                                                  
> 2021  5 18  3  8 23.9980874  0  5                     
C 7  36696699.604 1 191089220.293 1      -639.145          30.000  
C28  22175521.906 1 115473744.347 1     -2583.952          37.000  
C37  22071912.733 1 114934225.888 1        55.024          41.000  
G 1  20379770.478 1 107096286.963 1       956.971          26.000                                                                  
G21  20537998.839 1 107927967.224 1     -1687.523          27.000                                                                  
> 2021  5 18  3  8 24.9980869  0  6                     
C 7  36696670.823 1 191089078.608 1      -639.123          31.000  
C28  22175866.967 1 115475547.744 1     -2585.233          37.000  
C37  22071752.344 1 114933390.286 1        55.045          41.000  
G 1  20379438.608 1 107094542.565 1       956.187          25.000                                                                  
G21  20538169.121 1 107928867.433 1     -1688.578          27.000                                                                  
G30  22707863.373 1 119330783.30311      1843.129          34.000                                                                  
> 2021  5 18  3  8 25.9980861  0  8                     
C 7  36696553.605 1 191088469.156 1      -639.499          30.000  
C28  22176122.990 1 115476883.208 1     -2584.447          37.000  
C37  22071500.218 1 114932086.767 1        54.330          41.000  
G 7  20326546.824 1 106816738.77311       -38.370          23.000                                                                  
G21  20538249.766 1 107929296.601 1     -1691.075          27.000                                                                  
G30  22707267.985 1                      1842.425          34.000                                                                  
J 2  38008095.243 1 199733909.84711       163.103          30.000                                                                  
J 3  38986211.607 1                     -1795.425          32.000                                                                  
> 2021  5 18  3  8 26.9980854  0  9                     
C 7  36696466.065 1 191088016.336 1      -639.828          30.000  
C28  22176407.792 1 115478375.095 1     -2585.288          37.000  
C37  22071280.171 1 114930939.758 1        52.732          40.000  
G 1  20378625.271 1 107090269.93211       951.868          24.000                                                                  
G 7  20326344.465 1 106815674.879 1       -39.919          25.000                                                                  
G21  20538360.689 1 107929885.531 1     -1691.481          28.000                                                                  
G30  22706704.076 1 119324552.98411      1841.167          33.000                                                                  
J 2  38007853.311 1 199732643.748 1       163.525          29.000                                                                  
J 3  38986340.218 1 204874616.05811     -1794.447          31.000                                                                  
> 2021  5 18  3  8 27.9980851  0 11                     
C 7  36696498.743 1 191088187.887 1      -640.079          30.000  
C10  37269036.383 1 194069855.32211      -723.508          25.000  
C27  22236501.191 1 115791296.75311       191.804          29.000  
C28  22176816.709 1 115480491.828 1     -2584.689          37.000  
C37  22071180.939 1 114930417.689 1        53.520          40.000  
G 1  20378351.861 1 107088845.744 1       950.271          25.000                                                                  
G 7  20326259.623 1 106815242.328 1       -40.406          23.000                                                                  
G21  20538591.829 1 107931104.824 1     -1692.074          28.000                                                                  
G30  22706260.683 1 119322238.267 1      1840.633          33.000                                                                  
J 2  38007732.794 1 199732007.843 1       162.968          30.000                                                                  
J 3  38986594.742 1 204875938.216 1     -1794.522          31.000                                                                  
> 2021  5 18  3  8 28.9980844  0 11                     
C 7  36696411.803 1 191087735.237 1      -640.177          31.000  
C10  37268964.433 1 194069486.782 1      -724.040          26.000  
C27  22236252.363 1 115790012.498 1       190.535          30.000  
C28  22177103.011 1 115481984.462 1     -2585.122          38.000  
C37  22070960.292 1 114929271.590 1        53.855          40.000  
G 1  20377961.231 1 107086792.578 1       949.710          26.000                                                                  
G 7  20326057.263 1 106814179.086 1       -39.510          21.000                                                                  
G21  20538704.551 1 107931694.600 1     -1692.737          28.000                                                                  
G30  22705701.270 1 119319293.839 1      1841.481          33.000                                                                  
J 2  38007491.461 1 199730741.923 1       162.806          30.000                                                                  
J 3  38986725.152 1 204876630.271 1     -1796.312          31.000                                                                  
> 2021  5 18  3  8 29.9980836  0 12                     
C 7  36696294.284 1 191087126.687 1      -640.447          31.000  
C10  37268864.002 1 194068962.043 1      -724.320          26.000  
C27  22235975.954 1 115788573.576 1       189.078          31.000  
C28  22177359.933 1 115483321.340 1     -2586.134          37.000  
C37  22070710.865 1 114927969.765 1        52.384          41.000  
G 1  20377542.721 1 107084583.891 1       948.038          25.000                                                                  
G 7  20325827.323 1 106812959.279 1       -41.370          22.000                                                                  
G 8  22002706.843 1 115625068.50011     -3267.317          18.000                                                                  
G21  20538785.794 1 107932126.941 1     -1693.235          29.000                                                                  
G30  22705117.574 1 119316192.155 1      1840.323          32.000                                                                  
J 2  38007220.749 1 199729318.227 1       163.179          30.000                                                                  
J 3  38986824.683 1 204877164.821 1     -1795.701          31.000                                                                  
> 2021  5 18  3  8 30.9980831  0 13                     
C 7  36696266.703 1 191086985.224 1      -636.695          31.000  
C10  37268853.809 1 194068905.515 1      -722.742          26.000  
C27  22235788.884 1 115787603.594 1       190.189          29.000  
C28  22177703.795 1 115485126.779 1     -2586.138          37.000  
C37  22070550.476 1 114927136.642 1        52.453          40.000  
E15  23147369.909 1  90835243.67811       -94.528          27.000  
G 1  20377213.549 1 107082849.167 1       946.937          26.000    20377219.544 1  79964585.73511       708.265          26.000  
G 7  20325683.722 1 106812214.100 1       -41.900          22.000                                                                  
G 8                                                                  22003179.316 1  86345200.69811     -2439.966          30.000  
G21  20538958.775 1 107933033.298 1     -1694.743          29.000                                                                  
G30  22704621.418 1 119313563.453 1      1839.942          33.000                                                                  
J 2  38007040.873 1 199728367.798 1       162.656          31.000    38007045.370 1 149147809.50211       121.862          30.000  
J 3  38987015.950 1 204878171.873 1     -1792.688          31.000    38987027.343 1 152993469.31311     -1340.019          28.000  
> 2021  5 18  3  8 31.9980823  0 13                     
C 7  36696150.384 1                      -639.650          30.000  
C10  37268752.480 1 194068379.351 1      -722.794          24.000  
C27  22235513.374 1 115786165.179 1       189.455          30.000  
C28  22177961.317 1 115486464.254 1     -2585.725          37.000  
C37  22070301.348 1 114925835.537 1        51.886          41.000  
E15  23147154.658 1  90834397.509 1       -95.568          27.000  
G 1  20376795.338 1 107080642.546 1       946.005          26.000    20376799.835 1  79962936.594 1       706.278          26.000  
G 7  20325451.982 1 106810996.434 1       -43.437          22.000                                                                  
G 8  22003559.753 1 115629550.45211     -3264.634          18.000    22003561.252 1  86346699.180 1     -2439.286          31.000  
G21  20539043.916 1 107933467.673 1     -1694.899          29.000                                                                  
G30  22704027.829 1 119310462.442 1      1840.964          33.000                                                                  
J 2  38006768.961 1 199726944.814 1       163.352          30.000    38006774.657 1 149146746.095 1       122.280          30.000  
J 3  38987123.576 1 204878706.303 1     -1794.925          31.000    38987129.272 1 152993868.491 1     -1339.965          28.000  
> 2021  5 18  3  8 32.9980818  0 13                     
C 7  36696124.901 1 191086343.76911      -638.076          31.000  
C10  37268738.689 1 194068322.604 1      -723.777          25.000  
C27  22235327.803 1 115785194.974 1       189.402          30.000  
C28  22178309.076 1 115488270.315 1     -2586.798          37.000  
C37  22070140.660 1 114925003.138 1        51.293          41.000  
E15  23147029.045 1  90833904.701 1       -94.959          26.000  
G 1  20376463.768 1 107078908.453 1       946.371          25.000    20376469.764 1  79961641.891 1       706.462          26.000  
G 7  20325308.682 1 106810252.321 1       -43.819          21.000                                                                  
G 8  22004033.724 1 115632027.700 1     -3264.906          18.000    22004032.825 1  86348550.410 1     -2438.775          30.000  
G21  20539215.397 1 107934374.806 1     -1694.890          30.000                                                                  
G30  22703528.974 1 119307834.394 1      1840.711          33.000                                                                  
J 2  38006588.786 1 199725993.617 1       163.176          31.000    38006593.583 1 149146035.267 1       122.448          30.000  
J 3  38987311.546 1 204879713.237 1     -1792.130          32.000    38987320.839 1 152994620.072 1     -1339.797          27.000  
> 2021  5 18  3  8 33.9980810  0 14                     
C 7  36696011.280 1 191085734.373 1      -641.886          31.000  
C 8  37792405.062 1 196794970.24011       545.377          29.000  
C10  37268638.558 1 194067797.561 1      -724.098          25.000  
C27  22235050.795 1 115783756.974 1       189.242          29.000  
C28  22178564.799 1 115489608.389 1     -2586.881          37.000  
C37  22069891.532 1 114923702.839 1        51.238          41.000  
E15  23146812.895 1  90833058.311 1       -95.810          26.000  
G 1  20376044.958 1 107076701.472 1       946.591          24.000    20376049.754 1  79959994.938 1       704.999          24.000  
G 7  20325074.544 1 106809035.858 1       -44.238          22.000                                                                  
G 8  22004419.557 1 115634032.663 1     -3265.515          18.000    22004414.761 1  86350048.736 1     -2439.903          30.000  
G21  20539296.341 1 107934809.687 1     -1695.496          29.000                                                                  
G30  22702940.182 1 119304734.090 1      1840.649          34.000                                                                  
J 2  38006317.174 1 199724570.432 1       162.160          30.000    38006322.870 1 149144972.385 1       121.415          30.000  
J 3  38987414.974 1 204880247.609 1     -1794.889          32.000    38987423.069 1 152995020.618 1     -1342.977          28.000  
> 2021  5 18  3  8 34.9980805  0 14                     
C 7  36695985.798 1 191085593.308 1      -639.109          31.000  
C 8  37792149.939 1 196793643.888 1       545.642          29.000  
C10  37268625.068 1 194067740.849 1      -723.271          24.000  
C27  22234864.324 1 115782787.278 1       188.408          30.000  
C28  22178911.059 1 115491415.097 1     -2587.114          36.000  
C37  22069730.843 1 114922871.229 1        51.320          41.000  
E15  23146687.582 1  90832565.745 1       -96.439          26.000  
G 1  20375716.385 1 107074967.394 1       945.491          22.000    20375719.683 1  79958701.496 1       704.566          25.000  
G 7  20324931.543 1 106808292.853 1       -45.207          22.000                                                                  
G 8  22004895.628 1 115636510.374 1     -3267.083          18.000    22004886.334 1  86351900.522 1     -2440.187          30.000  
G21  20539468.722 1 107935717.788 1     -1696.046          29.000                                                                  
G30  22702438.029 1 119302106.708 1      1840.990          33.000                                                                  
J 2  38006136.399 1 199723620.471 1       162.739          30.000    38006142.095 1 149144262.502 1       121.782          30.000  
J 3  38987604.743 1 204881254.598 1     -1797.775          32.000    38987615.535 1 152995773.992 1     -1339.318          28.000  
> 2021  5 18  3  8 35.9980797  0 14                     
C 7  36695864.682 1 191084983.710 1      -639.005          31.000  
C 8  37791803.679 1 196791849.215 1       545.493          29.000  
C10  37268523.438 1 194067215.371 1      -723.936          24.000  
C27  22234586.716 1 115781349.932 1       188.839          29.000  
C28  22179168.881 1 115492753.692 1     -2587.889          37.000  
C37  22069481.716 1 114921571.584 1        50.416          41.000  
E15  23146472.331 1  90831720.461 1       -95.719          26.000  
G 1                                                                  20375299.074 1  79957055.155 1       706.677          25.000  
G 7  20324698.604 1 106807077.476 1       -44.824          24.000                                                                  
G 8                                                                  22005267.970 1  86353398.785 1     -2439.172          30.000  
G21  20539552.064 1 107936153.876 1     -1696.728          29.000                                                                  
G30  22701847.738 1 119299007.050 1      1840.205          33.000                                                                  
J 2  38005864.488 1 199722196.823 1       163.364          30.000    38005871.083 1 149143198.709 1       122.092          30.000  
J 3  38987704.574 1 204881788.807 1     -1795.442          31.000    38987717.165 1 152996172.498 1     -1339.916          29.000  
> 2021  5 18  3  8 36.9980790  0 14                     
C 7  36695781.039 1 191084530.165 1      -639.996          32.000  
C 8  37791488.297 1 196790210.325 1       546.634          30.000  
C10  37268452.387 1 194066845.019 1      -722.562          25.000  
C27  22234339.387 1 115780068.755 1       187.663          29.000  
C28  22179455.482 1 115494248.693 1     -2588.266          37.000  
C37  22069262.567 1 114920428.424 1        49.899          41.000  
E15  23146287.059 1  90830993.431 1       -97.160          27.000  
G 1  20374905.446 1 107070714.74611       943.791          25.000    20374909.044 1  79955525.989 1       704.598          25.000  
G 7  20324498.642 1 106806019.565 1       -45.222          23.000                                                                  
G 8                                                                  22005679.585 1  86355014.769 1     -2440.038          30.000  
G21  20539665.685 1 107936748.039 1     -1697.146          29.000                                                                  
G30  22701290.124 1 119296065.220 1      1839.600          33.000                                                                  
J 2  38005623.155 1 199720930.672 1       163.349          31.000    38005630.949 1 149142254.088 1       122.100          30.000  
J 3  38987834.983 1 204882480.558 1     -1794.474          32.000    38987847.875 1 152996688.652 1     -1338.664          28.000  
> 2021  5 18  3  8 37.9980785  0 14                     
C 7  36695750.461 1 191084388.750 1      -640.141          31.000  
C 8  37791232.874 1 196788883.738 1       545.395          30.000  
C10  37268444.293 1 194066787.066 1      -723.037          26.000  
C27  22234153.516 1 115779100.892 1       186.516          29.000  
C28  22179804.741 1 115496056.195 1     -2588.852          38.000  
C37  22069103.977 1 114919597.841 1        50.061          41.000  
E15  23146160.846 1  90830501.957 1       -96.252          27.000  
G 1  20374574.775 1 107068983.369 1       943.754          26.000    20374578.373 1  79954232.052 1       704.733          26.000  
G 7  20324357.140 1 106805277.348 1       -45.823          24.000                                                                  
G 8                                                                  22006151.159 1  86356866.231 1     -2439.408          30.000  
G21  20539842.263 1 107937657.653 1     -1697.930          28.000                                                                  
G30  22700790.969 1 119293438.754 1      1838.925          33.000                                                                  
J 2  38005441.780 1 199719979.666 1       163.338          31.000    38005448.975 1 149141542.759 1       123.655          30.000  
J 3  38988027.450 1 204883487.337 1     -1793.718          32.000    38988038.842 1 152997439.548 1     -1337.836          28.000  
> 2021  5 18  3  8 38.9980780  0 14                     
C 7  36695720.481 1 191084247.133 1      -638.358          31.000  
C 8  37790977.151 1 196787557.363 1       546.783          30.000  
C10  37268436.498 1 194066729.548 1      -722.644          25.000  
C27  22233967.345 1 115778133.681 1       186.716          29.000  
C28  22180152.500 1 115497863.884 1     -2587.400          37.000  
C37  22068944.188 1 114918767.486 1        49.446          42.000  
E15  23146035.533 1  90830009.726 1       -95.142          27.000  
G 1  20374244.404 1 107067251.812 1       943.689          27.000    20374248.002 1  79952939.694 1       703.925          25.000  
G 7  20324218.336 1 106804535.496 1       -46.418          23.000                                                                  
G 8                                                                  22006622.432 1  86358717.514 1     -2438.839          30.000  
G21  20540016.742 1 107938567.968 1     -1698.682          29.000                                                                  
G30  22700292.415 1 119290812.567 1      1838.745          33.000                                                                  
J 2  38005261.905 1 199719028.092 1       163.955          31.000    38005267.901 1 149140831.720 1       122.282          30.000  
J 3  38988220.816 1 204884493.953 1     -1794.992          32.000    38988230.110 1 152998189.757 1     -1338.738          28.000  
> 2021  5 18  3  8 39.9980772  0 15                     
C 7  36695604.162 1 191083636.945 1      -638.467          30.000  
C 8  37790630.891 1 196785762.464 1       545.640          30.000  
C10  37268335.768 1 194066202.894 1      -722.236          25.000  
C16  38839075.567 1 202245257.91811     -2663.085          24.000  
C27  22233691.835 1 115776698.832 1       185.024          29.000  
C28  22180409.122 1 115499203.373 1     -2588.467          37.000  
C37  22068694.761 1 114917468.999 1        50.089          42.000  
E15  23145819.682 1  90829165.102 1       -96.380          26.000  
G 1  20373824.994 1 107065047.969 1       943.199          27.000    20373827.992 1  79951294.774 1       703.889          26.000  
G 7  20323987.196 1 106803322.000 1       -47.456          24.000                                                                  
G 8                                                                  22007004.068 1  86360216.260 1     -2439.664          30.000  
G21  20540100.684 1 107939006.377 1     -1698.902          29.000                                                                  
G30  22699702.723 1 119287713.854 1      1837.517          33.000                                                                  
J 2  38004992.091 1 199717603.673 1       163.644          31.000    38004997.488 1 149139767.885 1       121.961          30.000  
J 3  38988323.945 1 204885027.727 1     -1793.787          31.000    38988331.740 1 152998587.760 1     -1339.814          28.000  
> 2021  5 18  3  8 40.9980767  0 15                     
C 7  36695575.682 1 191083495.034 1      -638.049          31.000  
C 8  37790374.268 1 196784436.302 1       545.385          29.000  
C10  37268324.975 1 194066144.998 1      -723.459          25.000  
C16  38839438.616 1 202247141.111 1     -2664.017          24.000  
C27  22233505.964 1 115775733.190 1       185.547          29.000  
C28  22180754.183 1 115501011.495 1     -2589.100          37.000  
C37  22068534.072 1 114916639.220 1        49.390          41.000  
E15  23145694.669 1  90828673.222 1       -96.766          27.000  
G 1  20373495.523 1 107063317.329 1       942.596          25.000    20373497.921 1  79950002.765 1       702.049          24.000  
G 7  20323845.994 1 106802582.109 1       -48.214          24.000                                                                  
G 8                                                                  22007475.342 1  86362066.659 1     -2438.801          30.000  
G21  20540274.564 1 107939917.821 1     -1699.517          30.000                                                                  
G30  22699202.369 1 119285088.069 1      1836.979          34.000                                                                  
J 2  38004811.317 1 199716652.203 1       163.784          31.000    38004816.713 1 149139058.649 1       120.469          30.000  
J 3  38988515.213 1 204886034.057 1     -1793.161          31.000    38988523.607 1 152999339.615 1     -1340.110          28.000  
> 2021  5 18  3  8 41.9980759  0 15                     
C 7  36695462.660 1 191082884.707 1      -637.329          32.000  
C 8  37790028.608 1 196782641.889 1       545.730          29.000  
C10  37268223.945 1 194065618.723 1      -723.135          25.000  
C16  38839712.327 1 202248556.132 1     -2664.068          25.000  
C27  22233229.555 1 115774298.786 1       185.776          30.000  
C28  22181011.705 1 115502351.515 1     -2589.294          37.000  
C37  22068284.644 1 114915341.459 1        48.991          41.000  
E15  23145479.118 1  90827828.231 1       -96.645          26.000  
G 1  20373076.712 1 107061114.333 1       942.680          24.000    20373079.411 1  79948359.375 1       701.663          23.000  
G 7  20323617.552 1 106801370.208 1       -48.443          23.000                                                                  
G 8  22007866.871 1 115652132.01511     -3266.285          19.000    22007857.277 1  86363564.218 1     -2438.593          30.000  
G21  20540358.805 1 107940357.190 1     -1699.967          29.000                                                                  
G30  22698612.378 1 119281990.028 1      1837.507          34.000                                                                  
J 2  38004540.304 1 199715227.935 1       164.101          31.000    38004545.700 1 149137996.260 1       121.695          31.000  
J 3  38988619.840 1 204886567.728 1     -1794.997          31.000    38988625.236 1 152999738.426 1     -1340.753          28.000  
> 2021  5 18  3  8 42.9980751  0 15                     
C 7  36695345.141 1 191082274.070 1      -638.117          32.000  
C 8  37789683.247 1 196780847.143 1       545.447          30.000  
C10  37268122.016 1 194065092.527 1      -722.518          26.000  
C16  38839986.037 1 202249972.072 1     -2665.060          25.000  
C27  22232954.046 1 115772864.123 1       185.667          30.000  
C28  22181269.527 1 115503691.642 1     -2588.957          38.000  
C37  22068035.817 1 114914043.841 1        48.765          41.000  
E15  23145265.966 1  90826984.631 1       -96.922          26.000  
G 1  20372656.104 1 107058911.785 1       941.664          24.000    20372660.001 1  79946715.902 1       704.333          25.000  
G 7  20323388.511 1 106800158.479 1       -48.918          24.000                                                                  
G 8  22008248.806 1 115654137.608 1     -3265.671          19.000    22008238.913 1  86365061.680 1     -2439.142          30.000  
G21  20540442.148 1 107940797.032 1     -1700.395          29.000                                                                  
G30  22698022.686 1 119278892.094 1      1837.609          34.000                                                                  
J 2  38004269.292 1 199713803.579 1       163.608          31.000    38004274.688 1 149136933.552 1       122.356          30.000  
J 3  38988716.673 1 204887101.123 1     -1792.695          31.000    38988726.866 1 153000137.709 1     -1340.592          28.000  
> 2021  5 18  3  8 43.9980749  0 15                     
C 7  36695407.798 1 191082599.873 1      -639.213          32.000  
C 8  37789518.061 1 196779989.241 1       545.643          30.000  
C10  37268201.161 1 194065502.164 1      -721.321          27.000  
C16  38840438.124 1 202252324.568 1     -2664.349          25.000  
C27  22232858.113 1 115772366.120 1       185.823          30.000  
C28  22181706.624 1 115505968.584 1     -2589.228          38.000  
C37  22067966.864 1 114913683.099 1        48.097          42.000  
E15  23145230.890 1  90826846.512 1       -96.779          25.000  
G 1  20372415.670 1 107057654.869 1       941.499          23.000    20372421.666 1  79945777.882 1       701.819          24.000  
G 7  20323339.345 1 106799892.572 1       -49.567          23.000                                                                  
G 8  22008813.915 1 115657088.255 1     -3265.760          19.000    22008800.125 1  86367265.750 1     -2440.777          30.000  
G21  20540706.265 1 107942182.736 1     -1700.998          29.000                                                                  
G30  22697612.870 1 119276739.579 1      1838.207          34.000                                                                  
J 2  38004178.155 1 199713324.436 1       164.206          31.000    38004183.551 1 149136576.212 1       122.501          30.000  
J 3  38989001.176 1 204888579.646 1     -1793.890          31.000    38989008.371 1 153001242.063 1     -1337.830          28.000  
> 2021  5 18  3  8 44.9980741  0 15                     
C 7  36695288.181 1 191081988.865 1      -637.385          32.000  
C 8  37789172.700 1 196778193.946 1       545.905          30.000  
C10  37268098.632 1 194064974.512 1      -721.015          26.000  
C16  38840711.535 1 202253739.901 1     -2664.326          24.000  
C27  22232582.004 1 115770931.418 1       185.886          31.000  
C28  22181964.146 1 115507309.000 1     -2590.326          38.000  
C37  22067718.037 1 114912385.940 1        47.704          41.000  
E15  23145015.040 1  90826000.805 1       -95.349          26.000  
G 1  20371996.560 1 107055453.266 1       940.728          24.000    20372001.657 1  79944134.354 1       702.604          23.000  
G 7  20323110.603 1 106798681.772 1       -49.880          23.000                                                                  
G 8  22009196.750 1 115659093.787 1     -3266.350          20.000    22009182.660 1  86368765.338 1     -2440.601          30.000  
G21  20540789.907 1 107942623.649 1     -1701.584          29.000                                                                  
G30  22697022.578 1 119273641.987 1      1836.830          34.000                                                                  
J 2  38003908.642 1 199711899.598 1       164.446          31.000    38003912.839 1 149135512.841 1       121.430          30.000  
J 3  38989100.108 1 204889112.658 1     -1793.181          31.000    38989109.401 1 153001639.330 1     -1338.863          28.000  
> 2021  5 18  3  8 45.9980733  0 15                     
C 7  36695172.761 1 191081377.797 1      -637.200          32.000  
C 8  37788827.039 1 196776399.085 1       546.030          29.000  
C10  37267996.403 1 194064447.260 1      -721.917          26.000  
C16  38840982.847 1 202255154.950 1     -2663.455          25.000  
C27  22232306.794 1 115769496.716 1       185.628          30.000  
C28  22182220.468 1 115508649.768 1     -2588.945          38.000  
C37  22067469.509 1 114911089.173 1        48.377          42.000  
E15  23144799.189 1  90825155.996 1       -97.305          26.000  
G 1  20371573.553 1 107053252.513 1       939.813          23.000    20371582.847 1  79942490.042 1       702.372          23.000  
G 7  20322880.063 1 106797471.138 1       -49.929          21.000                                                                  
G 8                                                                  22009564.595 1  86370264.301 1     -2440.394          30.000  
G21  20540874.748 1 107943064.969 1     -1702.108          29.000                                                                  
G30  22696436.784 1 119270544.740 1      1837.276          35.000                                                                  
J 2  38003634.032 1                       163.761          31.000    38003641.526 1 149134448.877 1       122.722          30.000  
J 3  38989197.540 1 204889645.702 1     -1792.759          31.000    38989211.031 1 153002037.589 1     -1339.917          28.000  
> 2021  5 18  3  8 46.9980726  0 14                     
C 7  36695083.422 1 191080922.472 1      -638.025          32.000  
C 8  37788511.358 1 196774760.564 1       545.840          30.000  
C10  37267922.654 1 194064075.805 1      -721.378          26.000  
C16  38841285.637 1 202256725.384 1     -2662.895          25.000  
C27  22232060.964 1 115768218.800 1       185.185          31.000  
C28  22182509.168 1 115510146.668 1     -2589.643          38.000  
C37  22067249.761 1 114909948.611 1        48.157          41.000  
E15  23144614.217 1  90824428.478 1       -97.160          25.000  
G 1  20371183.523 1 107051210.123 1       939.454          24.000    20371194.316 1  79940964.380 1       702.846          22.000  
G 8                                                                  22009976.510 1  86371880.850 1     -2439.791          30.000  
G21  20540988.969 1 107943664.412 1     -1702.539          29.000                                                                  
G30  22695879.170 1 119267605.153 1      1836.804          35.000                                                                  
J 2  38003392.399 1 199709176.78111       164.778          32.000    38003400.493 1 149133502.880 1       123.167          30.000  
J 3  38989329.449 1 204890335.959 1     -1791.774          31.000    38989342.640 1 153002554.101 1     -1339.760          27.000  
> 2021  5 18  3  8 47.9980721  0 13                     
C 7  36695054.342 1 191080779.203 1      -636.233          31.000  
C 8  37788257.434 1 196773434.097 1       545.675          29.000  
C10  37267912.161 1 194064016.444 1      -721.710          24.000  
C27  22231875.393 1 115767253.439 1       184.467          30.000  
C28  22182857.527 1 115511955.962 1     -2589.268          36.000  
C37  22067089.672 1 114909120.569 1        47.216          41.000  
E15  23144490.403 1  90823938.283 1       -99.313          25.000  
G 1                                                                  20370865.443 1  79939674.946 1       700.110          20.000  
G 8                                                                  22010448.384 1  86373732.615 1     -2439.070          29.000  
G21  20541162.549 1 107944579.370 1     -1703.035          30.000                                                                  
G30  22695378.217 1 119264980.849 1      1836.552          34.000                                                                  
J 2  38003211.624 1 199708224.659 1       163.670          31.000    38003218.819 1 149132791.830 1       122.623          30.000  
J 3  38989523.115 1 204891341.249 1     -1793.575          32.000    38989533.907 1 153003304.749 1     -1338.081          27.000  
> 2021  5 18  3  8 48.9980716  0 13                     
C 7  36695028.560 1 191080635.624 1      -637.163          31.000  
C 8  37788002.910 1 196772107.750 1       545.557          30.000  
C10  37267901.069 1 194063957.399 1      -720.820          25.000  
C16  38842011.435 1 202260489.40811     -2662.209          23.000  
C27  22231691.320 1 115766288.707 1       184.204          30.000  
C28  22183203.488 1 115513765.310 1     -2590.077          36.000  
C37  22066931.381 1 114908292.615 1        47.240          41.000  
E15  23144365.089 1  90823450.089 1      -100.303          25.000  
G 1  20370524.279 1 107047757.33211       938.777          22.000    20370538.070 1  79938386.929 1       701.305          22.000  
G 8                                                                  22010919.657 1  86375583.467 1     -2438.335          29.000  
G30  22694878.762 1 119262356.602 1      1836.027          34.000                                                                  
J 2  38003034.147 1 199707272.382 1       164.222          30.000    38003037.445 1 149132080.321 1       123.455          30.000  
J 3  38989722.477 1 204892346.090 1     -1793.107          31.000    38989724.875 1 153004054.776 1     -1338.534          28.000  
> 2021  5 18  3  8 49.9980708  0 16                     
C 3  36458344.214 1 189848165.08811      -968.050          28.000  
C 7  36694916.138 1 191080023.480 1      -638.234          32.000  
C 8  37787658.748 1 196770313.262 1       545.652          30.000  
C10  37267801.538 1 194063428.204 1      -718.723          25.000  
C16  38842282.148 1 202261902.291 1     -2662.454          24.000  
C27  22231416.710 1 115764854.779 1       185.174          31.000  
C28  22183461.909 1 115515106.445 1     -2589.572          36.000  
C37  22066683.153 1 114906996.525 1        46.942          41.000  
E15  23144150.438 1  90822608.017 1       -98.668          25.000  
G 1  20370106.369 1 107045556.972 1       940.226          25.000    20370119.560 1  79936745.261 1       702.064          22.000  
G 7  20322164.758 1 106793738.46411       -54.219          21.000                                                                  
G 8                                                                  22011300.993 1  86377080.481 1     -2438.751          29.000  
G21  20541417.672 1 107945938.20711     -1704.251          28.000                                                                  
G30  22694289.670 1 119259259.906 1      1835.228          34.000                                                                  
J 2  38002764.334 1 199705847.232 1       163.116          31.000    38002766.732 1 149131015.975 1       123.004          30.000  
J 3  38989818.410 1 204892878.219 1     -1791.361          31.000    38989826.205 1 153004451.288 1     -1337.064          28.000  
> 2021  5 18  3  8 50.9980703  0 17                     
C 7  36694885.859 1 191079879.400 1      -635.888          31.000  
C 8  37787404.224 1 196768986.402 1       546.887          30.000  
C10  37267788.347 1 194063366.802 1      -719.471          24.000  
C16  38842643.098 1 202263785.030 1     -2663.654          24.000  
C27  22231231.139 1 115763888.969 1       184.761          31.000  
C28  22183808.469 1 115516916.071 1     -2590.869          36.000  
C37  22066524.563 1 114906169.001 1        46.612          41.000  
E15  23144026.924 1  90822119.557 1      -100.116          24.000  
E27  25599176.059 1 100456664.36811       590.383          30.000  
G 1  20369777.796 1 107043828.205 1       939.317          23.000    20369791.287 1  79935456.597 1       697.937          21.000  
G 7  20322024.455 1 106793004.731 1       -53.723          21.000                                                                  
G 8  22011772.267 1 115672707.02011     -3266.601          19.000    22011772.267 1  86378930.505 1     -2438.999          29.000  
G21  20541591.852 1 107946854.944 1     -1704.218          29.000                                                                  
G30  22693789.616 1 119256636.067 1      1837.205          33.000                                                                  
J 2  38002581.760 1 199704894.536 1       164.949          30.000    38002585.358 1 149130304.816 1       122.319          30.000  
J 3  38990007.579 1 204893882.742 1     -1793.001          31.000    38990016.873 1 153005200.167 1     -1337.072          27.000  
R21  20158741.893 1 107873499.27111       930.449          27.000  
> 2021  5 18  3  8 51.9980695  0 17                     
C 7  36694768.340 1 191079266.844 1      -635.955          32.000  
C 8  37787059.163 1 196767190.840 1       545.947          30.000  
C10  37267686.118 1 194062836.802 1      -719.544          24.000  
C16  38842913.810 1 202265200.477 1     -2663.943          25.000  
C27  22230957.728 1 115762455.863 1       183.821          30.000  
C28  22184065.391 1 115518257.518 1     -2591.129          37.000  
C37  22066275.136 1 114904873.398 1        46.655          41.000  
E15  23143811.373 1  90821277.261 1       -99.997          25.000  
E27  25598786.029 1 100455130.866 1       590.904          30.000  
G 1  20369358.387 1 107041628.439 1       939.388          23.000    20369372.777 1  79933817.591 1       699.034          20.000  
G 7  20321795.114 1 106791797.240 1       -53.485          21.000                                                                  
G 8  22012148.507 1 115674713.027 1     -3268.148          19.000    22012153.303 1  86380428.459 1     -2438.505          29.000  
G21  20541676.094 1 107947298.284 1     -1703.969          30.000                                                                  
G30  22693201.723 1 119253539.738 1      1836.248          34.000                                                                  
J 2  38002308.349 1 199703469.052 1       165.580          30.000    38002314.045 1 149129240.703 1       123.222          30.000  
J 3  38990110.108 1 204894414.514 1     -1792.842          31.000    38990117.903 1 153005596.440 1     -1338.002          28.000  
R21  20158330.578 1 107871298.496 1       930.142          27.000  
> 2021  5 18  3  8 52.9980687  0 17                     
C 7  36694649.922 1 191078654.043 1      -632.426          32.000  
C 8  37786713.802 1 196765396.396 1       544.959          30.000  
C10  37267585.088 1 194062306.452 1      -718.596          24.000  
C16  38843185.722 1 202266614.577 1     -2662.076          24.000  
C27  22230683.718 1 115761023.429 1       183.325          31.000  
C28  22184323.213 1 115519599.171 1     -2590.678          36.000  
C37  22066026.008 1 114903578.056 1        46.688          41.000  
E15  23143597.321 1  90820436.611 1      -101.417          24.000  
E27  25598394.800 1 100453597.174 1       593.789          30.000  
G 1  20368941.375 1 107039429.791 1       937.520          23.000    20368953.667 1  79932175.671 1       700.083          20.000  
G 7  20321564.574 1 106790591.074 1       -55.592          21.000                                                                  
G 8                                                                  22012534.639 1  86381925.989 1     -2439.867          29.000  
G21  20541761.834 1 107947741.995 1     -1703.566          28.000                                                                  
G30  22692611.732 1 119250443.570 1      1833.764          33.000                                                                  
J 2  38002037.937 1 199702043.502 1       163.602          30.000    38002042.733 1 149128176.435 1       122.978          30.000  
J 3  38990209.939 1 204894946.095 1     -1791.426          31.000    38990220.132 1 153005993.945 1     -1339.169          27.000  
R21  20157920.762 1 107869105.014 1       929.806          27.000  
> 2021  5 18  3  8 53.9980682  0 17                     
C 7  36694615.446 1 191078507.700 1      -632.192          30.000  
C 8  37786458.079 1 196764070.732 1       544.217          29.000  
C10  37267575.494 1 194062244.973 1      -718.328          22.000  
C16  38843545.173 1 202268495.605 1     -2660.734          22.000  
C27  22230501.144 1 115760059.571 1       182.223          31.000  
C28  22184666.475 1 115521407.545 1     -2589.443          34.000  
C37  22065866.818 1 114902749.978 1        47.885          41.000  
E15  23143473.507 1  90819950.215 1      -101.961          26.000  
E27  25598095.607 1 100452414.347 1       597.357          30.000  
G 1  20368616.400 1 107037705.680 1       935.266          25.000    20368627.193 1  79930888.469 1       699.691          19.000  
G 7  20321426.669 1 106789859.101 1       -55.335          23.000                                                                  
G 8                                                                  22013004.414 1  86383777.177 1     -2438.841          28.000  
G21  20541936.913 1 107948658.183 1     -1703.387          25.000                                                                  
G30  22692108.080 1 119247817.661 1      1840.596          33.000                                                                  
J 2  38001855.063 1 199701090.259 1       164.673          31.000    38001861.059 1 149127465.381 1       123.262          29.000  
J 3  38990405.104 1 204895949.427 1     -1787.248          34.000    38990411.100 1 153006744.822 1     -1338.293          27.000  
R21  20157601.183 1 107867395.398 1       928.723          28.000  
> 2021  5 18  3  8 54.9980677  0 15                     
C 7  36694590.264 1 191078357.053 1      -628.870          32.000  
C 8  37786204.455 1 196762747.759 1       539.905          26.000  
C10  37267562.004 1 194062182.160 1      -714.778          22.000  
C27  22230317.072 1 115759096.178 1       182.924          32.000  
C28  22185015.134 1 115523212.597 1     -2585.589          35.000  
C37  22065708.528 1 114901919.561 1        51.684          40.000  
E15  23143350.292 1  90819462.759 1      -100.012          28.000  
E27  25597794.616 1 100451226.183 1       601.597          32.000  
G 1  20368292.924 1 107035984.390 1       931.158          23.000                                                                  
G 7  20321287.266 1 106789126.429 1       -55.482          25.000                                                                  
G 8  22013479.285 1 115681673.05011     -3261.636          20.000    22013473.889 1  86385625.109 1     -2437.302          25.000  
G21  20542111.992 1 107949574.980 1     -1705.708          30.000                                                                  
G30  22691602.930 1 119245185.846 1      1847.129          33.000    22691611.025 1  89046755.03111      1376.039          27.000  
J 2  38001674.288 1 199700135.882 1       164.984          31.000    38001680.284 1 149126755.134 1       122.182          27.000  
J 3  38990596.072 1 204896950.956 1     -1788.809          31.000    38990599.969 1 153007493.690 1     -1336.412          27.000  
> 2021  5 18  3  8 55.9980669  0 16                     
C 7  36694469.447 1 191077734.908 1      -624.897          31.000  
C 8  37785861.792 1 196760960.525 1       536.789          25.000  
C10  37267456.177 1 194061644.770 1      -708.641          23.000  
C16  38844165.144 1 202271775.34011     -2647.829          23.000  
C27  22230042.462 1 115757665.139 1       181.865          29.000  
C28  22185273.255 1 115524546.631 1     -2580.578          36.000  
C37  22065460.000 1 114900618.939 1        52.069          40.000  
E15  23143136.540 1  90818623.596 1      -104.103          27.000  
E27  25597401.887 1 100449681.198 1       605.562          32.000  
G 7  20321058.524 1 106787919.777 1       -51.796          26.000                                                                  
G 8  22013858.823 1 115683672.644 1     -3260.136          20.000    22013853.127 1  86387117.514 1     -2430.608          19.000  
G21  20542196.533 1 107950021.030 1     -1707.361          33.000                                                                  
G30  22691015.037 1 119242076.428 1      1852.809          31.000    22691019.534 1  89044435.087 1      1379.508          26.000  
J 2  38001404.475 1 199698710.675 1       164.765          30.000    38001408.372 1 149125691.113 1       121.976          27.000  
J 3                                                                  38990698.001 1 153007887.680 1     -1334.826          28.000  
R21  20156876.285 1 107863515.68511       923.510          25.000  
> 2021  5 18  3  8 56.9980664  0 17                     
C 7  36694440.967 1 191077578.041 1      -623.485          32.000  
C 8  37785610.266 1 196759646.118 1       531.433          25.000  
C10  37267441.787 1 194061571.606 1      -706.154          21.000  
C16  38844519.199 1 202273640.457 1     -2643.990          21.000  
C27  22229855.991 1 115756703.803 1       179.446          30.000  
C28  22185616.517 1 115526346.603 1     -2579.952          35.000  
C37  22065299.011 1 114899785.104 1        54.048          40.000  
E15  23143013.025 1  90818140.624 1      -106.913          28.000  
E27  25597096.399 1 100448487.231 1       605.332          30.000  
G 1  20367560.231 1 107032077.05211       929.584          21.000                                                                  
G 7  20320917.621 1 106787183.249 1       -50.566          26.000                                                                  
G 8  22014330.696 1 115686146.373 1     -3262.949          20.000    22014324.400 1  86388962.030 1     -2435.758          18.000  
G21  20542370.413 1 107950941.284 1     -1708.363          31.000                                                                  
G30  22690512.585 1 119239439.140 1      1847.920          30.000    22690518.581 1  89042465.923 1      1379.111          22.000  
J 2  38001221.902 1 199697758.118 1       164.924          28.000    38001226.398 1 149124980.826 1       122.230          24.000  
J 3  38990879.376 1 204898477.94911     -1788.143          32.000    38990885.971 1 153008633.538 1     -1333.417          30.000  
R21  20156550.710 1 107861773.649 1       918.131          32.000  
> 2021  5 18  3  8 57.9980657  0 16                     
C 7  36694347.732 1 191077106.751 1      -621.659          32.000  
C 8  37785299.382 1 196758025.587 1       525.552          25.000  
C10  37267365.340 1 194061181.563 1      -700.203          23.000  
C27  22229610.461 1 115755432.093 1       178.105          29.000  
C28  22185902.819 1 115527832.680 1     -2578.039          35.000  
C37  22065077.165 1 114898637.804 1        54.099          40.000  
E15  23142830.452 1  90817424.706 1      -106.702          27.000  
E27  25596733.650 1 100447061.286 1       601.035          24.000  
G 1  20367175.598 1 107030047.155 1       926.230          18.000                                                                  
G 7  20320716.761 1 106786130.249 1       -49.204          29.000                                                                  
G 8                                                                  22014737.514 1  86390577.433 1     -2442.206          17.000  
G21  20542485.533 1 107951547.312 1     -1709.607          32.000                                                                  
G30  22689952.273 1 119236486.305 1      1851.771          27.000    22689959.168 1  89040261.749 1      1383.135          24.000  
J 2  38000981.768 1 199696490.452 1       164.614          31.000    38000982.967 1 149124033.960 1       124.468          23.000  
J 3  38991007.687 1 204899163.933 1     -1788.060          22.000    38991015.182 1 153009143.830 1     -1334.266          27.000  
R21  20156163.378 1 107859701.416 1       915.857          28.000  
> 2021  5 18  3  8 58.9980649  0 15                     
C 7  36694226.316 1 191076477.762 1      -618.770          32.000  
C 8  37784960.016 1 196756252.468 1       521.849          25.000  
C10  37267256.515 1 194060630.140 1      -695.696          22.000  
C27  22229335.851 1 115754005.314 1       177.400          39.000  
C28  22186157.942 1 115529161.622 1     -2577.813          35.000  
C37  22064827.438 1 114897333.636 1        55.890          40.000  
E15  23142618.199 1  90816590.916 1      -108.078          28.000  
G 1  20366764.282 1 107027862.364 1       922.435          21.000                                                                  
G 7  20320485.920 1 106784919.159 1       -50.159          27.000                                                                  
G 8  22015124.846 1 115690319.45111     -3276.745          19.000    22015121.548 1  86392080.552 1     -2445.383          16.000  
G21  20542571.274 1 107951996.230 1     -1708.945          26.000                                                                  
G30  22689362.581 1 119233374.097 1      1852.304          27.000    22689368.277 1  89037937.133 1      1384.300          23.000  
J 2  38000710.456 1 199695066.659 1       164.906          25.000    38000711.055 1 149122968.711 1       124.620          18.000  
J 3  38991107.218 1 204899690.260 1     -1784.751          24.000    38991114.413 1 153009535.837 1     -1331.361          22.000  
R21  20155748.466 1 107857480.707 1       914.230          33.000  
> 2021  5 18  3  8 59.9980644  0 14                     
C 2  37107592.149 1 193228969.21911      -998.738          33.000  
C 7  36694196.336 1 191076315.020 1      -616.419          33.000  
C 8  37784711.189 1 196754950.373 1       518.707          22.000  
C27  22229149.980 1 115753047.664 1       176.268          39.000  
C28  22186503.903 1 115530957.191 1     -2574.979          35.000  
C37  22064666.749 1 114896496.983 1        56.651          40.000  
E15  23142495.883 1  90816111.748 1      -109.853          27.000  
G 7  20320345.617 1 106784180.558 1       -49.084          27.000                                                                  
G 8                                                                  22015595.221 1  86393937.577 1     -2443.330          17.000  
G21  20542748.451 1 107952917.746 1     -1709.489          27.000                                                                  
G30  22688860.729 1 119230730.765 1      1858.223          27.000    22688866.724 1  89035963.555 1      1385.471          23.000  
J 2  38000529.981 1 199694114.379 1       164.466          20.000    38000529.981 1 149122256.896 1       123.148          17.000  
J 3  38991297.287 1 204900686.764 1     -1784.203          25.000    38991300.584 1 153010278.315 1     -1332.120          22.000  
R21  20155427.088 1 107855760.885 1       912.788          36.000  
> 2021  5 18  3  9  0.9980639  0 14                     
C 7  36694164.858 1 191076150.056 1      -614.816          33.000  
C 8  37784463.560 1 196753652.217 1       517.201          26.000  
C27  22228965.607 1 115752090.100 1       178.092          38.000  
C28  22186850.763 1 115532751.118 1     -2573.606          36.000  
C37  22064506.360 1 114895659.443 1        57.618          40.000  
E15  23142373.568 1  90815633.395 1      -110.288          26.000  
G 1  20366118.230 1 107024446.51411       916.949          21.000                                                                  
G 7  20320205.614 1 106783441.877 1       -48.861          28.000                                                                  
G 8                                                                  22016067.993 1  86395792.445 1     -2441.104          17.000  
G21  20542922.631 1 107953839.668 1     -1708.170          23.000                                                                  
G30  22688359.476 1 119228083.176 1      1859.833          28.000                                                                  
J 2  38000350.105 1 199693161.610 1       165.513          23.000    38000350.405 1 149121545.393 1       122.801          24.000  
J 3  38991485.856 1 204901681.613 1     -1779.556          23.000    38991490.953 1 153011021.490 1     -1332.317          17.000  
R21  20155106.610 1 107854045.957 1       911.031          36.000  
> 2021  5 18  3  9  1.9980631  0 15                     
C 7  36694043.742 1 191075515.267 1      -613.784          33.000  
C 8  37784124.195 1 196751886.681 1       516.806          27.000  
C10  37267117.411 1 194059897.75811      -690.027          19.000  
C27  22228693.096 1 115750662.356 1       179.528          29.000  
C28  22187104.087 1 115534075.802 1     -2571.730          37.000  
C37  22064255.734 1 114894352.981 1        58.004          40.000  
E15  23142161.915 1  90814802.175 1      -110.208          27.000  
G 1  20365703.917 1 107022269.985 1       914.667          21.000                                                                  
G 7  20319975.973 1 106782230.391 1       -48.985          27.000                                                                  
G 8  22016471.214 1 115697332.76711     -3285.629          18.000    22016450.229 1  86397291.397 1     -2440.481          15.000  
G21  20543006.273 1 107954288.024 1     -1709.485          25.000                                                                  
G30  22687766.186 1 119224961.060 1      1863.744          25.000                                                                  
J 2  38000080.891 1 199691736.291 1       165.916          25.000    38000079.392 1 149120480.845 1       124.623          22.000  
J 3  38991583.588 1 204902200.644 1     -1780.210          24.000    38991591.383 1 153011414.378 1     -1335.480          19.000  
R21  20154694.096 1 107851839.246 1       911.163          30.000  
> 2021  5 18  3  9  2.9980623  0 14                     
C 7  36693923.226 1 191074880.034 1      -614.316          30.000  
C 8  37783782.132 1 196750121.497 1       515.604          27.000  
C10  37267010.685 1 194059338.589 1      -689.926          23.000  
C27  22228419.385 1 115749232.982 1       179.591          25.000  
C28  22187355.014 1 115535399.441 1     -2569.485          32.000  
C37  22064004.508 1 114893045.855 1        58.447          41.000  
E15  23141950.561 1  90813972.424 1      -110.784          27.000  
G 7  20319745.133 1 106781019.391 1       -50.504          25.000                                                                  
G 8  22016857.347 1 115699362.196 1     -3297.972          17.000    22016833.363 1  86398792.305 1     -2443.639          14.000  
G21  20543095.011 1 107954737.826 1     -1711.302          25.000                                                                  
G30  22687169.000 1 119221835.870 1      1866.319          30.000                                                                  
J 2  37999810.479 1 199690310.069 1       166.632          25.000    37999808.680 1 149119415.318 1       123.246          22.000  
J 3  38991680.421 1 204902719.671 1     -1779.254          24.000    38991692.113 1 153011808.207 1     -1333.011          19.000  
R21  20154279.183 1 107849618.957 1       910.124          28.000  
> 2021  5 18  3  9  3.9980618  0 13                     
C 8  37783533.604 1 196748825.712 1       514.633          25.000  
C10  37266991.798 1 194059246.719 1      -687.519          22.000  
C27  22228235.912 1 115748274.535 1       175.969          31.000  
C28  22187697.677 1 115537193.056 1     -2573.301          19.000  
C37  22063844.418 1 114892206.862 1        59.080          40.000  
E15  23141827.946 1  90813494.309 1      -110.393          27.000  
G 7  20319606.329 1 106780281.590 1       -50.254          24.000                                                                  
G 8  22017328.920 1 115701869.717 1     -3292.487          16.000    22017307.635 1  86400650.156 1     -2444.480          13.000  
G21  20543270.090 1 107955661.876 1     -1712.330          25.000                                                                  
G30  22686661.751 1 119219180.910 1      1868.198          31.000                                                                  
J 2                                                                  37999627.006 1 149118703.619 1       124.649          18.000  
J 3  38991868.091 1 204903710.918 1     -1779.303          27.000    38991881.582 1 153012552.404 1     -1331.372          18.000  
R21  20153956.906 1 107847893.959 1       908.395          26.000  
> 2021  5 18  3  9  4.9980611  0 14                     
C 2  37107566.666 1 193228834.75011      -998.659          34.000  
C 8  37783226.317 1 196747218.954 1       513.405          24.000  
C10  37266915.052 1 194058840.773 1      -686.743          22.000  
C27  22227992.781 1 115747006.857 1       173.797          38.000  
C37  22063621.972 1 114891055.567 1        57.747          40.000  
E15  23141645.672 1  90812781.247 1      -110.528          26.000  
G 1  20364568.003 1 107016384.20511       908.966          23.000                                                                  
G 7  20319406.967 1 106779229.175 1       -50.651          25.000                                                                  
G 8  22017748.630 1 115704066.925 1     -3305.435          10.000                                                                  
G21  20543386.110 1 107956271.792 1     -1713.296          30.000                                                                  
G30  22686095.143 1 119216209.657 1      1868.579          28.000                                                                  
J 2  37999385.673 1 199688088.14911       166.230          24.000    37999384.174 1 149117755.579 1       124.456          24.000  
J 3                                                                  38992010.493 1 153013058.770 1     -1329.221          28.000  
R21  20153575.870 1 107845854.489 1       906.498          35.000  
> 2021  5 18  3  9  5.9980605  0 12                     
C 7  36693743.350 1 191073925.01011      -618.966          13.000  
C 8  37782946.311 1 196745768.851 1       513.081          25.000  
C10  37266866.485 1 194058591.764 1      -689.103          22.000  
C27  22227779.329 1 115745894.791 1       180.059          38.000  
C37  22063430.705 1 114890060.109 1        57.118          40.000  
E15  23141494.277 1  90812186.374 1      -110.664          26.000  
G 7  20319235.786 1 106778334.218 1       -49.732          28.000                                                                  
G21  20543531.509 1 107957040.137 1     -1713.848          34.000                                                                  
G30  22685557.615 1 119213395.927 1      1868.416          28.000                                                                  
J 2  37999174.319 1 199686976.215 1       166.862          29.000    37999171.921 1 149116925.368 1       124.322          27.000  
J 3  38992156.192 1 204905222.35211     -1780.561          30.000    38992169.383 1 153013681.149 1     -1326.116          31.000  
R21  20153230.809 1 107844008.702 1       905.760          36.000  
> 2021  5 18  3  9  6.9980600  0 13                     
C 2  37107618.230 1 193229110.72111      -995.285          33.000  
C 8  37782696.883 1 196744477.702 1       511.345          23.000  
C27  22227595.856 1 115744935.709 1       176.070          30.000  
C28  22188639.924 1 115542095.54011     -2569.696          18.000  
C37  22063270.316 1 114889222.134 1        57.403          30.000  
E15  23141373.161 1  90811708.666 1      -110.747          27.000  
G 1  20363897.367 1 107012835.88911       907.538          23.000                                                                  
G 7  20319095.183 1 106777596.625 1       -50.663          28.000                                                                  
G21  20543706.288 1 107957966.376 1     -1714.203          33.000                                                                  
G30  22685050.666 1 119210740.078 1      1867.593          31.000                                                                  
J 2                                                                  37998989.647 1 149116213.234 1       122.863          24.000  
J 3                                                                  38992360.051 1 153014419.865 1     -1326.896          26.000  
R21  20152915.727 1 107842322.871 1       905.443          36.000  
> 2021  5 18  3  9  7.9980593  0 13                     
C 2  37107598.144 1 193229013.365 1      -995.584          33.000  
C 7  36693617.737 1 191073289.95011      -615.617          27.000  
C 8  37782388.697 1 196742873.046 1       511.908          23.000  
C10  37266765.455 1 194057826.82411      -687.109          20.000  
C27  22227352.424 1 115743668.089 1       173.542          37.000  
C28  22188925.327 1 115543573.437 1     -2571.863          34.000  
C37  22063048.769 1 114888071.829 1        57.551          40.000  
E15  23141192.985 1  90810996.083 1      -111.000          27.000  
G 1  20363516.031 1 107010825.049 1       908.341          23.000                                                                  
G 7  20318894.322 1 106776544.947 1       -51.908          29.000                                                                  
G21  20543829.503 1 107958587.808 1     -1725.303          10.000                                                                  
G30  22684483.459 1 119207770.626 1      1866.437          28.000                                                                  
R21  20152540.387 1 107840314.121 1       905.802          35.000  
> 2021  5 18  3  9  8.9980585  0 11                     
C 2  37107549.878 1 193228760.216 1      -995.848          32.000  
C 7  36693492.724 1 191072655.080 1      -611.818          30.000  
C10  37266657.530 1 194057267.239 1      -690.040          20.000  
C27  22227079.313 1 115742245.562 1       174.193          38.000  
C28  22189179.551 1 115544896.702 1     -2572.666          36.000  
C37  22062798.143 1 114886765.464 1        56.664          40.000  
E15  23140981.632 1  90810166.669 1      -111.963          27.000  
G 1  20363102.617 1 107008656.479 1       907.873          22.000                                                                  
G 7  20318664.082 1 106775338.587 1       -55.109          26.000                                                                  
G30  22683886.872 1 119204643.922 1      1866.170          30.000                                                                  
R21  20152133.268 1 107838134.868 1       905.776          36.000  
> 2021  5 18  3  9  9.9980580  0 12                     
C 2  37107592.748 1 193228975.672 1      -996.212          33.000  
C 7  36693457.648 1 191072485.200 1      -609.901          31.000  
C 8  37781797.806 1 196739820.20511       510.481          21.000  
C 9  37321917.674 1 194345019.20111     -2582.214          27.000  
C27  22226894.041 1                       174.165          39.000  
C28  22189525.811 1 115546689.528 1     -2574.524          36.000  
C37  22062638.353 1 114885928.332 1        56.573          39.000  
E15  23140859.916 1  90809690.534 1      -113.800          26.000  
G 1  20362787.536 1 107006960.850 1       907.913          22.000                                                                  
G 7  20318521.980 1 106774605.923 1       -55.543          24.000                                                                  
G30  22683381.722 1 119201990.361 1      1865.553          32.000                                                                  
R21  20151816.388 1 107836440.004 1       905.516          36.000  
> 2021  5 18  3  9 10.9980575  0 12                     
C 2  37107635.618 1 193229191.712 1      -997.074          34.000  
C 7  36693422.872 1 191072314.398 1      -609.661          31.000  
C 8  37781551.976 1 196738529.244 1       511.166          21.000  
C 9  37322260.936 1 194346820.405 1     -2581.684          30.000  
C27  22226710.568 1 115740315.92311       172.934          39.000  
C28  22189872.371 1                     -2574.954          36.000  
C37  22062477.665 1                        57.011          40.000  
E15  23140738.500 1  90809214.712 1      -112.040          27.000  
G 1  20362464.359 1 107005265.229 1       908.132          24.000                                                                  
G 7  20318378.979 1 106773873.274 1       -55.193          25.000                                                                  
G30  22682875.672 1 119199337.161 1      1866.143          32.000                                                                  
R21  20151496.809 1 107834729.249 1       905.336          36.000  
> 2021  5 18  3  9 11.9980567  0 12                     
C 2  37107588.851 1 193228940.353 1      -997.731          34.000  
C 7  36693298.758 1 191071675.367 1      -610.068          30.000  
C 8  37781212.911 1 196736766.698 1       515.958          21.000  
C 9  37322513.362 1 194348152.379 1     -2579.648          28.000  
C27  22226438.057 1 115738893.536 1       173.590          38.000  
C28  22190125.696 1 115549813.82811     -2576.475          37.000  
C37  22062226.438 1 114883805.88911        54.731          40.000  
E15  23140527.446 1  90808384.570 1      -110.842          26.000  
G 1  20362051.545 1 107003096.855 1       907.888          20.000                                                                  
G 7  20318146.940 1 106772668.096 1       -54.720          23.000                                                                  
G30  22682280.884 1 119196211.412 1      1864.144          32.000                                                                  
R21  20151086.993 1 107832536.473 1       905.278          36.000  
> 2021  5 18  3  9 12.9980562  0 12                     
C 2  37107631.421 1 193229157.775 1      -998.214          34.000  
C 7  36693265.181 1 191071505.474 1      -611.018          30.000  
C 8  37780964.682 1 196735469.041 1       518.140          22.000  
C 9  37322857.224 1 194349951.871 1     -2579.708          27.000  
C27  22226254.884 1 115737939.526 1       172.932          39.000  
C28  22190473.455 1 115551609.877 1     -2576.800          37.000  
C37  22062065.750 1 114882971.096 1        52.988          40.000  
E15  23140405.730 1  90807907.430 1      -110.826          27.000  
G 1  20361728.968 1 107001400.160 1       910.301          20.000                                                                  
G 7  20318009.335 1 106771935.228 1       -55.519          20.000                                                                  
G30  22681777.532 1 119193561.338 1      1860.491          32.000                                                                  
R21  20150767.414 1 107830825.945 1       905.577          36.000  
> 2021  5 18  3  9 13.9980554  0 16                     
C 2  37107584.354 1 193228907.324 1      -998.543          33.000  
C 7  36693141.667 1 191070868.691 1      -613.296          30.000  
C 8  37780624.418 1 196733701.135 1       520.199          22.000  
C 9  37323112.047 1 194351281.950 1     -2577.739          28.000  
C27  22225983.572 1 115736516.757 1       174.131          39.000  
C28  22190729.777 1 115552939.395 1     -2580.060          36.000  
C37  22061815.423 1 114881669.448 1        51.388          39.000  
E15  23140194.377 1  90807076.545 1      -109.836          26.000  
G 1  20361312.856 1 106999229.418 1       910.727          23.000                                                                  
G 7  20317779.394 1 106770731.110 1       -57.495          25.000                                                                  
G 8  22021486.742 1 115723693.12111     -3241.560          29.000                                                                  
G21  20544609.263 1 107962768.46811     -1716.881          33.000                                                                  
G30  22681185.142 1 119190441.061 1      1858.307          29.000                                                                  
J 2  37997392.952 1 199677596.35211       166.222          31.000                                                                  
J 3  38993333.477 1 204911418.31011     -1779.661          31.000                                                                  
R21  20150357.898 1 107828634.573 1       906.481          35.000  
> 2021  5 18  3  9 14.9980547  0 16                     
C 2  37107566.366 1 193228812.938 1      -997.936          34.000  
C 7  36693049.930 1 191070392.090 1      -617.719          30.000  
C 8  37780313.833 1 196732085.601 1       523.977          18.000  
C 9  37323395.651 1 194352765.064 1     -2573.089          26.000  
C27  22225745.237 1 115735249.569 1       174.471          40.000  
C28  22191012.182 1 115554427.555 1     -2582.398          37.000  
C37  22061597.174 1 114880525.820 1        50.295          40.000  
E15  23140013.002 1  90806363.277 1      -110.931          27.000  
G 1  20360927.024 1 106997214.318 1       913.271          18.000                                                                  
G 7  20317579.732 1 106769686.412 1       -58.799          24.000                                                                  
G 8  22021895.059 1 115725833.602 1     -3245.753          31.000                                                                  
G21  20544727.381 1 107963382.306 1     -1716.131          32.000                                                                  
G30  22680622.432 1 119187482.032 1      1853.897          31.000                                                                  
J 2  37997151.020 1 199676327.049 1       167.357          28.000                                                                  
J 3  38993461.488 1 204912095.933 1     -1780.626          31.000                                                                  
R21  20149974.763 1 107826584.429 1       907.902          35.000  
> 2021  5 18  3  9 15.9980541  0 15                     
C 2  37107578.058 1 193228873.793 1      -997.060          34.000  
C 7  36692989.072 1 191070075.118 1      -621.021          31.000  
C 8  37780034.426 1 196730622.936 1       527.373          16.000  
C 9  37323708.334 1 194354400.400 1     -2570.450          28.000  
C23  23124545.510 1                     -2688.364          36.000  
C27  22225518.594 1 115734138.040 1       176.556          40.000  
C28  22191329.362 1 115556074.728 1     -2586.066          37.000  
C37  22061407.106 1 114879540.609 1        46.842          41.000  
E15  23139860.408 1  90805766.970 1      -108.234          26.000  
G 7  20317413.048 1 106768800.531 1       -59.994          24.000                                                                  
G 8  22022333.056 1 115728135.464 1     -3249.948          30.000                                                                  
G21  20544874.879 1                     -1716.477          34.000                                                                  
G30  22680092.099 1 119184685.992 1      1848.113          28.000                                                                  
J 2  37996937.867 1 199675214.613 1       166.611          25.000                                                                  
R21  20149622.207 1 107824698.140 1       909.472          35.000  
> 2021  5 18  3  9 16.9980536  0 16                     
C 2  37107619.729 1 193229089.385 1      -995.056          32.000  
C 7  36692958.793 1 191069916.925 1      -624.265          31.000  
C 9  37324050.997 1 194356188.603 1     -2567.799          26.000  
C23  23124912.756 1 120417482.83311     -2684.445          34.000  
C27  22225334.521 1 115733182.252 1       175.895          38.000  
C28  22191674.723 1 115557880.567 1     -2587.000          38.000  
C37  22061248.515 1 114878713.510 1        46.357          40.000  
E15  23139738.392 1  90805286.410 1      -106.482          26.000  
G 1  20360238.400 1 106993649.22411       919.362          19.000                                                                  
G 7  20317277.841 1 106768073.856 1       -61.947          23.000                                                                  
G 8  22022801.931 1 115730599.292 1     -3253.764          28.000                                                                  
G21  20545051.157 1 107964975.43811     -1716.335          33.000                                                                  
G30  22679591.745 1 119182053.017 1      1843.047          33.000                                                                  
J 2  37996754.394 1 199674259.355 1       168.412          23.000                                                                  
J 3  38993814.944 1 204913928.25811     -1784.120          32.000                                                                  
R21  20149297.831 1 107822962.714 1       910.941          35.000  
> 2021  5 18  3  9 17.9980529  0 15                     
C 2  37107601.142 1 193228991.000 1      -993.493          33.000  
C 7  36692869.455 1 191069449.372 1      -626.460          31.000  
C 9  37324332.502 1 194357661.205 1     -2563.412          25.000  
C23  23125217.045 1 120419074.515 1     -2682.924          35.000  
C27  22225082.995 1 115731913.491 1       175.272          38.000  
C28  22191963.423 1 115559376.231 1     -2589.997          37.000  
C37  22061030.267 1 114877575.736 1        43.326          40.000  
E15  23139555.819 1  90804570.028 1      -107.319          26.000  
G 7  20317083.576 1 106767033.841 1       -63.676          25.000                                                                  
G 8  22023213.547 1 115732749.983 1     -3253.976          30.000                                                                  
G21  20545171.674 1 107965589.819 1     -1716.387          33.000                                                                  
G30  22679029.934 1 119179109.759 1      1838.792          27.000                                                                  
J 2  37996513.061 1 199672987.694 1       168.880          23.000                                                                  
J 3  38993946.253 1 204914609.857 1     -1785.017          30.000                                                                  
R21  20148912.298 1 107820898.955 1       912.287          35.000  
> 2021  5 18  3  9 18.9980521  0 15                     
C 2  37107551.677 1 193228734.644 1      -991.744          33.000  
C 7  36692752.836 1 191068827.140 1      -627.601          32.000  
C 9  37324583.728 1 194358972.340 1     -2558.193          25.000  
C23  23125492.854 1 120420508.551 1     -2681.447          35.000  
C27  22224810.184 1 115730488.562 1       175.937          38.000  
C28  22192221.245 1 115560717.836 1     -2591.107          36.000  
C37  22060782.338 1 114876283.559 1        42.569          40.000  
E15  23139343.266 1  90803735.853 1      -106.965          28.000  
G 7  20316855.134 1 106765837.405 1       -64.650          22.000                                                                  
G 8  22023593.683 1 115734745.739 1     -3258.085          29.000    22023599.379 1  86425333.48111     -2433.410          38.000  
G21  20545258.014 1 107966047.195 1     -1718.430          35.000                                                                  
G30  22678443.840 1 119176013.186 1      1830.490          23.000    22678447.737 1  88995121.02311      1367.908          23.000  
J 2  37996243.248 1 199671558.956 1       168.986          20.000                                                                  
J 3  38994046.983 1 204915134.723 1     -1785.718          30.000    38994056.876 1 153021054.10111     -1332.964          30.000  
R21  20148499.184 1 107818688.462 1       913.416          35.000  
> 2021  5 18  3  9 19.9980516  0 15                     
C 2  37107591.549 1 193228944.765 1      -989.814          33.000  
C 7  36692724.655 1                      -628.894          32.000  
C 9  37324919.796 1 194360748.341 1     -2554.771          24.000  
C23  23125858.601 1 120422409.597 1     -2679.719          36.000  
C27  22224635.405 1 115729531.618 1       176.983          37.000  
C28  22192566.606 1 115562529.143 1     -2594.032          36.000  
C37  22060623.148 1 114875460.781 1        41.890          41.000  
E15  23139220.951 1  90803255.013 1      -106.831          27.000  
G 1  20359116.877 1 106987720.70911       929.769          19.000                                                                  
G 7  20316719.927 1 106765114.374 1       -64.858          24.000                                                                  
G 8  22024064.657 1 115737218.053 1     -3261.677          29.000    22024069.754 1  86427179.062 1     -2435.082          39.000  
G21  20545430.994 1 107966977.362 1     -1717.837          32.000                                                                  
G30  22677942.287 1 119173396.973 1      1825.748          16.000    22677949.182 1  88993164.328 1      1369.441          19.000  
J 3  38994238.550 1 204916133.307 1     -1786.799          29.000    38994246.945 1 153021799.175 1     -1333.434          30.000  
R21  20148175.109 1 107816954.536 1       913.861          35.000  
> 2021  5 18  3  9 20.9980508  0 15                     
C 2  37107541.184 1 193228684.195 1      -987.405          34.000  
C 7  36692603.239 1 191068025.43611      -630.843          32.000  
C 9  37325172.221 1 194362054.064 1     -2554.797          25.000  
C23  23126135.609 1 120423841.156 1     -2678.965          36.000  
C27  22224367.690 1 115728106.228 1       175.401          39.000  
C28  22192824.727 1 115563873.615 1     -2592.980          37.000  
C37  22060375.220 1 114874170.779 1        40.330          41.000  
E15  23139007.798 1  90802419.745 1      -104.603          26.000  
G 1  20358701.065 1 106985531.328 1       928.214          25.000                                                                  
G 7  20316491.486 1 106763918.272 1       -64.686          25.000                                                                  
G 8  22024447.492 1 115739220.209 1     -3263.373          32.000    22024450.790 1  86428673.023 1     -2436.478          39.000  
G21  20545523.630 1 107967435.238 1     -1718.578          33.000                                                                  
G30                                                                  22677360.690 1  88990852.753 1      1371.734          17.000  
J 3  38994338.381 1 204916660.220 1     -1787.654          29.000    38994347.075 1 153022191.013 1     -1332.953          31.000  
R21  20147764.093 1 107814754.964 1       914.177          36.000  
> 2021  5 18  3  9 21.9980503  0 15                     
C 2  37107580.457 1 193228889.791 1      -984.830          35.000  
C 7  36692572.661 1 191067874.614 1      -631.400          31.000  
C 9  37325513.685 1 194363828.592 1     -2555.204          29.000  
C23  23126501.956 1 120425740.310 1     -2679.668          38.000  
C27  22224185.417 1 115727149.190 1       176.390          41.000  
C28  22193173.985 1 115565687.403 1     -2595.570          36.000  
C37  22060217.529 1 114873350.031 1        39.369          41.000  
E15  23138883.984 1  90801936.802 1      -104.661          27.000  
G 1  20358375.190 1 106983815.661 1       927.018          20.000                                                                  
G 7  20316355.080 1 106763195.975 1       -66.199          23.000                                                                  
G 8  22024918.166 1 115741696.129 1     -3264.259          30.000    22024921.764 1  86430520.929 1     -2436.651          38.000  
G21  20545701.707 1 107968366.778 1     -1718.256          32.000                                                                  
G30                                                                  22676859.437 1  88988891.777 1      1372.927          16.000  
J 3  38994529.349 1 204917659.794 1     -1787.224          32.000    38994538.043 1 153022936.625 1     -1334.273          31.000  
R21  20147444.215 1 107813043.495 1       914.184          36.000  
> 2021  5 18  3  9 22.9980498  0 14                     
C 2  37107619.430 1 193229093.439 1      -983.191          36.000  
C 7  36692542.981 1 191067723.816 1      -629.166          29.000  
C 9  37325855.148 1 194365604.256 1     -2557.010          30.000  
C23  23126868.002 1 120427639.547 1     -2680.373          37.000  
C27  22224001.044 1 115726192.380 1       175.607          40.000  
C28  22193521.745 1 115567501.570 1     -2595.059          37.000  
C37  22060059.838 1 114872529.688 1        39.049          40.000  
E15  23138761.069 1  90801453.672 1      -105.686          28.000  
G 7  20316216.876 1 106762475.444 1       -68.130          25.000                                                                  
G 8                                                                  22025392.738 1  86432368.985 1     -2436.250          39.000  
G21  20545877.085 1 107969297.252 1     -1718.150          33.000                                                                  
G30                                                                  22676359.083 1  88986931.553 1      1371.227          16.000  
J 3  38994720.317 1 204918659.133 1     -1786.893          33.000    38994727.812 1 153023682.773 1     -1334.001          32.000  
R21  20147123.437 1 107811326.293 1       913.252          37.000  
> 2021  5 18  3  9 23.9980490  0 16                     
C 2  37107568.765 1 193228827.250 1      -982.522          36.000  
C 3  36458158.342 1 189847206.42511      -957.082          32.000  
C 7  36692423.963 1 191067103.648 1      -628.599          31.000  
C 9  37326108.173 1 194366912.270 1     -2556.847          30.000  
C23  23127143.212 1 120429070.700 1     -2680.647          37.000  
C27  22223726.734 1 115724767.557 1       175.847          40.000  
C28  22193780.765 1 115568847.564 1     -2596.246          37.000  
C37  22059813.409 1 114871241.252 1        39.446          40.000  
E15  23138548.816 1  90800618.385 1      -106.534          28.000  
G 1  20357634.103 1 106979915.78111       926.369          22.000                                                                  
G 7  20315988.134 1 106761284.207 1       -69.761          24.000                                                                  
G 8  22025765.980 1 115746179.09911     -3264.344          27.000    22025773.474 1  86433864.000 1     -2435.382          39.000  
G21  20545968.522 1 107969756.094 1     -1720.795          33.000                                                                  
G30  22675780.784 1 119161991.14811      1828.039          25.000    22675770.890 1  88984621.105 1      1366.770          16.000  
J 3  38994821.047 1 204919184.894 1     -1786.231          34.000    38994827.643 1                     -1335.678          33.000  
R21  20146718.717 1 107809160.963 1       912.122          36.000  
> 2021  5 18  3  9 24.9980483  0 14                     
C 2  37107548.978 1 193228719.563 1      -987.233          35.000  
C 7  36692334.326 1 191066639.249 1      -628.296          30.000  
C 9  37326390.278 1 194368377.173 1     -2558.096          30.000  
C23  23127447.801 1 120430658.242 1     -2680.635          38.000  
C27  22223481.204 1 115723499.086 1       175.388          41.000  
C28  22194070.365 1 115570349.806 1     -2595.822          36.000  
C37  22059595.160 1 114870109.168 1        39.627          40.000  
E15  23138366.542 1  90799901.080 1      -106.153          28.000  
G 7  20315789.372 1 106760251.027 1       -69.600          25.000                                                                  
G 8                                                                  22026184.190 1  86435476.631 1     -2435.728          38.000  
G21  20546083.043 1                     -1719.573          33.000                                                                  
G30                                                                  22675212.677 1  88982431.909 1      1364.652          16.000  
J 3  38994950.557 1                     -1787.026          34.000    38994957.752 1 153024588.63411     -1335.254          34.000  
R21  20146341.278 1 107807141.290 1       911.669          36.000  
> 2021  5 18  3  9 25.9980477  0 18                     
C 2  37107560.970 1 193228768.145 1      -983.848          35.000  
C 3  36458138.256 1 189847090.18111      -956.210          31.000  
C 7  36692276.166 1 191066331.145 1      -628.782          31.000  
C 9  37326703.861 1 194369998.269 1     -2557.381          30.000  
C23  23127782.669 1 120432402.149 1     -2680.977          38.000  
C27  22223267.152 1 115722387.088 1       175.903          40.000  
C28  22194391.443 1 115572008.398 1     -2595.762          37.000  
C37  22059408.689 1 114869133.454 1        39.192          39.000  
E15  23138213.648 1  90799302.170 1      -107.934          28.000  
G 1  20356894.815 1 106976018.25611       921.479          24.000                                                                  
G 7  20315620.888 1 106759374.625 1       -68.662          24.000                                                                  
G 8                                                                  22026624.885 1  86437206.848 1     -2436.193          39.000  
G17  23858854.159 1 125379124.58711       924.629          24.000                                                                  
G21  20546229.941 1 107971170.05611     -1720.317          33.000                                                                  
G30  22674697.034 1 119156285.74711      1828.152          24.000    22674684.443 1  88980360.552 1      1365.696          15.000  
J 2  37994686.426 1 199663435.86311       171.940          27.000                                                                  
J 3  38995111.846 1 204920688.36111     -1785.299          34.000    38995117.542 1 153025216.202 1     -1333.496          33.000  
R21  20145995.018 1 107805288.527 1       911.522          36.000  
> 2021  5 18  3  9 26.9980472  0 18                     
C 2  37107598.744 1 193228971.426 1      -983.956          34.000  
C 3  36458173.632 1 189847265.646 1      -956.307          30.000  
C 7  36692246.187 1 191066179.344 1      -628.731          31.000  
C 9  37327047.723 1 194371775.168 1     -2557.804          30.000  
C23  23128145.718 1 120434302.365 1     -2681.658          38.000  
C27  22223085.178 1 115721431.376 1       174.350          39.000  
C28  22194738.602 1 115573823.190 1     -2596.669          37.000  
C37  22059250.399 1 114868314.053 1        38.539          39.000  
E15  23138091.333 1  90798820.713 1      -106.880          28.000  
G 1  20356572.238 1 106974309.841 1       920.896          23.000                                                                  
G 7  20315483.883 1 106758655.036 1       -68.462          24.000                                                                  
G 8  22027086.265 1 115753133.61511     -3262.781          26.000    22027096.159 1  86439054.643 1     -2435.582          39.000  
G17  23858541.475 1 125377411.705 1       925.979          24.000                                                                  
G21  20546407.718 1 107972103.533 1     -1720.998          33.000                                                                  
G30  22674198.779 1 119153670.749 1      1827.846          23.000    22674184.988 1  88978405.309 1      1367.722          15.000  
J 2  37994502.953 1 199662476.104 1       171.938          27.000                                                                  
J 3  38995302.214 1 204921686.105 1     -1786.683          34.000    38995307.610 1 153025961.306 1     -1333.282          33.000  
R21  20145680.835 1 107803606.781 1       909.875          37.000  
> 2021  5 18  3  9 27.9980465  0 17                     
C 2  37107576.260 1 193228862.686 1      -984.132          35.000  
C 7  36692156.848 1 191065715.283 1      -628.782          31.000  
C 9  37327330.727 1 194373239.569 1     -2557.123          31.000  
C23  23128451.206 1 120435890.661 1     -2681.054          38.000  
C27  22222841.147 1 115720163.766 1       174.359          40.000  
C28  22195028.501 1 115575325.959 1     -2595.502          37.000  
C37  22059032.749 1 114867182.672 1        38.250          39.000  
E15  23137909.059 1  90798104.137 1      -106.102          28.000  
G 1  20356187.904 1 106972285.268 1       922.559          23.000                                                                  
G 7  20315288.119 1 106757621.443 1       -70.101          23.000                                                                  
G 8  22027495.182 1 115755293.605 1     -3262.971          26.000    22027506.874 1  86440667.085 1     -2435.783          39.000  
G17  23858164.936 1 125375382.804 1       926.359          23.000                                                                  
G21  20546526.736 1 107972722.378 1     -1722.927          32.000                                                                  
G30  22673642.964 1 119150740.538 1      1826.064          23.000    22673625.875 1  88976214.518 1      1366.856          15.000  
J 2  37994258.322 1 199661200.950 1       172.337          27.000                                                                  
J 3  38995433.523 1 204922368.603 1     -1785.673          34.000    38995437.121 1 153026470.952 1     -1333.156          33.000  
R21  20145296.801 1 107801552.051 1       910.228          36.000  
> 2021  5 18  3  9 28.9980460  0 17                     
C 2  37107614.633 1 193229066.289 1      -984.370          35.000  
C 7  36692128.668 1 191065563.501 1      -628.704          30.000  
C 9  37327673.090 1 194375016.333 1     -2556.860          32.000  
C23  23128816.054 1 120437791.439 1     -2681.235          38.000  
C27  22222659.473 1 115719208.694 1       174.378          40.000  
C28  22195376.561 1 115577141.153 1     -2595.777          37.000  
C37  22058875.658 1 114866363.842 1        38.091          39.000  
E15  23137786.444 1  90797622.458 1      -107.477          28.000  
G 1  20355865.028 1 106970576.393 1       920.652          23.000                                                                  
G 7  20315151.114 1 106756904.152 1       -71.250          25.000                                                                  
G 8  22027965.257 1 115757769.428 1     -3262.838          28.000    22027977.848 1  86442514.801 1     -2436.266          38.000  
G17  23857851.053 1 125373667.896 1       927.436          22.000                                                                  
G21  20546702.714 1 107973656.904 1     -1721.625          32.000                                                                  
G30  22673145.308 1 119148125.842 1      1827.735          24.000    22673127.620 1  88974259.676 1      1366.231          14.000  
J 2  37994075.149 1 199660241.207 1       171.686          27.000                                                                  
J 3  38995626.889 1 204923366.086 1     -1784.572          34.000    38995627.189 1 153027215.855 1     -1333.043          33.000  
R21  20144982.319 1 107799869.305 1       910.212          36.000  
> 2021  5 18  3  9 29.9980452  0 17                     
C 2  37107563.668 1 193228801.922 1      -984.539          35.000  
C 3  36458125.965 1 189847013.69311      -958.030          32.000  
C 7  36692011.149 1 191064943.551 1      -629.342          30.000  
C 9  37327924.915 1 194376324.518 1     -2557.107          30.000  
C23  23129090.064 1 120439224.207 1     -2682.078          37.000  
C27  22222385.463 1 115717785.626 1       173.960          40.000  
C28  22195633.183 1 115578488.219 1     -2596.503          37.000  
C37  22058628.030 1 114865076.918 1        37.009          39.000  
E15  23137573.591 1  90796788.003 1      -106.712          28.000  
G 1  20355448.017 1 106968395.101 1       920.805          24.000                                                                  
G 7  20314923.271 1 106755715.941 1       -72.930          25.000                                                                  
G 8  22028348.092 1 115759771.462 1     -3262.156          29.000    22028358.585 1  86444009.559 1     -2435.852          38.000  
G21  20546787.555 1 107974119.327 1     -1722.946          33.000                                                                  
G30  22672555.317 1 119145036.758 1      1829.028          22.000    22672540.927 1  88971953.162 1      1365.486          14.000  
J 2  37993801.139 1 199658809.563 1       170.544          27.000                                                                  
J 3  38995722.523 1 204923890.848 1     -1784.901          33.000    38995727.620 1 153027607.666 1     -1332.278          33.000  
R21  20144566.507 1 107797644.078 1       909.189          36.000  
> 2021  5 18  3  9 30.9980444  0 19                     
C 2  37107512.404 1 193228537.563 1      -984.539          34.000  
C 3  36458069.304 1 189846723.161 1      -958.788          31.000  
C 7  36691892.132 1 191064323.178 1      -628.337          30.000  
C 9  37328178.240 1 194377633.282 1     -2557.676          31.000  
C23  23129365.573 1 120440657.317 1     -2681.516          38.000  
C27  22222110.853 1 115716362.920 1       173.911          40.000  
C28  22195894.902 1 115579835.526 1     -2596.786          37.000  
C37  22058380.701 1 114863790.369 1        37.322          39.000  
E15  23137361.338 1  90795953.527 1      -107.052          28.000  
E27  25585218.622 1 100401892.85611       599.043          33.000  
G 1  20355032.504 1 106966214.167 1       918.915          23.000                                                                  
G 7  20314696.328 1 106754528.672 1       -73.478          24.000                                                                  
G 8  22028729.128 1 115761773.431 1     -3262.188          30.000    22028739.621 1  86445504.323 1     -2436.295          39.000  
G17  23857029.022 1 125369294.02811       924.615          22.000                                                                  
G21  20546878.092 1 107974582.289 1     -1725.277          32.000                                                                  
G30  22671965.325 1 119141948.260 1      1827.768          22.000    22671954.233 1  88969646.270 1      1367.722          13.000  
J 2  37993528.328 1 199657378.705 1       170.810          28.000    37993539.120 1 149094808.17311       125.886          24.000  
J 3  38995820.255 1 204924415.480 1     -1784.041          33.000    38995827.750 1 153027999.455 1     -1333.669          33.000  
R21  20144154.592 1 107795439.407 1       906.367          36.000  
> 2021  5 18  3  9 31.9980439  0 19                     
C 2  37107551.677 1 193228741.534 1      -984.539          35.000  
C 7  36691863.951 1 191064170.510 1      -627.746          31.000  
C 9  37328521.203 1 194379410.410 1     -2558.005          31.000  
C23  23129730.121 1 120442559.002 1     -2682.014          37.000  
C27  22221928.279 1 115715408.843 1       173.153          40.000  
C28  22196242.361 1 115581651.367 1     -2596.686          37.000  
C37  22058223.310 1 114862972.396 1        37.934          39.000  
E15  23137238.423 1  90795471.649 1      -106.111          28.000  
E27  25584916.131 1 100400706.647 1       598.923          33.000  
G 1  20354706.330 1 106964507.314 1       919.239          24.000                                                                  
G 7  20314560.522 1 106753814.235 1       -73.405          24.000                                                                  
G 8  22029201.001 1 115764247.833 1     -3261.940          30.000    22029210.595 1  86447351.944 1     -2435.631          39.000  
G17  23856704.947 1 125367581.304 1       924.793          23.000                                                                  
G21  20547052.871 1 107975518.493 1     -1723.118          32.000                                                                  
G22  24149984.414 1 126909023.89711       869.389          23.000                                                                  
G30                                                                  22671457.177 1  88967691.201 1      1366.316          14.000  
J 2  37993346.354 1 199656420.070 1       170.826          27.000    37993356.846 1 149094093.551 1       126.900          25.000  
J 3  38996011.823 1 204925412.577 1     -1785.232          33.000    38996016.619 1 153028744.046 1     -1331.060          33.000  
R21  20143827.518 1 107793689.972 1       907.991          35.000  
> 2021  5 18  3  9 32.9980434  0 18                     
C 2  37107590.650 1 193228945.524 1      -984.754          35.000  
C 7  36691833.972 1 191064017.616 1      -627.568          30.000  
C 9  37328863.266 1 194381187.370 1     -2557.283          31.000  
C23  23130094.968 1 120444460.841 1     -2682.699          38.000  
C27  22221746.905 1 115714454.980 1       173.504          39.000  
C28  22196591.619 1 115583467.283 1     -2596.904          37.000  
C37  22058067.118 1 114862154.571 1        36.318          39.000  
E15  23137116.408 1  90794989.681 1      -106.419          28.000  
E27  25584613.341 1 100399520.192 1       598.305          33.000  
G 1  20354383.154 1 106962800.307 1       919.054          22.000                                                                  
G 7  20314423.817 1 106753099.525 1       -72.738          24.000                                                                  
G 8  22029674.374 1 115766721.867 1     -3261.639          30.000    22029681.269 1  86449199.472 1     -2435.462          38.000  
G21  20547237.244 1 107976455.075 1     -1725.253          33.000                                                                  
G22  24149669.931 1 126907367.331 1       868.435          23.000                                                                  
G30                                                                  22670959.521 1  88965736.560 1      1365.932          14.000  
J 2  37993163.480 1 199655461.616 1       170.892          28.000    37993174.273 1 149093378.402 1       128.786          24.000  
J 3  38996200.392 1 204926409.470 1     -1784.078          33.000    38996205.788 1 153029488.484 1     -1334.320          33.000  
R21  20143509.439 1 107791987.124 1       907.081          35.000  
> 2021  5 18  3  9 33.9980426  0 20                     
C 2  37107539.985 1 193228681.415 1      -984.837          35.000  
C 3  36458081.595 1 189846791.08311      -959.924          31.000  
C 7  36691716.453 1 191063396.259 1      -627.619          30.000  
C 9  37329113.293 1 194382496.017 1     -2558.396          32.000  
C23  23130370.178 1 120445894.607 1     -2682.540          37.000  
C27  22221473.194 1 115713032.975 1       173.147          40.000  
C28  22196850.340 1 115584814.982 1     -2597.370          37.000  
C37  22057819.489 1 114860868.630 1        36.747          39.000  
E15  23136905.054 1  90794157.017 1      -109.261          28.000  
E27  25584221.212 1 100397980.645 1       597.473          34.000  
G 1  20353968.241 1 106960621.078 1       918.641          22.000                                                                  
G 7  20314198.373 1 106751911.976 1       -72.929          25.000                                                                  
G 8  22030056.010 1 115768723.002 1     -3261.446          31.000    22030062.005 1  86450693.927 1     -2435.730          39.000  
G17  23855973.453 1 125363985.64111       924.795          22.000                                                                  
G21  20547325.383 1 107976919.373 1     -1725.444          32.000                                                                  
G22  24149259.815 1 126905239.141 1       867.233          22.000                                                                  
G30  22670384.519 1 119133630.04311      1828.182          20.000    22670372.827 1  88963429.832 1      1365.043          13.000  
J 2  37992892.768 1 199654030.460 1       170.850          27.000    37992900.562 1 149092308.507 1       128.179          24.000  
J 3  38996299.624 1 204926933.457 1     -1784.507          33.000    38996305.619 1 153029879.819 1     -1333.853          33.000  
R21  20143103.220 1 107789813.790 1       907.067          36.000  
> 2021  5 18  3  9 34.9980421  0 20                     
C 2  37107579.557 1 193228885.591 1      -984.772          35.000  
C 3  36458116.071 1 189846970.174 1      -959.667          32.000  
C 7  36691687.673 1 191063243.194 1      -627.017          30.000  
C 9  37329453.257 1 194384272.402 1     -2557.214          31.000  
C23  23130734.126 1 120447797.108 1     -2683.262          36.000  
C27  22221287.922 1 115712079.792 1       172.210          39.000  
C28  22197198.399 1 115586631.391 1     -2596.587          37.000  
C37  22057662.698 1 114860051.441 1        36.582          39.000  
E15  23136783.038 1  90793678.529 1      -109.093          27.000  
E27  25583919.021 1 100396794.060 1       596.837          33.000  
G 1  20353642.367 1 106958915.117 1       917.963          24.000                                                                  
G 7  20314062.867 1 106751197.378 1       -73.550          22.000                                                                  
G 8  22030529.382 1 115771196.747 1     -3261.734          31.000    22030532.979 1  86452541.434 1     -2435.577          38.000  
G17  23855657.172 1 125362273.502 1       924.271          19.000                                                                  
G21  20547506.457 1 107977857.093 1     -1726.030          32.000                                                                  
G22  24148946.832 1 126903583.790 1       867.124          20.000                                                                  
G30  22669881.168 1 119131014.044 1      1827.609          20.000    22669874.872 1  88961476.533 1      1365.105          13.000  
J 2  37992710.494 1 199653071.433 1       171.613          27.000    37992717.689 1 149091592.975 1       126.196          24.000  
J 3  38996488.193 1 204927930.151 1     -1784.209          33.000    38996495.988 1 153030624.093 1     -1334.348          33.000  
R21  20142777.645 1 107788071.796 1       904.996          35.000  
> 2021  5 18  3  9 35.9980413  0 18                     
C 2  37107528.593 1 193228621.484 1      -984.814          35.000  
C 3  36458060.310 1 189846680.824 1      -959.806          31.000  
C 7  36691568.056 1 191062621.240 1      -626.251          30.000  
C 9  37329702.984 1 194385581.376 1     -2558.930          31.000  
C23  23131010.235 1 120449231.752 1     -2684.025          37.000  
C27  22221015.711 1 115710658.801 1       172.231          40.000  
C28  22197458.319 1 115587979.802 1     -2597.080          37.000  
C37  22057416.568 1 114858766.400 1        35.668          39.000  
E15  23136571.385 1  90792846.708 1      -109.062          28.000  
E27  25583526.593 1 100395254.581 1       599.213          33.000  
G 1  20353227.754 1 106956737.454 1       916.758          24.000                                                                  
G 7  20313839.522 1 106750010.910 1       -74.094          23.000                                                                  
G 8  22030911.018 1 115773198.118 1     -3261.843          31.000    22030913.716 1  86454036.131 1     -2435.246          39.000  
G21  20547588.001 1 107978322.935 1     -1726.542          31.000                                                                  
G30  22669293.275 1 119127926.252 1      1827.764          19.000    22669287.279 1  88959170.606 1      1364.366          15.000  
J 2  37992437.083 1 199651639.985 1       170.481          27.000    37992445.477 1 149090523.992 1       127.849          25.000  
J 3  38996586.825 1 204928454.259 1     -1783.937          33.000    38996594.919 1 153031015.479 1     -1332.775          33.000  
R21  20142372.326 1 107785902.283 1       905.045          35.000  
> 2021  5 18  3  9 36.9980406  0 18                     
C 2  37107508.506 1 193228513.531 1      -984.856          35.000  
C 3  36458034.528 1 189846547.901 1      -960.109          31.000  
C 7  36691477.219 1 191062154.526 1      -626.271          29.000  
C 9  37329986.888 1                     -2557.049          31.000  
C23  23131315.124 1 120450822.742 1     -2684.899          36.000  
C27  22220773.778 1 115709394.145 1       171.314          39.000  
C28  22197746.720 1 115589484.491 1     -2597.668          37.000  
C37  22057200.418 1 114857637.676 1        35.568          39.000  
E15  23136389.711 1  90792133.122 1      -110.411          29.000  
E27  25583164.444 1 100393832.562 1       598.650          33.000  
G 7  20313644.057 1 106748982.484 1       -75.079          24.000                                                                  
G 8  22031320.834 1 115775357.035 1     -3261.518          31.000    22031324.731 1  86455648.379 1     -2435.840          39.000  
G21  20547706.719 1 107978946.691 1     -1725.663          32.000                                                                  
G22  24148158.977 1 126899486.11211       867.512          21.000                                                                  
G30  22668732.663 1 119124995.682 1      1827.598          20.000    22668729.665 1  88956982.635 1      1364.298          15.000  
J 2  37992192.153 1 199650365.876 1       171.613          26.000                                                                  
J 3  38996717.534 1 204929135.686 1     -1783.931          33.000    38996725.329 1 153031524.335 1     -1332.041          33.000  
R21  20141997.285 1 107783895.365 1       904.491          36.000  
> 2021  5 18  3  9 37.9980403  0 18                     
C 1  37402423.041 1 194764231.84311      -990.173          27.000  
C 2  37107608.337 1 193229029.994 1      -984.776          36.000  
C 3  36458128.963 1 189847039.432 1      -959.941          31.000  
C 7  36691507.198 1 191062312.210 1      -625.759          30.000  
C 9  37330393.406 1 194389126.53511     -2558.767          32.000  
C23  23131740.529 1 120453038.516 1     -2685.023          37.000  
C27  22220651.463 1 115708754.342 1       171.992          40.000  
C28  22198154.737 1 115591613.894 1     -2597.725          37.000  
C37  22057103.585 1 114857133.759 1        35.257          39.000  
E15  23136328.253 1  90791890.949 1      -111.074          27.000  
E27  25582921.912 1 100392881.066 1       599.187          34.000  
G 8  22031850.867 1 115778145.994 1     -3261.834          30.000    22031855.364 1  86457731.240 1     -2436.278          39.000  
G21  20547941.456 1 107980201.322 1     -1727.533          32.000                                                                  
G22  24147906.252 1 126898145.542 1       867.978          19.000                                                                  
G30                                                                  22668291.968 1  88955264.858 1      1364.705          15.000  
J 2  37992068.938 1 199649722.196 1       170.583          27.000                                                                  
J 3  38996970.259 1 204930447.260 1     -1784.698          33.000    38996974.157 1 153032503.737 1     -1331.431          33.000  
R21  20141741.862 1 107782528.765 1       903.686          35.000  
> 2021  5 18  3  9 38.9980396  0 19                     
C 2  37107587.352 1 193228921.982 1      -984.776          35.000  
C 3  36458103.480 1 189846906.542 1      -960.132          31.000  
C 7  36691416.961 1 191061845.396 1      -626.333          30.000  
C 9  37330678.209 1 194390591.322 1     -2556.807          31.000  
C23  23132044.819 1 120454630.189 1     -2684.570          37.000  
C27  22220410.430 1 115707490.426 1       170.455          40.000  
C28  22198441.938 1 115593119.076 1     -2598.723          37.000  
C37  22056886.535 1 114856005.671 1        33.971          39.000  
E15  23136146.279 1  90791177.803 1      -110.641          28.000  
E27  25582558.863 1 100391458.926 1       598.050          33.000  
G 1  20352200.365 1 106951310.73911       915.210          25.000                                                                  
G 7  20313371.845 1 106747557.42611       -76.066          22.000                                                                  
G 8  22032260.084 1 115780305.054 1     -3261.933          29.000    22032266.679 1  86459343.467 1     -2436.022          39.000  
G17  23854184.592 1 125354636.50311       924.385          19.000                                                                  
G21  20548062.872 1 107980826.296 1     -1728.529          31.000                                                                  
G30                                                                  22667734.354 1  88953077.786 1      1362.287          15.000  
J 2  37991827.005 1 199648447.743 1       171.000          27.000                                                                  
J 3  38997100.669 1 204931128.508 1     -1783.883          33.000    38997103.967 1 153033012.495 1     -1332.330          33.000  
R21  20141362.625 1 107780499.296 1       902.977          36.000  
> 2021  5 18  3  9 39.9980388  0 19                     
C 2  37107536.987 1 193228657.818 1      -984.655          35.000  
C 3  36458048.618 1 189846617.230 1      -959.208          30.000  
C 7  36691297.943 1 191061223.011 1      -626.106          30.000  
C 9  37330929.435 1 194391899.993 1     -2555.429          31.000  
C23  23132322.127 1 120456065.994 1     -2684.918          37.000  
C27  22220135.820 1 115706070.675 1       171.087          40.000  
C28  22198702.458 1 115594468.287 1     -2598.529          37.000  
C37  22056640.406 1 114854721.744 1        34.749          39.000  
E15  23135934.326 1  90790347.849 1      -110.415          28.000  
E27  25582167.034 1 100389919.043 1       598.955          33.000  
G 1  20351786.351 1 106949135.510 1       914.424          26.000                                                                  
G 7  20313147.301 1 106746373.545 1       -77.046          25.000                                                                  
G 8  22032640.520 1 115782306.359 1     -3261.593          28.000    22032647.116 1  86460838.016 1     -2436.405          39.000  
G17  23853768.180 1 125352451.970 1       923.572          19.000                                                                  
G21  20548150.112 1 107981294.216 1     -1726.760          31.000                                                                  
G30  22667123.977 1 119116669.30911      1835.512          18.000    22667147.360 1  88950773.107 1      1362.147          15.000  
J 2  37991556.293 1 199647016.009 1       171.950          28.000                                                                  
J 3  38997200.200 1 204931652.141 1     -1784.727          32.000    38997204.397 1 153033403.473 1     -1331.076          33.000  
R21  20140954.008 1 107778313.211 1       902.138          35.000  
> 2021  5 18  3  9 40.9980383  0 21                     
C 2  37107576.859 1 193228861.840 1      -984.492          35.000  
C 3  36458082.195 1 189846795.843 1      -959.521          31.000  
C 7  36691269.763 1 191061069.043 1      -626.819          29.000  
C 9  37331263.404 1 194393676.935 1     -2557.551          31.000  
C10  37264952.610 1 194048312.55411      -709.060          21.000  
C23  23132687.574 1 120457970.413 1     -2684.936          37.000  
C27  22219953.546 1 115705119.590 1       171.653          40.000  
C28  22199049.618 1 115596286.050 1     -2597.940          37.000  
C37  22056481.815 1 114853906.458 1        34.296          39.000  
E15  23135811.711 1  90789869.395 1      -109.489          27.000  
E27  25581864.244 1 100388731.896 1       599.093          33.000  
G 1  20351467.672 1 106947433.547 1       913.910          25.000                                                                  
G 7  20313012.994 1 106745662.968 1       -77.444          24.000                                                                  
G 8  22033108.796 1 115784780.049 1     -3261.436          28.000    22033117.790 1  86462685.437 1     -2434.656          38.000  
G17  23853459.394 1 125350740.513 1       923.448          19.000                                                                  
G21  20548330.287 1 107982235.307 1     -1729.972          31.000                                                                  
G22  24146812.909 1 126892389.31111       868.706          19.000                                                                  
G30  22666622.124 1 119114042.640 1      1838.674          17.000    22666650.305 1  88948821.937 1      1363.947          15.000  
J 2  37991374.019 1 199646056.233 1       172.184          28.000                                                                  
J 3  38997386.971 1 204932648.182 1     -1784.525          33.000    38997393.866 1 153034147.310 1     -1331.695          33.000  
R21  20140635.029 1 107776606.171 1       901.485          36.000  
> 2021  5 18  3  9 41.9980375  0 19                     
C 2  37107526.494 1 193228597.381 1      -984.302          36.000  
C 3  36458027.033 1 189846506.051 1      -958.725          30.000  
C 7  36691151.045 1 191060447.347 1      -627.458          30.000  
C 9  37331514.930 1 194394985.493 1     -2558.148          31.000  
C23  23132962.783 1 120459406.757 1     -2685.720          37.000  
C27  22219681.634 1 115703700.434 1       170.009          40.000  
C28  22199308.039 1 115597635.663 1     -2598.222          37.000  
C37  22056236.285 1 114852623.035 1        33.947          39.000  
E15  23135600.357 1  90789038.403 1      -111.227          28.000  
E27  25581471.816 1 100387191.761 1       597.607          33.000  
G 1  20351055.457 1 106945259.191 1       913.799          27.000                                                                  
G 7  20312785.151 1 106744480.104 1       -77.673          24.000                                                                  
G 8  22033486.235 1 115786781.057 1     -3261.473          26.000    22033498.526 1  86464179.876 1     -2435.954          38.000  
G17  23853048.078 1 125348556.561 1       922.982          19.000                                                                  
G21  20548422.623 1 107982704.259 1     -1731.780          32.000                                                                  
G30  22666028.535 1 119110937.413 1      1844.463          13.000    22666063.011 1  88946520.094 1      1359.262          15.000  
J 2  37991102.707 1 199644623.563 1       172.663          29.000                                                                  
J 3  38997485.902 1 204933171.426 1     -1784.961          33.000    38997493.097 1 153034538.076 1     -1332.720          33.000  
R21  20140225.212 1 107774412.557 1       900.859          35.000  
> 2021  5 18  3  9 42.9980367  0 19                     
C 2  37107474.330 1 193228332.628 1      -984.045          36.000  
C 3  36457971.571 1 189846215.859 1      -958.824          31.000  
C 7  36691032.327 1 191059825.586 1      -627.183          31.000  
C 9  37331769.154 1 194396294.172 1     -2557.041          32.000  
C23  23133240.691 1 120460843.525 1     -2686.030          37.000  
C27  22219408.823 1 115702281.736 1       169.358          40.000  
C28  22199568.858 1 115598985.622 1     -2597.975          37.000  
C37  22055991.055 1 114851340.041 1        33.578          40.000  
E15  23135389.003 1  90788208.893 1      -112.414          28.000  
E27  25581079.987 1 100385651.628 1       598.405          33.000  
G 1  20350642.943 1 106943349.524 1       912.830          25.000                                                                  
G 7  20312560.307 1 106743298.078 1       -78.392          22.000                                                                  
G 8  22033864.873 1 115788782.071 1     -3261.366          25.000    22033879.563 1  86465674.389 1     -2435.236          38.000  
G17  23852624.472 1 125346374.514 1       919.845          19.000                                                                  
G21  20548516.758 1 107983173.911 1     -1731.057          31.000                                                                  
G30                                                                  22665476.317 1  88944219.192 1      1360.347          15.000  
J 2  37990830.495 1 199643190.224 1       173.486          28.000    37990837.990 1 149084212.18811       129.070          25.000  
J 3  38997585.733 1 204933694.739 1     -1784.816          33.000    38997592.628 1 153034928.863 1     -1331.260          33.000  
R21  20139816.595 1 107772226.627 1       900.109          35.000  
> 2021  5 18  3  9 43.9980362  0 19                     
C 2  37107514.502 1 193228534.913 1      -982.644          35.000  
C 3  36458006.647 1 189846393.701 1      -958.265          32.000  
C 7  36691003.547 1 191059671.864 1      -626.691          31.000  
C 9  37332110.318 1 194398071.172 1     -2557.461          31.000  
C23  23133605.538 1 120462748.961 1     -2685.272          37.000  
C27  22219225.950 1 115701331.705 1       168.926          40.000  
C28  22199919.316 1 115600804.092 1     -2599.666          37.000  
C37  22055834.863 1 114850525.693 1        33.230          40.000  
E15  23135267.887 1  90787732.374 1      -113.289          27.000  
E27  25580777.196 1 100384464.305 1       598.811          33.000  
G 1  20350322.165 1 106941649.044 1       912.818          26.000                                                                  
G 7  20312426.899 1 106742589.087 1       -79.216          24.000                                                                  
G 8  22034334.348 1 115791255.723 1     -3261.584          25.000    22034350.537 1  86467521.811 1     -2435.903          38.000  
G21  20548695.434 1 107984116.706 1     -1729.659          31.000                                                                  
G22  24145681.193 1 126886477.86811       867.365          19.000                                                                  
G30                                                                  22664979.861 1  88942271.898 1      1359.215          15.000  
J 2  37990648.521 1 199642228.805 1       173.840          27.000    37990655.117 1 149083495.023 1       129.277          24.000  
J 3  38997778.800 1 204934690.554 1     -1784.988          34.000    38997782.697 1 153035672.487 1     -1332.786          33.000  
R21  20139495.517 1 107770507.661 1       899.515          35.000  
> 2021  5 18  3  9 44.9980357  0 21                     
C 1  37402373.576 1 194763971.24811      -990.440          27.000  
C 2  37107554.075 1 193228738.116 1      -984.834          35.000  
C 3  36458040.824 1 189846571.348 1      -958.350          32.000  
C 7  36690973.867 1 191059517.803 1      -626.342          30.000  
C 9  37332452.381 1 194399848.279 1     -2558.576          31.000  
C23  23133972.484 1 120464654.699 1     -2686.578          36.000  
C27  22219043.676 1 115700382.050 1       168.420          40.000  
C28  22200267.974 1 115602622.832 1     -2599.515          36.000  
C37  22055678.072 1 114849711.675 1        32.531          39.000  
E15  23135146.771 1  90787257.377 1      -113.809          27.000  
E27  25580474.106 1 100383276.954 1       598.923          34.000  
G 1  20349999.888 1 106939948.910 1       912.157          26.000                                                                  
G 7  20312290.494 1 106741881.015 1       -80.051          24.000                                                                  
G 8  22034802.624 1 115793729.604 1     -3261.441          26.000    22034821.211 1  86469369.257 1     -2436.033          38.000  
G 9  23999403.459 1 126117716.27911     -3276.911          20.000                                                                  
G21  20548875.010 1 107985060.145 1     -1731.371          31.000                                                                  
G22  24145371.207 1 126884822.191 1       868.625          20.000                                                                  
G30                                                                  22664482.805 1  88940323.022 1      1362.974          15.000  
J 2  37990467.746 1 199641267.823 1       172.943          28.000    37990474.042 1 149082777.299 1       129.403          25.000  
J 3  38997965.870 1 204935686.279 1     -1782.419          34.000    38997972.465 1 153036416.088 1     -1331.528          34.000  
R21  20139175.639 1 107768796.244 1       898.746          35.000  
> 2021  5 18  3  9 45.9980349  0 20                     
C 2  37107503.110 1 193228473.915 1      -984.578          35.000  
C 3  36457985.662 1 189846280.620 1      -958.290          31.000  
C 7  36690854.550 1 191058895.031 1      -625.972          30.000  
C 9  37332704.506 1 194401156.907 1     -2556.672          32.000  
C23  23134248.593 1 120466092.372 1     -2687.647          36.000  
C27  22218770.865 1 115698964.381 1       168.025          40.000  
C28  22200523.997 1 115603973.402 1     -2600.575          36.000  
C37  22055431.942 1 114848429.610 1        32.975          39.000  
E15  23134935.118 1  90786428.756 1      -111.394          28.000  
E27  25580082.577 1 100381736.494 1       598.449          34.000  
G 1  20349587.973 1 106937776.600 1       911.776          27.000                                                                  
G 7  20312065.050 1 106740700.723 1       -80.394          24.000                                                                  
G 8  22035182.461 1 115795730.631 1     -3261.506          25.000    22035202.247 1  86470863.712 1     -2435.468          38.000  
G 9  23999785.694 1 126119733.264 1     -3278.091          20.000                                                                  
G21  20548964.648 1 107985531.388 1     -1731.131          31.000                                                                  
G22  24144968.286 1 126882693.235 1       868.068          20.000                                                                  
G30                                                                  22663894.312 1  88938017.981 1      1364.339          14.000  
J 2  37990194.935 1 199639834.864 1       172.364          28.000    37990201.831 1 149081706.734 1       128.552          24.000  
J 3  38998066.300 1 204936209.273 1     -1783.317          33.000    38998071.697 1 153036806.580 1     -1332.246          34.000  
R21  20138764.623 1 107766597.191 1       898.124          34.000  
> 2021  5 18  3  9 46.9980342  0 19                     
C 2  37107481.525 1 193228365.663 1      -984.494          35.000  
C 3  36457960.179 1 189846145.709 1      -957.787          31.000  
C 7  36690765.212 1 191058428.212 1      -625.964          31.000  
C 9  37332983.313 1 194402621.767 1     -2556.778          31.000  
C23  23134554.681 1 120467686.569 1     -2687.546          36.000  
C27  22218529.232 1 115697703.219 1       168.471          40.000  
C28  22200814.496 1 115605480.404 1     -2599.967          36.000  
C37  22055215.792 1 114847304.019 1        32.608          39.000  
E15  23134753.743 1  90785716.961 1      -111.752          27.000  
E27  25579719.529 1 100380313.660 1       599.205          34.000  
G 1  20349205.438 1 106935762.136 1       911.247          27.000                                                                  
G 7  20311868.986 1 106739678.581 1       -81.018          24.000                                                                  
G 8  22035593.176 1 115797889.316 1     -3261.697          27.000    22035612.663 1  86472475.856 1     -2435.795          38.000  
G21  20549083.965 1 107986160.857 1     -1732.595          32.000                                                                  
G22  24144591.747 1 126880722.618 1       867.892          19.000                                                                  
G30                                                                  22663335.499 1  88935829.877 1      1365.070          13.000  
J 2  37989954.202 1 199638559.750 1       172.775          27.000    37989959.298 1 149080754.728 1       128.251          25.000  
J 3  38998195.211 1 204936889.674 1     -1783.846          34.000    38998200.907 1 153037314.724 1     -1332.188          34.000  
R21  20138382.088 1 107764550.243 1       897.482          35.000  
> 2021  5 18  3  9 47.9980337  0 20                     
C 2  37107519.299 1 193228569.409 1      -984.262          35.000  
C 3  36457994.356 1 189846322.812 1      -957.685          31.000  
C 7  36690734.633 1 191058273.347 1      -625.838          31.000  
C 9  37333325.976 1 194404398.775 1     -2558.401          31.000  
C23  23134919.229 1 120469593.197 1     -2686.958          36.000  
C27  22218344.860 1 115696754.534 1       167.775          40.000  
C28  22201165.253 1 115607299.757 1     -2599.887          37.000  
C37  22055060.200 1 114846490.861 1        31.975          39.000  
E15  23134633.227 1  90785242.214 1      -114.040          28.000  
E27  25579416.738 1 100379125.994 1       598.016          34.000  
G 1  20348882.562 1 106934063.522 1       910.187          27.000                                                                  
G 7  20311732.880 1 106738971.827 1       -80.911          23.000                                                                  
G 8  22036064.750 1 115800363.141 1     -3261.796          26.000    22036083.337 1  86474323.210 1     -2435.793          38.000  
G 9  24000679.675 1 126124398.72211     -3275.935          19.000                                                                  
G21  20549261.442 1 107987105.842 1     -1733.052          32.000                                                                  
G22  24144279.663 1 126879066.089 1       869.096          19.000                                                                  
G30                                                                  22662837.244 1  88933876.875 1      1364.051          13.000  
J 2  37989771.329 1 199637599.025 1       173.889          28.000    37989776.725 1 149080037.347 1       129.160          24.000  
J 3  38998382.881 1 204937885.060 1     -1783.799          34.000    38998389.777 1 153038058.000 1     -1331.302          33.000  
R21  20138062.509 1 107762839.817 1       896.865          34.000  
> 2021  5 18  3  9 48.9980332  0 19                     
C 2  37107557.373 1 193228773.006 1      -984.029          35.000  
C 3  36458029.731 1 189846499.797 1      -957.611          31.000  
C 7  36690704.354 1 191058118.094 1      -625.019          31.000  
C 9  37333666.840 1 194406175.668 1     -2558.148          31.000  
C23  23135284.676 1 120471500.031 1     -2688.092          36.000  
C27  22218163.785 1 115695806.057 1       167.392          40.000  
C28  22201516.310 1 115609119.186 1     -2600.780          36.000  
C37  22054904.307 1 114845677.872 1        32.232          39.000  
E15  23134512.111 1  90784768.409 1      -115.276          27.000  
E27  25579113.948 1 100377938.147 1       597.878          34.000  
G 1  20348557.587 1 106932365.638 1       910.042          26.000                                                                  
G 7  20311598.873 1 106738265.000 1       -81.678          24.000                                                                  
G 8                                                                  22036554.011 1  86476170.471 1     -2435.815          38.000  
G 9  24001153.047 1 126126885.760 1     -3272.952          21.000                                                                  
G21  20549445.215 1 107988051.262 1     -1733.306          32.000                                                                  
G30                                                                  22662339.589 1  88931925.505 1      1360.039          12.000  
J 2  37989589.055 1 199636637.418 1       173.845          28.000                                                                  
J 3  38998577.147 1 204938880.129 1     -1783.730          34.000    38998579.545 1 153038801.119 1     -1331.926          33.000  
R21  20137742.031 1 107761125.042 1       896.296          34.000  
> 2021  5 18  3  9 49.9980324  0 19                     
C 2  37107504.909 1 193228507.956 1      -983.834          34.000  
C 3  36457974.869 1 189846208.608 1      -958.358          31.000  
C 7  36690584.137 1 191057494.051 1      -624.765          30.000  
C 9  37333921.664 1 194407484.465 1     -2554.979          30.000  
C23  23135561.384 1 120472939.052 1     -2688.059          35.000  
C27  22217891.274 1 115694389.851 1       167.525          40.000  
C28  22201774.132 1 115610470.758 1     -2600.713          36.000  
C37  22054658.478 1 114844397.117 1        31.748          39.000  
E15  23134300.757 1  90783941.217 1      -112.832          27.000  
E27  25578721.220 1 100376397.415 1       599.166          34.000  
G 1  20348141.775 1 106930195.896 1       908.656          26.000                                                                  
G 7  20311373.129 1 106737087.034 1       -82.799          23.000                                                                  
G 8                                                                  22036934.448 1  86477664.936 1     -2435.049          38.000  
G21  20549529.757 1 107988524.846 1     -1735.884          31.000                                                                  
G22  24143558.662 1 126875281.30211       868.462          19.000                                                                  
G30                                                                  22661752.895 1  88929622.836 1      1363.713          12.000  
J 2  37989315.644 1 199635203.738 1       172.566          28.000                                                                  
J 3  38998672.181 1 204939402.794 1     -1783.581          33.000    38998679.376 1 153039191.358 1     -1330.350          34.000  
R21  20137331.615 1 107758928.614 1       895.647          35.000  
> 2021  5 18  3  9 50.9980319  0 18                     
C 2  37107543.282 1 193228711.114 1      -983.667          34.000  
C 3  36458009.046 1 189846386.354 1      -958.525          30.000  
C 7  36690554.458 1 191057339.197 1      -625.986          31.000  
C 9  37334259.830 1 194409261.754 1     -2556.499          31.000  
C10  37264409.686 1 194045399.29911      -707.963          19.000  
C23  23135927.431 1 120474846.881 1     -2687.430          36.000  
C27  22217710.199 1 115693442.407 1       166.818          39.000  
C28  22202126.088 1 115612291.023 1     -2601.195          36.000  
C37  22054501.686 1 114843585.106 1        31.323          39.000  
E15  23134178.741 1  90783465.879 1      -113.303          27.000  
E27  25578418.429 1 100375209.657 1       599.920          33.000  
G 8                                                                  22037405.422 1  86479512.436 1     -2434.951          38.000  
G17  23849694.900 1 125330991.89711       920.133          22.000                                                                  
G21  20549718.626 1 107989471.805 1     -1735.289          32.000                                                                  
G30                                                                  22661255.539 1  88927671.121 1      1362.325          13.000  
J 2  37989132.771 1 199634243.874 1       171.623          27.000                                                                  
J 3  38998864.648 1 204940398.019 1     -1782.946          34.000    38998868.845 1 153039934.637 1     -1332.628          34.000  
R21  20137012.037 1 107757218.254 1       894.740          35.000  
> 2021  5 18  3  9 51.9980311  0 20                     
C 2  37107491.718 1 193228445.966 1      -983.728          35.000  
C 3  36457953.884 1 189846096.000 1      -958.613          31.000  
C 7  36690432.742 1 191056716.456 1      -626.040          31.000  
C 9  37334509.857 1 194410570.590 1     -2557.774          31.000  
C13  38551833.621 1 200749514.29211       562.106          22.000  
C23  23136205.938 1 120476286.637 1     -2688.756          36.000  
C27  22217438.587 1 115692026.948 1       165.688          39.000  
C28  22202384.209 1 115613643.127 1     -2602.317          36.000  
C37  22054255.856 1 114842305.070 1        30.687          39.000  
E15  23133967.388 1  90782637.550 1      -113.979          27.000  
E27  25578026.001 1 100373668.869 1       601.552          33.000  
G 1  20347402.187 1 106926329.96911       909.767          24.000                                                                  
G 7  20311014.577 1 106735204.55011       -83.343          23.000                                                                  
G 8                                                                  22037786.458 1  86481006.951 1     -2435.992          38.000  
G21  20549805.266 1 107989946.669 1     -1735.137          32.000                                                                  
G22  24142835.863 1 126871491.43211       871.234          18.000                                                                  
G30                                                                  22660668.845 1  88925368.381 1      1360.698          13.000  
J 2  37988861.159 1 199632811.944 1       171.963          29.000                                                                  
J 3  38998966.277 1 204940920.566 1     -1784.308          34.000    38998967.477 1 153040324.805 1     -1332.262          33.000  
R21  20136602.220 1 107755025.464 1       893.976          35.000  
> 2021  5 18  3  9 52.9980303  0 18                     
C 2  37107440.753 1 193228180.672 1      -983.402          34.000  
C 3  36457897.223 1 189845805.456 1      -958.561          31.000  
C 7  36690313.425 1 191056093.449 1      -624.665          31.000  
C 9  37334761.682 1 194411879.445 1     -2557.228          31.000  
C23  23136484.145 1 120477726.652 1     -2689.591          36.000  
C27  22217166.975 1 115690611.809 1       166.366          39.000  
C28  22202644.129 1 115614995.427 1     -2601.033          37.000  
C37  22054010.626 1 114841025.255 1        30.837          39.000  
E15  23133756.933 1  90781810.307 1      -113.928          26.000  
E27  25577633.273 1 100372127.916 1       599.005          33.000  
G 1  20346986.974 1 106924161.094 1       907.479          23.000                                                                  
G 7  20310789.733 1 106734026.773 1       -82.725          24.000                                                                  
G 8                                                                  22038167.494 1  86482501.424 1     -2435.705          37.000  
G21  20549894.004 1 107990421.971 1     -1736.282          32.000                                                                  
G30                                                                  22660083.051 1  88923068.308 1      1359.295          12.000  
J 2  37988589.247 1 199631381.098 1       169.835          29.000                                                                  
J 3  38999064.909 1 204941442.864 1     -1781.777          33.000    38999067.308 1 153040714.848 1     -1331.892          33.000  
R21  20136194.203 1 107752842.360 1       893.263          35.000  
> 2021  5 18  3  9 53.9980298  0 19                     
C 2  37107479.127 1 193228383.344 1      -983.100          34.000  
C 3  36457930.500 1 189845983.335 1      -958.631          30.000  
C 7  36690282.546 1 191055937.599 1      -624.593          30.000  
C 9  37335106.144 1 194413656.515 1     -2558.181          32.000  
C10  37264183.043 1 194044242.96311      -710.136          19.000  
C23  23136849.892 1 120479635.218 1     -2689.689          36.000  
C27  22216985.901 1 115689665.232 1       165.360          40.000  
C28  22202993.388 1 115616816.193 1     -2601.547          37.000  
C37  22053854.434 1 114840213.999 1        30.650          39.000  
E15  23133637.316 1  90781337.131 1      -116.020          27.000  
E27  25577330.782 1 100370939.733 1       599.306          33.000  
G 1  20346664.697 1 106922466.284 1       906.982          24.000                                                                  
G 8                                                                  22038638.468 1  86484348.745 1     -2435.873          38.000  
G17  23848529.607 1 125324923.09011       918.670          22.000                                                                  
G21  20550079.276 1 107991370.382 1     -1737.874          33.000                                                                  
G30                                                                  22659586.595 1  88921084.083 1      1355.566          10.000  
J 2  37988406.973 1 199630423.141 1       170.531          29.000                                                                  
J 3  38999252.879 1 204942437.692 1     -1781.946          34.000    38999256.776 1 153041457.709 1     -1331.097          33.000  
R21  20135875.823 1 107751138.061 1       892.698          33.000  
> 2021  5 18  3  9 54.9980293  0 19                     
C 2  37107519.299 1 193228585.775 1      -982.891          35.000  
C 3  36457964.676 1 189846161.221 1      -958.580          31.000  
C 7  36690252.567 1 191055781.874 1      -625.247          32.000  
C 9  37335451.205 1 194415433.720 1     -2558.132          32.000  
C23  23137215.039 1 120481544.217 1     -2690.218          37.000  
C27  22216806.325 1 115688719.118 1       166.074          40.000  
C28  22203343.545 1 115618637.259 1     -2602.092          37.000  
C37  22053698.842 1 114839403.177 1        30.115          40.000  
E15  23133517.699 1  90780864.816 1      -115.579          28.000  
E27  25577028.292 1 100369751.622 1       599.499          33.000  
G 1  20346339.722 1 106920772.398 1       904.800          26.000                                                                  
G 7  20310521.119 1 106732617.70311       -84.648          25.000                                                                  
G 8                                                                  22039108.842 1  86486196.144 1     -2435.317          38.000  
G17  23848201.334 1 125323216.057 1       920.176          22.000                                                                  
G21  20550260.051 1 107992319.512 1     -1738.203          32.000                                                                  
G30                                                                  22659091.637 1  88919141.858 1      1358.244          11.000  
J 2  37988224.100 1 199629463.595 1       172.220          29.000                                                                  
J 3  38999444.446 1 204943432.449 1     -1782.390          33.000    38999445.646 1 153042200.550 1     -1329.587          33.000  
R21  20135556.244 1 107749428.384 1       892.142          33.000  
> 2021  5 18  3  9 55.9980285  0 19                     
C 2  37107468.334 1 193228319.659 1      -982.682          35.000  
C 3  36457908.615 1 189845870.833 1      -958.435          31.000  
C 7  36690131.750 1 191055158.222 1      -625.301          32.000  
C 9  37335700.333 1 194416742.680 1     -2558.488          32.000  
C13  38550635.650 1 200743205.84411       562.282          21.000  
C23  23137492.947 1 120482985.273 1     -2689.112          36.000  
C27  22216535.313 1 115687305.049 1       164.871          40.000  
C28  22203601.367 1 115619990.295 1     -2602.270          37.000  
C37  22053454.511 1 114838124.365 1        28.939          40.000  
E15  23133307.245 1  90780039.078 1      -114.745          28.000  
E27  25576634.964 1 100368210.486 1       600.660          34.000  
G 1  20345926.308 1 106918606.991 1       906.027          26.000                                                                  
G 7  20310297.773 1 106731442.421 1       -86.080          24.000                                                                  
G 8                                                                  22039489.579 1  86487690.593 1     -2435.604          38.000  
G21  20550352.087 1 107992796.516 1     -1738.177          33.000                                                                  
G30                                                                  22658505.843 1                      1355.715          12.000  
J 2  37987951.888 1 199628030.795 1       172.521          29.000                                                                  
J 3  38999544.277 1 204943954.546 1     -1781.594          34.000    38999544.877 1 153042590.419 1     -1330.670          33.000  
R21  20135147.328 1 107747239.698 1       891.878          33.000  
> 2021  5 18  3  9 56.9980280  0 19                     
C 2  37107507.307 1 193228521.657 1      -982.473          35.000  
C 3  36457943.391 1 189846048.433 1      -958.351          32.000  
C 7  36690102.670 1                      -622.783          32.000  
C 9  37336036.700 1 194418520.065 1     -2556.583          32.000  
C23  23137857.195 1 120484895.025 1     -2690.818          37.000  
C27  22216353.039 1 115686359.778 1       164.421          41.000  
C28  22203952.124 1 115621812.010 1     -2602.617          37.000  
C37  22053297.720 1 114837314.295 1        28.887          40.000  
E15  23133186.428 1  90779566.138 1      -115.931          29.000  
E27  25576331.874 1 100367022.260 1       600.061          34.000  
G 1  20345603.732 1 106916913.364 1       905.947          26.000                                                                  
G 7  20310164.965 1 106730740.540 1       -84.910          25.000                                                                  
G 8                                                                  22039960.553 1  86489538.082 1     -2435.197          38.000  
G17  23847453.052 1 125319330.44111       918.603          21.000                                                                  
G21  20550529.564 1 107993746.884 1     -1737.605          32.000                                                                  
G30                                                                  22658009.387 1                      1355.990          12.000  
J 2  37987768.415 1 199627069.606 1       174.303          30.000                                                                  
J 3  38999735.545 1 204944949.270 1     -1781.028          34.000    38999734.346 1 153043333.259 1     -1330.614          34.000  
R21  20134827.749 1 107745530.123 1       890.953          33.000  
> 2021  5 18  3  9 57.9980273  0 19                     
C 2  37107486.022 1 193228411.436 1      -982.534          35.000  
C 3  36457917.009 1 189845913.853 1      -958.295          32.000  
C 7  36690019.928 1                      -622.965          32.000  
C 9  37336319.104 1 194419985.134 1     -2559.518          32.000  
C13  38550069.642 1 200740209.37711       562.819          18.000  
C23  23138166.581 1 120486492.881 1     -2690.460          37.000  
C27  22216112.305 1 115685102.561 1       164.031          40.000  
C28  22204241.723 1 115623321.667 1     -2602.956          37.000  
C37  22053083.368 1 114836192.291 1        28.987          40.000  
E15  23133005.953 1  90778858.636 1      -116.781          28.000  
E27  25575969.725 1 100365598.649 1       600.838          34.000  
G 1  20345221.496 1 106914906.317 1       902.940          26.000                                                                  
G 7  20309972.199 1 106729722.620 1       -85.034          25.000                                                                  
G 8  22040373.067 1 115822886.98911     -3261.358          30.000    22040371.568 1  86491150.228 1     -2435.091          38.000  
G21  20550652.479 1 107994382.735 1     -1739.556          32.000                                                                  
G30                                                                  22657453.571 1  88912714.46111      1357.839          13.000  
J 2  37987524.984 1 199625792.614 1       174.706          29.000                                                                  
J 3  38999861.458 1 204945628.794 1     -1782.037          33.000    38999864.456 1 153043840.684 1     -1330.387          33.000  
R21  20134449.711 1 107743507.433 1       890.900          32.000  
> 2021  5 18  3  9 58.9980265  0 18                     
C 2  37107435.957 1 193228144.910 1      -982.381          35.000  
C 3  36457860.648 1 189845623.054 1      -957.918          32.000  
C 7  36689895.214 1 191053900.51511      -623.629          31.000  
C 9  37336577.525 1 194421294.205 1     -2558.129          31.000  
C23  23138442.090 1 120487935.118 1     -2692.601          37.000  
C27  22215841.893 1 115683689.673 1       164.516          41.000  
C28  22204503.442 1 115624675.353 1     -2602.605          36.000  
C37  22052837.538 1 114834914.419 1        28.957          40.000  
E15  23132795.799 1  90778034.144 1      -116.273          29.000  
E27  25575576.996 1 100364057.163 1       599.588          34.000  
G 1  20344808.982 1 106912742.506 1       903.638          27.000                                                                  
G 7  20309750.053 1 106728546.807 1       -84.605          25.000                                                                  
G 8  22040755.003 1 115824888.119 1     -3261.628          31.000    22040752.604 1  86492644.603 1     -2434.861          38.000  
G21  20550741.218 1 107994861.437 1     -1737.591          30.000                                                                  
G30                                                                  22656866.278 1  88910413.622 1      1363.087          13.000  
J 2  37987251.573 1 199624357.369 1       174.707          29.000                                                                  
J 3  38999959.790 1 204946150.679 1     -1781.660          34.000    38999963.087 1 153044230.358 1     -1330.526          33.000  
R21  20134041.993 1 107741325.660 1       889.719          33.000  
> 2021  5 18  3  9 59.9980262  0 17                     
C 2  37107534.289 1 193228658.937 1      -982.456          34.000  
C 3  36457953.284 1 189846112.450 1      -957.443          31.000  
C 7  36689929.390 1 191054055.446 1      -620.703          31.000  
C 9  37336978.348 1 194423384.165 1     -2557.489          26.000  
C23  23138869.294 1 120490159.468 1     -2693.695          35.000  
C27  22215718.678 1 115683058.143 1       163.026          41.000  
C28  22204913.258 1 115626808.875 1     -2599.483          38.000  
C37  22052742.204 1 114834416.778 1        29.530          39.000  
E15  23132736.140 1  90777797.798 1      -116.935          30.000  
E27  25575333.565 1 100363102.459 1       604.171          34.000  
G 1  20344545.164 1 106911366.155 1       902.537          26.000                                                                  
G 7  20309679.601 1 106728160.464 1       -87.507          29.000                                                                  
G 8                                                                  22041282.638 1  86494726.089 1     -2433.067          38.000  
G21  20550981.951 1 107996128.030 1     -1739.036          27.000                                                                  
G30                                                                  22656430.080 1  88908697.577 1      1363.024          14.000  
J 2  37987129.857 1 199623710.300 1       173.965          30.000                                                                  
J 3  39000207.418 1 204947459.714 1     -1782.611          32.000    39000212.215 1 153045207.794 1     -1329.391          33.000  
> 2021  5 18  3 10  0.9980255  0 18                     
C 2  37107512.704 1 193228548.927 1      -983.170          34.000  
C 3  36457927.202 1 189845977.536 1      -958.311          29.000  
C 7  36689832.857 1 191053582.940 1      -619.242          32.000  
C 9  37337255.056 1 194424850.731 1     -2561.927          28.000  
C13  38549213.135 1 200735712.49911       560.587          21.000  
C23  23139178.080 1 120491763.102 1     -2698.624          36.000  
C27  22215477.945 1 115681803.539 1       161.847          41.000  
C28  22205203.757 1 115628315.646 1     -2598.180          37.000  
C37  22052526.653 1 114833293.260 1        31.402          40.000  
E15  23132556.265 1  90777092.261 1      -119.239          27.000  
E27  25574969.317 1 100361673.496 1       607.041          35.000  
G 1  20344163.229 1 106909360.929 1       902.734          24.000                                                                  
G 7  20309487.135 1 106727145.571 1       -88.480          29.000                                                                  
G 8                                                                  22041692.754 1  86496334.287 1     -2429.062          37.000  
G21  20551101.868 1 107996765.436 1     -1740.681          33.000                                                                  
G30                                                                  22655873.665 1  88906510.317 1      1364.282          17.000  
J 2  37986888.225 1 199622433.740 1       173.528          29.000                                                                  
J 3  39000335.430 1 204948137.540 1     -1777.458          31.000    39000340.826 1 153045713.984 1     -1330.288          33.000  
> 2021  5 18  3 10  1.9980247  0 16                     
C 2  37107461.739 1 193228283.644 1      -984.334          34.000  
C 7  36689709.942 1 191052951.158 1      -613.680          31.000  
C 9  37337503.884 1 194426165.333 1     -2564.987          27.000  
C23  23139457.187 1 120493213.995 1     -2701.921          33.000  
C27  22215210.530 1 115680393.993 1       159.941          40.000  
C28  22205462.778 1 115629663.554 1     -2595.417          37.000  
C37  22052282.323 1 114832011.870 1        33.179          40.000  
E15  23132346.710 1  90776271.197 1      -120.508          27.000  
E27  25574574.191 1 100360122.982 1       611.095          35.000  
G 1  20343752.213 1 106907200.318 1       899.328          24.000                                                                  
G 7  20309265.888 1 106725973.881 1       -88.130          30.000                                                                  
G 8  22042074.389 1 115831827.40411     -3254.785          26.000    22042072.591 1  86497822.204 1     -2429.064          33.000  
G21  20551190.607 1 107997245.727 1     -1741.181          31.000                                                                  
G30                                                                  22655286.971 1  88904203.343 1      1367.939          17.000  
J 2  37986616.912 1 199621000.708 1       171.895          29.000                                                                  
J 3  39000430.464 1 204948656.122 1     -1781.520          31.000    39000440.057 1 153046101.275 1     -1328.961          31.000  
> 2021  5 18  3 10  2.9980242  0 17                     
C 2  37107501.311 1 193228488.063 1      -985.633          32.000  
C 7  36689678.464 1 191052784.251 1      -612.346          31.000  
C 9  37337844.748 1 194427952.271 1     -2570.821          28.000  
C13  38548607.554 1 200732561.63911       562.928          21.000  
C23  23139825.332 1 120495136.173 1     -2701.421          35.000  
C27  22215030.355 1 115679453.446 1       159.023          40.000  
C28  22205809.638 1 115631476.915 1     -2592.425          36.000  
C37  22052126.131 1 114831196.679 1        34.926          40.000  
E15  23132228.292 1  90775804.152 1      -121.821          27.000  
E27  25574267.803 1 100358921.408 1       614.145          30.000  
G 1  20343430.236 1 106905517.198 1       891.566          25.000                                                                  
G 7  20309133.979 1 106725275.420 1       -88.434          28.000                                                                  
G 8                                                                  22042541.766 1  86499663.008 1     -2429.344          24.000  
G21  20551370.182 1 107998199.819 1     -1742.495          31.000                                                                  
G30                                                                  22654789.616 1  88902246.742 1      1371.857          18.000  
J 2  37986435.538 1 199620040.567 1       171.934          26.000                                                                  
J 3  39000619.033 1 204949645.618 1     -1776.410          33.000    39000628.327 1 153046840.006 1     -1325.100          32.000  
> 2021  5 18  3 10  3.9980234  0 19                     
C 2  37107451.546 1 193228225.752 1      -987.224          33.000  
C 7  36689554.350 1 191052146.995 1      -611.861          30.000  
C 9  37338095.674 1 194429274.351 1     -2570.929          29.000  
C10  37263595.150 1 194041297.92311      -690.684          26.000  
C13  38548261.894 1 200730746.995 1       565.828          21.000  
C23  23140106.238 1 120496591.284 1     -2706.270          32.000  
C27  22214748.550 1 115678045.007 1       158.960          40.000  
C28  22206068.359 1 115632820.420 1     -2591.219          36.000  
C37  22051877.903 1 114829912.172 1        35.538          41.000  
E15  23132019.636 1  90774985.209 1      -121.567          27.000  
E27  25573871.777 1 100357367.466 1       612.678          24.000  
G 1  20343021.020 1 106903366.314 1       888.954          30.000                                                                  
G 7  20308913.032 1 106724102.167 1       -86.236          27.000                                                                  
G 8                                                                  22042920.404 1  86501150.400 1     -2428.466          20.000  
G17  23844861.046 1 125305650.97711       911.799          23.000                                                                  
G21  20551461.319 1 107998682.063 1     -1742.914          29.000                                                                  
J 2  37986162.727 1 199618608.146 1       171.915          30.000                                                                  
J 3  39000717.065 1 204950161.257 1     -1774.454          35.000    39000725.759 1 153047224.212 1     -1325.154          30.000  
R21  20132318.786 1 107732104.30711       878.677          37.000  
> 2021  5 18  3 10  4.9980229  0 17                     
C 2  37107491.718 1 193228433.316 1      -988.783          33.000  
C 7  36689526.769 1 191051977.674 1      -612.811          29.000  
C 9  37338437.438 1 194431065.706 1     -2572.411          28.000  
C10  37263575.364 1 194041205.514 1      -686.994          25.000  
C23  23140477.980 1 120498516.086 1     -2705.012          33.000  
C27  22214569.873 1 115677105.872 1       158.898          39.000  
C28  22206414.919 1 115634632.241 1     -2592.926          36.000  
C37  22051721.111 1 114829096.298 1        34.924          40.000  
E15  23131900.918 1  90774519.203 1      -122.731          28.000  
G 1  20342702.640 1 106901690.519 1       886.929          29.000                                                                  
G 7  20308781.723 1 106723399.846 1       -85.302          28.000                                                                  
G 8  22043402.170 1 115838731.35011     -3242.229          21.000    22043388.380 1  86502992.116 1     -2428.485          15.000  
G17  23844536.971 1 125303949.949 1       914.376          25.000                                                                  
G21  20551640.895 1 107999637.341 1     -1743.445          29.000                                                                  
J 2  37985980.453 1 199617648.190 1       172.767          28.000                                                                  
J 3  39000912.530 1 204951149.573 1     -1776.281          34.000    39000913.729 1 153047961.963 1     -1327.153          28.000  
R21  20132018.693 1 107730498.115 1       876.901          36.000  
> 2021  5 18  3 10  5.9980224  0 18                     
C 2  37107533.089 1 193228642.355 1      -990.130          32.000  
C 7  36689491.993 1 191051809.049 1      -611.724          28.000  
C 9  37338780.700 1 194432856.330 1     -2571.140          26.000  
C10  37263557.376 1 194041112.949 1      -689.740          21.000  
C13  38547744.452 1 200728041.08011       575.639          20.000  
C23  23140843.128 1 120500441.724 1     -2706.885          33.000  
C27  22214392.996 1 115676167.655 1       156.984          40.000  
C28  22206764.177 1 115636445.074 1     -2593.900          37.000  
C37  22051564.919 1 114828281.570 1        33.231          40.000  
E15  23131782.500 1  90774055.333 1      -125.600          27.000  
G 1  20342382.162 1 106900016.282 1       885.794          26.000                                                                  
G 7  20308649.514 1 106722698.085 1       -86.813          30.000                                                                  
G 8  22043867.448 1 115841185.106 1     -3242.278          23.000    22043859.654 1  86504831.417 1     -2426.218          16.000  
G17  23844212.295 1 125302248.799 1       912.492          24.000                                                                  
G21  20551821.970 1 108000593.679 1     -1744.656          29.000                                                                  
J 2  37985796.980 1 199616687.811 1       172.549          30.000                                                                  
J 3  39001106.196 1 204952138.751 1     -1778.953          30.000    39001102.898 1 153048701.606 1     -1329.330          28.000  
R21  20131704.811 1 107728818.914 1       876.787          32.000  
> 2021  5 18  3 10  6.9980216  0 17                     
C 2  37107486.022 1 193228384.304 1      -991.263          33.000  
C 7  36689369.078 1 191051173.159 1      -615.612          28.000  
C 9  37339033.725 1 194434177.102 1     -2567.859          25.000  
C13  38547395.493 1 200726215.581 1       577.947          21.000  
C23  23141121.935 1 120501899.319 1     -2704.879          31.000  
C27  22214123.782 1 115674761.312 1       158.907          39.000  
C28  22207022.898 1 115637790.133 1     -2595.369          36.000  
C37  22051317.890 1 114826998.951 1        34.256          40.000  
E15  23131574.444 1  90773239.581 1      -124.721          28.000  
G 1  20341974.444 1 106897869.959 1       886.619          25.000                                                                  
G 7  20308426.469 1 106721524.934 1       -87.340          28.000                                                                  
G 8  22044244.887 1 115843168.197 1     -3245.410          23.000    22044238.591 1  86506315.226 1     -2423.639          17.000  
G17  23843801.879 1 125300076.243 1       912.113          28.000                                                                  
G21  20551914.006 1 108001078.408 1     -1745.485          31.000                                                                  
J 2  37985524.768 1 199615254.611 1       172.820          30.000                                                                  
J 3                                                                  39001200.930 1 153049090.956 1     -1331.301          27.000  
R21  20131302.189 1 107726664.166 1       875.997          33.000  
> 2021  5 18  3 10  7.9980209  0 16                     
C 2  37107467.135 1 193228283.056 1      -991.398          32.000  
C 7  36689275.543 1 191050693.585 1      -612.281          28.000  
C 9  37339317.029 1 194435651.930 1     -2567.687          28.000  
C13  38547076.814 1 200724544.433 1       578.685          21.000  
C23  23141430.421 1 120503510.593 1     -2701.687          24.000  
C27  22213884.248 1 115673510.559 1       159.255          39.000  
C28  22207309.799 1 115639292.683 1     -2597.654          34.000  
C37  22051101.140 1 114825873.443 1        32.377          40.000  
E15  23131395.768 1  90772540.089 1      -123.023          27.000  
G 1  20341595.806 1 106895880.377 1       887.160          27.000                                                                  
G 7  20308232.503 1 106720509.662 1       -88.101          29.000                                                                  
G 8                                                                  22044645.709 1  86507915.008 1     -2424.560          17.000  
G21  20552039.019 1 108001721.504 1     -1746.366          26.000                                                                  
J 2  37985282.236 1 199613977.616 1       177.035          28.000                                                                  
J 3  39001336.137 1 204953329.52011     -1776.326          20.000                                                                  
R21  20130931.646 1 107724681.151 1       876.127          36.000  
> 2021  5 18  3 10  8.9980204  0 12                     
C 7  36689243.465 1 191050526.334 1      -615.010          32.000  
C 9  37339659.092 1 194437438.799 1     -2565.880          28.000  
C13  38546817.194 1 200723185.738 1       576.272          21.000  
C27  22213704.672 1 115672571.777 1       159.457          39.000  
C28  22207658.758 1 115641109.710 1     -2600.355          34.000  
C37  22050946.747 1 114825061.971 1        30.168          40.000  
E15  23131276.750 1  90772074.117 1      -121.356          29.000  
G 1  20341276.827 1 106894204.451 1       888.985          26.000                                                                  
G 7  20308098.496 1 106719810.555 1       -89.765          30.000                                                                  
G 8                                                                  22045113.386 1  86509751.795 1     -2426.290          17.000  
G21  20552219.495 1 108002679.697 1     -1745.910          18.000                                                                  
R21  20130621.061 1 107723019.527 1       876.687          35.000  
> 2021  5 18  3 10  9.9980196  0 13                     
C 7  36689123.848 1 191049893.722 1      -619.002          32.000  
C 9  37339911.817 1 194438754.526 1     -2561.301          28.000  
C10  37263247.690 1 194039511.54811      -695.928          16.000  
C23  23142079.172 1 120506881.75111     -2697.048          19.000  
C27  22213433.660 1 115671164.002 1       159.144          41.000  
C28  22207918.978 1 115642462.561 1     -2603.201          36.000  
C37  22050701.817 1 114823785.268 1        26.941          41.000  
E15  23131068.994 1  90771254.363 1      -120.256          27.000  
G 1  20340864.612 1 106892052.086 1       893.905          25.000                                                                  
G 7  20307874.851 1 106718640.704 1       -91.857          29.000                                                                  
G 8  22045503.416 1 115849776.29411     -3257.318          21.000    22045491.724 1  86511238.656 1     -2430.872          18.000  
J 3  39001625.437 1 204954834.51911     -1777.301          25.000                                                                  
R21  20130219.039 1 107720867.797 1       879.812          35.000  
> 2021  5 18  3 10 10.9980191  0 13                     
C 2  37107498.014 1 193228440.55111      -986.364          35.000  
C 7  36689095.967 1 191049734.044 1      -621.230          31.000  
C 9  37340255.379 1 194440533.506 1     -2557.498          28.000  
C27  22213252.585 1 115670224.296 1       159.653          40.000  
C28  22208268.835 1 115644285.858 1     -2604.277          36.000  
C37  22050546.524 1 114822978.501 1        25.892          41.000  
E15  23130948.777 1  90770785.503 1      -118.623          28.000  
G 1  20340544.134 1 106890368.072 1       897.756          30.000                                                                  
G 7  20307741.743 1 106717945.741 1       -93.855          29.000                                                                  
G 8  22045972.591 1 115852248.202 1     -3261.530          23.000    22045959.700 1  86513083.121 1     -2433.793          19.000  
G21  20552499.501 1 108004123.30711     -1746.887          26.000                                                                  
J 3  39001815.205 1 204955825.877 1     -1780.014          29.000                                                                  
R21  20129907.255 1 107719198.968 1       881.389          34.000  
> 2021  5 18  3 10 11.9980186  0 13                     
C 2  37107537.286 1 193228645.455 1      -984.591          34.000  
C 7  36689065.389 1 191049574.508 1      -620.973          31.000  
C23  23142816.961 1 120510708.53611     -2692.725          20.000  
C27  22213071.511 1 115669284.927 1       158.363          38.000  
C28  22208617.494 1 115646109.959 1     -2607.073          33.000  
C37  22050390.033 1 114822172.577 1        25.347          41.000  
E15  23130829.460 1  90770316.499 1      -119.015          27.000  
G 1  20340223.356 1 106888682.448 1       897.561          28.000                                                                  
G 7  20307608.335 1 106717252.560 1       -95.413          31.000                                                                  
G 8  22046447.462 1 115854724.411 1     -3265.541          21.000    22046431.573 1  86514931.048 1     -2438.587          18.000  
G21  20552684.772 1 108005082.555 1     -1747.013          22.000                                                                  
J 3  39002003.475 1 204956818.598 1     -1780.638          23.000                                                                  
R21  20129595.171 1 107717529.359 1       881.274          38.000  
> 2021  5 18  3 10 12.9980178  0 10                     
C 2  37107485.422 1 193228380.329 1      -983.160          33.000  
C 7  36688944.872 1 191048947.280 1      -622.384          31.000  
C27  22212804.396 1 115667877.187 1       159.215          38.000  
C28  22208883.110 1 115647467.035 1     -2607.163          34.000  
C37  22050146.301 1 114820899.332 1        24.261          40.000  
E15  23130620.505 1  90769494.567 1      -120.623          28.000  
G 1  20339813.240 1 106886524.626 1       897.426          24.000                                                                  
G 7  20307384.690 1 106716087.882 1       -96.051          29.000                                                                  
G 8  22046825.500 1 115856728.510 1     -3264.693          23.000    22046812.010 1  86516427.630 1     -2437.668          18.000  
J 3  39002099.109 1 204957338.875 1     -1780.754          27.000                                                                  
> 2021  5 18  3 10 13.9980170  0 11                     
C 2  37107433.259 1 193228113.931 1      -982.064          34.000  
C 7  36688824.355 1 191048321.283 1      -623.381          32.000  
C27  22212536.681 1 115666469.685 1       157.940          40.000  
C28  22209142.730 1 115648824.558 1     -2604.150          34.000  
C37  22049902.570 1 114819626.547 1        23.796          40.000  
E15  23130412.149 1  90768674.948 1      -121.465          28.000  
G 1  20339401.325 1 106884366.758 1       897.579          25.000                                                                  
G 7  20307160.146 1 106714923.852 1       -96.487          26.000                                                                  
G 8  22047210.434 1 115858732.121 1     -3263.236          23.000    22047191.547 1  86517924.251 1     -2437.712          19.000  
G21  20552865.547 1 108006062.27411     -1747.290          15.000                                                                  
J 3  39002197.740 1 204957861.065 1     -1783.547          27.000                                                                  
> 2021  5 18  3 10 14.9980165  0 11                     
C 2  37107470.433 1 193228314.670 1      -980.824          34.000  
C 7  36688791.678 1                      -622.344          32.000  
C27  22212357.705 1 115665530.835 1       157.601          41.000  
C28  22209487.192 1 115650650.537 1     -2606.728          33.000  
C37  22049749.676 1 114818822.348 1        23.863          41.000  
E15  23130292.831 1  90768208.336 1      -121.855          28.000  
G 1  20339076.350 1 106882681.798 1       896.629          24.000                                                                  
G 7  20307027.637 1 106714233.058 1       -97.073          27.000                                                                  
G 8  22047681.408 1 115861207.654 1     -3263.185          24.000    22047661.322 1  86519774.197 1     -2438.194          18.000  
G21  20553051.419 1 108007026.995 1     -1752.246          13.000                                                                  
J 3  39002385.111 1 204958856.306 1     -1783.458          26.000                                                                  
> 2021  5 18  3 10 15.9980160  0 15                     
C 2  37107507.907 1 193228514.473 1      -979.934          34.000  
C 7  36688764.697 1                      -620.921          31.000  
C 8  37762337.977 1 196638333.18211       546.218          26.000  
C10  37262985.372 1 194038137.32711      -724.487          16.000  
C16  38869857.657 1 202405548.91311     -2654.936          26.000  
C27  22212175.731 1 115664592.356 1       157.262          41.000  
C28  22209841.247 1 115652476.796 1     -2606.337          33.000  
C37  22049594.983 1 114818018.484 1        23.406          40.000  
E15  23130174.713 1  90767742.860 1      -122.045          28.000  
G 1  20338752.874 1 106880998.011 1       895.508          24.000                                                                  
G 7  20306897.827 1 106713542.795 1       -98.016          27.000                                                                  
G 8                                                                  22048130.797 1  86521624.113 1     -2437.962          18.000  
G21  20553226.198 1 108007988.411 1     -1750.068          11.000                                                                  
J 3  39002573.680 1 204959851.601 1     -1782.505          27.000                                                                  
R21  20128152.870 1 107709810.90311       878.303          27.000  
> 2021  5 18  3 10 16.9980152  0 14                     
C 2  37107455.743 1 193228245.249 1      -979.294          34.000  
C 7  36688644.780 1 191047381.46611      -623.142          31.000  
C 8  37761993.516 1 196636538.197 1       545.615          25.000  
C10  37262884.342 1 194037612.228 1      -722.794          13.000  
C16  38870128.970 1 202406954.358 1     -2654.146          27.000  
C27  22211904.419 1 115663185.858 1       157.375          41.000  
C28  22210100.867 1 115653834.825 1     -2605.233          33.000  
C37  22049349.753 1 114816746.583 1        23.089          40.000  
E15  23129965.758 1  90766922.534 1      -120.561          28.000  
G 1  20338343.957 1 106878842.636 1       894.561          25.000                                                                  
G 7  20306678.379 1 106712380.273 1       -98.024          26.000                                                                  
G 8  22048532.219 1 115865684.45811     -3261.851          23.000    22048510.934 1  86523120.401 1     -2437.062          18.000  
J 3  39002671.113 1 204960372.869 1     -1780.084          26.000                                                                  
R21  20127746.351 1 107707635.495 1       877.629          28.000  
> 2021  5 18  3 10 17.9980147  0 14                     
C 2  37107493.217 1 193228443.872 1      -978.929          34.000  
C 7  36688614.501 1 191047223.161 1      -622.624          31.000  
C 8  37761739.292 1 196635212.057 1       545.891          26.000  
C 9  37342410.887 1 194451552.22811     -2556.329          23.000  
C16  38870488.121 1 202408827.357 1     -2654.113          27.000  
C27  22211724.543 1 115662247.986 1       157.262          41.000  
C28  22210447.727 1 115655661.464 1     -2607.692          32.000  
C37  22049195.360 1 114815943.257 1        22.293          40.000  
E15  23129846.441 1  90766455.291 1      -121.599          28.000  
G 1  20338024.379 1 106877160.631 1       894.024          25.000                                                                  
G 7  20306546.470 1 106711690.688 1       -98.613          28.000                                                                  
G 8  22049000.794 1 115868158.310 1     -3261.631          23.000    22048981.308 1  86524968.724 1     -2435.940          19.000  
J 3  39002858.483 1 204961364.933 1     -1779.437          26.000                                                                  
R21  20127431.269 1 107705949.962 1       876.818          28.000  
> 2021  5 18  3 10 18.9980140  0 14                     
C 2  37107471.032 1 193228329.975 1      -979.038          34.000  
C 7  36688520.066 1 191046752.449 1      -621.696          32.000  
C 8  37761423.311 1 196633573.626 1       545.516          26.000  
C 9  37342694.191 1 194453017.047 1     -2559.066          22.000  
C16  38870788.213 1 202410388.622 1     -2654.387          27.000  
C27  22211484.709 1 115660998.177 1       156.796          41.000  
C28  22210736.127 1 115657176.074 1     -2606.879          32.000  
C37  22048980.708 1 114814827.994 1        22.399          40.000  
E15  23129667.464 1  90765753.811 1      -123.208          28.000  
G 1  20337643.642 1 106875164.144 1       893.076          25.000                                                                  
G 7  20306354.903 1 106710686.097 1       -97.602          26.000                                                                  
G 8  22049407.013 1 115870316.557 1     -3260.805          24.000    22049391.124 1  86526580.616 1     -2435.130          19.000  
J 3  39002985.895 1 204962040.701 1     -1779.074          26.000                                                                  
R21  20127055.030 1 107703936.929 1       874.898          25.000  
> 2021  5 18  3 10 19.9980132  0 13                     
C 2  37107418.868 1 193228060.412 1      -979.604          34.000  
C 7  36688405.246 1 191046125.075 1      -620.709          32.000  
C 8  37761078.549 1 196631779.299 1       544.485          26.000  
C 9  37342949.314 1 194454326.900 1     -2558.023          24.000  
C27  22211215.196 1 115659592.503 1       156.571          42.000  
C28  22211001.144 1 115658534.313 1     -2607.321          32.000  
C37  22048735.478 1 114813556.573 1        23.791          40.000  
E15  23129459.408 1  90764935.930 1      -123.724          28.000  
G 1  20337236.224 1 106873009.929 1       893.934          26.000                                                                  
G 7  20306132.757 1 106709523.606 1       -98.357          25.000                                                                  
G 8  22049786.550 1 115872317.020 1     -3260.976          26.000    22049771.561 1  86528074.630 1     -2435.387          20.000  
J 3  39003083.327 1 204962560.124 1     -1780.879          27.000                                                                  
R21  20126651.209 1 107701775.602 1       873.909          26.000  
> 2021  5 18  3 10 20.9980127  0 13                     
C 2  37107458.141 1 193228259.548 1      -980.164          32.000  
C 7  36688374.667 1 191045965.834 1      -621.886          32.000  
C 8  37760825.225 1 196630454.219 1       543.827          26.000  
C16  38871413.580 1 202413670.34311     -2655.267          23.000  
C27  22211032.022 1 115658655.739 1       155.980          42.000  
C28  22211359.096 1 115660361.083 1     -2607.896          35.000  
C37  22048582.884 1 114812753.820 1        21.685          40.000  
E15  23129340.691 1  90764471.479 1      -123.791          28.000  
G 1  20336916.646 1 106871329.013 1       892.385          22.000                                                                  
G 7  20306003.246 1 106708834.729 1       -99.753          25.000                                                                  
G 8  22050254.826 1 115874791.611 1     -3262.447          27.000                                                                  
J 3  39003271.897 1 204963552.504 1     -1780.215          27.000                                                                  
R21  20126336.127 1 107700089.166 1       874.195          32.000  
> 2021  5 18  3 10 21.9980122  0 13                     
C 2  37107496.815 1 193228459.306 1      -980.452          28.000  
C 7  36688342.289 1 191045806.091 1      -619.766          33.000  
C 8  37760572.799 1 196629130.343 1       542.923          27.000  
C16  38871773.331 1 202415545.091 1     -2654.926          23.000  
C27  22210850.648 1 115657719.564 1       155.762          41.000  
C28  22211710.753 1 115662187.792 1     -2605.805          37.000  
C37  22048428.790 1 114811951.199 1        22.175          41.000  
E15  23129221.673 1  90764005.596 1      -122.397          29.000  
G 1  20336598.566 1 106869648.497 1       892.743          24.000                                                                  
G 7  20305873.736 1 106708145.351 1       -98.566          22.000                                                                  
G 8  22050724.601 1 115877266.115 1     -3262.918          26.000                                                                  
J 3  39003462.865 1 204964545.960 1     -1782.519          25.000                                                                  
R21  20126018.647 1 107698390.817 1       874.316          37.000  
> 2021  5 18  3 10 22.9980114  0 12                     
C 2  37107446.449 1 193228191.243 1      -981.132          31.000  
C 7  36688221.773 1 191045177.161 1      -621.365          31.000  
C 8  37760228.338 1 196627338.878 1       541.482          24.000  
C27  22210578.437 1 115656315.993 1       154.542          41.000  
C28  22211970.972 1 115663545.684 1     -2606.202          38.000  
C37  22048185.958 1 114810680.238 1        21.755          41.000  
E15  23129013.317 1  90763187.746 1      -124.001          29.000  
G 1  20336190.848 1 106867496.026 1       891.692          24.000                                                                  
G 7  20305654.888 1 106706984.619 1      -100.146          29.000                                                                  
G 8  22051105.637 1 115879267.603 1     -3261.512          26.000                                                                  
J 3  39003560.597 1 204965066.822 1     -1779.861          28.000                                                                  
R21  20125613.927 1 107696224.702 1       873.221          30.000  
> 2021  5 18  3 10 23.9980109  0 12                     
C 2  37107486.622 1 193228392.458 1      -982.631          32.000  
C 7  36688190.294 1 191045015.724 1      -617.362          31.000  
C16  38872397.199 1 202418826.77111     -2656.232          25.000  
C27  22210401.559 1 115655381.158 1       153.438          36.000  
C28  22212317.533 1 115665371.483 1     -2606.828          37.000  
C37  22048031.266 1 114809877.521 1        22.166          41.000  
E15  23128894.899 1  90762723.842 1      -124.912          30.000  
G 1  20335871.269 1 106865818.513 1       888.357          22.000                                                                  
G 7  20305524.778 1 106706298.312 1      -101.726          30.000                                                                  
G 8  22051579.909 1 115881741.588 1     -3262.411          21.000                                                                  
J 3  39003747.368 1 204966058.701 1     -1779.050          27.000                                                                  
R21  20125300.644 1 107694548.166 1       872.184          28.000  
> 2021  5 18  3 10 24.9980101  0 11                     
C 2  37107436.256 1 193228127.330 1      -984.599          29.000  
C 7  36688071.277 1 191044385.220 1      -620.545          29.000  
C16  38872665.214 1 202420233.112 1     -2654.552          21.000  
C27  22210128.748 1 115653978.727 1       154.527          38.000  
C28  22212579.251 1 115666728.574 1     -2605.512          35.000  
C37  22047784.237 1 114808606.139 1        22.333          41.000  
E15  23128686.543 1  90761906.809 1      -124.021          30.000  
G 1  20335461.453 1 106863668.903 1       888.483          23.000                                                                  
G 7  20305304.430 1 106705139.911 1      -102.115          32.000                                                                  
J 3  39003844.201 1 204966577.184 1     -1778.925          30.000                                                                  
R21  20124897.423 1 107692391.271 1       871.983          31.000  
> 2021  5 18  3 10 25.9980093  0 13                     
C 2  37107387.090 1 193227863.212 1      -985.067          31.000  
C 7  36687949.261 1 191043754.303 1      -618.098          30.000  
C 8  37759293.885 1 196622429.36311       544.425          21.000  
C16  38872932.329 1 202421636.865 1     -2650.937          22.000  
C27  22209861.333 1 115652576.128 1       153.092          36.000  
C28  22212842.169 1 115668085.608 1     -2606.914          36.000  
C37  22047541.105 1 114807334.936 1        22.454          39.000  
E15  23128479.087 1  90761090.201 1      -125.667          31.000  
G 7  20305082.884 1 106703981.821 1      -102.301          27.000                                                                  
G 9  24017028.557 1 126210307.34411     -3275.371          30.000                                                                  
G22  24130670.285 1 126807527.27811       865.378          28.000                                                                  
J 3  39003941.333 1 204967095.402 1     -1777.761          27.000                                                                  
R21  20124495.402 1 107690239.440 1       869.864          29.000  
> 2021  5 18  3 10 26.9980091  0 13                     
C 2  37107516.301 1 193228536.309 1      -985.488          31.000  
C 7  36688009.819 1 191044060.638 1      -618.193          32.000  
C 8  37759129.299 1 196621573.189 1       542.902          18.000  
C27  22209774.393 1 115652110.318 1       153.100          36.000  
C28  22213284.063 1 115670380.270 1     -2607.295          38.000  
C37  22047477.249 1 114807001.149 1        21.591          40.000  
E15  23128450.607 1  90760979.719 1      -124.815          30.000  
G 7  20305043.611 1 106703768.458 1      -101.084          27.000                                                                  
G 8  22052897.197 1 115888691.25811     -3259.945          20.000                                                                  
G 9  24017590.368 1 126213267.271 1     -3274.457          30.000                                                                  
G22  24130443.042 1 126806346.594 1       866.329          23.000                                                                  
J 3  39004218.042 1 204968557.673 1     -1777.385          29.000                                                                  
R21  20124272.956 1 107689049.032 1       868.751          30.000  
> 2021  5 18  3 10 27.9980083  0 16                     
C 2  37107466.535 1 193228272.787 1      -985.229          33.000  
C 7  36687887.204 1 191043430.429 1      -618.615          33.000  
C 8  37758784.837 1 196619782.158 1       540.979          25.000  
C 9  37345385.727 1 194467154.06611     -2563.040          27.000  
C10  37262289.254 1 194034604.15811      -698.582          26.000  
C13  38541176.599 1 200694020.13811       566.187          28.000  
C27  22209503.980 1 115650708.127 1       152.159          38.000  
C28  22213545.482 1 115671738.576 1     -2607.973          38.000  
C37  22047233.818 1 114805731.101 1        20.807          41.000  
E15  23128242.851 1  90760165.019 1      -127.785          29.000  
G 1  20334423.871 1 106858173.87111       884.166          21.000                                                                  
G 7  20304823.863 1 106702609.548 1      -101.955          28.000                                                                  
G 9  24017975.302 1 126215281.443 1     -3274.903          29.000                                                                  
G22  24130038.322 1 126804220.510 1       866.594          13.000                                                                  
J 3  39004315.774 1 204969074.733 1     -1777.705          24.000                                                                  
R21  20123871.234 1 107686899.716 1       869.215          29.000  
> 2021  5 18  3 10 28.9980076  0 15                     
C 2  37107445.850 1 193228165.111 1      -984.999          31.000  
C 7  36687795.468 1 191042956.388 1      -618.358          33.000  
C 8  37758472.154 1 196618147.872 1       541.705          28.000  
C 9  37345665.434 1 194468623.888 1     -2561.621          31.000  
C10  37262214.905 1 194034210.397 1      -700.336          26.000  
C13  38540854.022 1 200692361.369 1       565.506          28.000  
C27  22209267.444 1 115649462.279 1       151.888          38.000  
C28  22213835.682 1 115673253.551 1     -2607.034          39.000  
C37  22047019.766 1 114804617.600 1        20.236          41.000  
E15  23128065.673 1  90759468.411 1      -124.951          29.000  
G 1  20334044.634 1 106856186.527 1       885.607          23.000                                                                  
G 7  20304634.994 1 106701609.161 1      -103.452          29.000                                                                  
G 8  22053685.951 1 115892847.49911     -3258.849          27.000                                                                  
J 3  39004445.284 1 204969749.504 1     -1777.761          24.000                                                                  
R21  20123500.690 1 107684916.397 1       868.683          34.000  
> 2021  5 18  3 10 29.9980070  0 13                     
C 2  37107455.143 1 193228212.966 1      -984.290          34.000  
C 7  36687734.610 1 191042637.664 1      -618.483          34.000  
C 8  37758187.351 1 196616669.046 1       541.930          30.000  
C 9  37345974.820 1 194470248.491 1     -2561.140          30.000  
C13  38540562.024 1 200690859.315 1       564.030          25.000  
C27  22209058.489 1 115648373.223 1       150.182          35.000  
C28  22214156.459 1 115674924.217 1     -2608.545          38.000  
C37  22046835.693 1 114803660.109 1        19.881          41.000  
E15  23127917.576 1  90758888.542 1      -126.207          28.000  
G 1  20333698.973 1 106854356.023 1       885.240          25.000                                                                  
G 7  20304476.403 1 106700767.137 1      -103.657          25.000                                                                  
G 9  24018829.710 1 126219775.13111     -3270.624          21.000                                                                  
R21  20123160.426 1 107683095.496 1       867.748          37.000  
> 2021  5 18  3 10 30.9980063  0 16                     
C 2  37107435.057 1 193228104.318 1      -983.950          29.000  
C 7  36687643.473 1 191042162.227 1      -616.620          33.000  
C 8  37757873.468 1 196615034.778 1       540.683          27.000  
C 9  37346254.526 1 194471716.813 1     -2560.591          30.000  
C10  37262093.190 1 194033583.32711      -702.354          19.000  
C27  22208822.252 1 115647127.965 1       152.449          32.000  
C28  22214445.759 1 115676438.442 1     -2606.852          37.000  
C37  22046622.541 1 114802546.447 1        20.255          41.000  
E15  23127740.099 1  90758191.403 1      -126.910          28.000  
G 1  20333322.734 1 106852367.551 1       884.144          24.000    20333319.136 1  79792311.47611       659.697          28.000  
G 7  20304286.935 1 106699768.431 1      -104.794          29.000                                                                  
G 8  22054525.670 1 115897313.88611     -3255.397          27.000                                                                  
G 9  24019240.426 1 126221943.323 1     -3271.947          27.000                                                                  
G22  24128952.174 1 126798461.49811       869.460          13.000                                                                  
J 3  39004736.083 1 204971257.36311     -1777.729          25.000                                                                  
R21  20122788.983 1 107681108.247 1       866.750          36.000  
> 2021  5 18  3 10 31.9980055  0 14                     
C 7  36687515.761 1 191041530.426 1      -613.927          31.000  
C 8  37757529.606 1 196613245.574 1       540.569          29.000  
C 9  37346504.853 1 194473028.640 1     -2560.993          27.000  
C13  38539883.894 1 200687395.21111       559.171          16.000  
C16  38874862.992 1 202431631.28111     -2656.828          25.000  
C28  22214703.581 1 115677796.817 1     -2606.969          37.000  
C37  22046378.810 1 114801277.090 1        20.874          41.000  
E15  23127532.642 1  90757376.307 1      -125.963          29.000  
G 1  20332912.917 1 106850223.279 1       883.556          25.000    20332910.819 1  79790709.892 1       660.824          28.000  
G 7  20304068.086 1 106698612.616 1      -105.256          26.000                                                                  
G 8  22054903.708 1 115899309.175 1     -3255.909          30.000                                                                  
G21  20555421.278 1 108019466.99811     -1757.684          25.000                                                                  
J 3  39004837.413 1 204971775.027 1     -1778.053          28.000                                                                  
R21  20122389.660 1 107678971.304 1       865.869          29.000  
> 2021  5 18  3 10 32.9980052  0 13                     
C 7  36687546.640 1 191041679.018 1      -616.418          31.000  
C 8  37757335.341 1 196612236.968 1       539.969          30.000  
C 9  37346906.575 1 194475122.030 1     -2562.757          26.000  
C16  38875281.802 1 202433820.078 1     -2657.206          22.000  
C27  22208439.417 1 115645105.43111       152.312          27.000  
C28  22215116.095 1 115679935.901 1     -2607.479          38.000  
C37  22046285.274 1 114800788.393 1        20.292          41.000  
E15  23127474.782 1  90757149.324 1      -126.813          29.000  
G 1  20332652.997 1 106848867.626 1       882.577          25.000    20332652.398 1  79789696.696 1       659.768          26.000  
G 7  20303997.035 1 106698245.358 1      -105.577          27.000                                                                  
G21  20555666.808 1 108020752.452 1     -1759.072          20.000                                                                  
J 3  39005085.341 1 204973080.217 1     -1777.825          29.000                                                                  
R21  20122138.733 1 107677628.711 1       864.814          27.000  
> 2021  5 18  3 10 33.9980045  0 11                     
C 7  36687453.105 1 191041203.008 1      -616.245          32.000  
C 8  37757022.357 1 196610603.747 1       540.994          28.000  
C27  22208198.684 1 115643860.627 1       151.367          27.000  
C28  22215409.292 1 115681450.654 1     -2607.790          37.000  
C37  22046070.323 1 114799675.598 1        19.628          41.000  
E15  23127297.905 1  90756453.721 1      -126.457          26.000  
G 1  20332274.359 1 106846882.404 1       882.431          25.000    20332274.359 1  79788212.646 1       660.441          25.000  
G 7  20303806.367 1 106697248.319 1      -106.121          28.000                                                                  
G21  20555794.220 1 108021408.621 1     -1759.624          24.000                                                                  
J 3  39005212.753 1 204973754.526 1     -1776.534          26.000                                                                  
R21  20121768.190 1 107675645.208 1       864.401          31.000  
> 2021  5 18  3 10 34.9980037  0 12                     
C 7  36687337.085 1 191040570.729 1      -617.605          32.000  
C 8  37756679.095 1 196608814.453 1       540.431          27.000  
C 9  37347441.105 1 194477904.56211     -2560.569          19.000  
C13  38539013.296 1 200682908.61611       557.456          23.000  
C27  22207930.370 1 115642460.600 1       150.465          26.000  
C28  22215667.413 1 115682809.509 1     -2606.762          37.000  
C37  22045828.391 1 114798406.930 1        19.291          41.000  
E15  23127089.849 1  90755639.263 1      -126.756          26.000  
G 1  20331866.342 1 106844739.864 1       881.919          27.000    20331866.342 1  79786612.124 1       657.850          25.000  
G 8  22056230.589 1 115906245.44011     -3258.625          21.000                                                                  
G21  20555888.355 1 108021907.846 1     -1759.767          29.000                                                                  
J 3  39005310.186 1 204974270.919 1     -1776.422          27.000                                                                  
> 2021  5 18  3 10 35.9980032  0 14                     
C 7  36687306.206 1                      -611.727          33.000  
C 8  37756424.271 1 196607493.684 1       539.474          27.000  
C10  37261847.060 1 194032271.85511      -703.503          16.000  
C13  38538754.575 1 200681570.115 1       557.470          21.000  
C27  22207751.394 1 115641529.568 1       150.460          32.000  
C28  22216019.070 1 115684636.725 1     -2606.158          37.000  
C37  22045675.197 1 114797606.712 1        19.129          42.000  
E15  23126973.529 1  90755179.573 1      -128.701          28.000  
G 1  20331548.562 1 106843070.554 1       881.223          23.000    20331548.562 1  79785366.830 1       656.439          26.000  
G 7  20303454.111 1 106695413.51211      -106.908          26.000                                                                  
G 8  22056704.261 1 115908716.152 1     -3258.196          22.000                                                                  
G21  20556072.127 1 108022878.809 1     -1756.772          24.000                                                                  
J 3  39005500.254 1 204975259.967 1     -1777.327          30.000                                                                  
R21  20121057.082 1 107671840.55711       863.686          27.000  
> 2021  5 18  3 10 36.9980024  0 13                     
C 7  36687185.090 1 191039773.29111      -615.699          31.000  
C 8  37756081.908 1 196605705.371 1       539.601          28.000  
C10  37261741.233 1 194031724.087 1      -699.636          16.000  
C13  38538403.818 1 200679764.550 1       557.134          23.000  
C27  22207483.979 1 115640131.086 1       148.509          35.000  
C28  22216279.889 1 115685995.798 1     -2608.938          37.000  
C37  22045430.566 1 114796338.580 1        18.491          42.000  
E15  23126766.073 1  90754367.817 1      -129.613          25.000  
G 1  20331139.645 1 106840928.335 1       883.144          24.000    20331141.743 1  79783769.573 1       655.962          24.000  
G 7  20303235.263 1 106694260.483 1      -107.765          29.000                                                                  
G 8  22057085.298 1 115910714.610 1     -3259.235          22.000                                                                  
J 3  39005597.687 1 204975776.947 1     -1777.451          28.000                                                                  
R21  20120653.861 1 107669682.894 1       862.479          31.000  
> 2021  5 18  3 10 37.9980019  0 13                     
C 7  36687152.713 1 191039608.779 1      -616.133          33.000  
C 8  37755826.185 1 196604384.426 1       540.798          29.000  
C 9  37348382.753 1 194482772.84211     -2558.599          20.000  
C13  38538143.299 1 200678425.585 1       559.177          23.000  
C27  22207305.302 1 115639201.224 1       149.474          28.000  
C28  22216632.745 1 115687824.664 1     -2611.218          37.000  
C37  22045277.072 1 114795539.868 1        18.219          41.000  
E15  23126648.554 1  90753909.257 1      -129.785          26.000  
G 1  20330821.865 1 106839257.861 1       882.705          24.000    20330824.563 1  79782525.731 1       656.639          23.000  
G 7  20303106.652 1 106693580.950 1      -108.603          28.000                                                                  
G 8  22057558.970 1 115913185.507 1     -3259.087          24.000                                                                  
J 3  39005786.256 1 204976767.476 1     -1778.281          33.000                                                                  
R21  20120346.574 1 107668038.354 1       862.173          29.000  
> 2021  5 18  3 10 38.9980014  0 14                     
C 7  36687121.534 1 191039444.940 1      -616.592          33.000  
C 8  37755572.861 1 196603062.365 1       542.061          28.000  
C 9  37348726.615 1 194484550.999 1     -2558.414          20.000  
C10  37261708.256 1 194031558.65011      -698.878          18.000  
C27  22207126.027 1 115638271.304 1       150.094          31.000  
C28  22216981.404 1 115689653.747 1     -2609.212          36.000  
C37  22045123.579 1 114794741.481 1        17.810          41.000  
E15  23126530.736 1  90753450.251 1      -128.262          28.000  
G 1  20330504.984 1 106837588.278 1       881.446          25.000    20330507.383 1  79781281.950 1       656.430          19.000  
G 7  20302977.441 1 106692902.272 1      -109.451          31.000                                                                  
G 8  22058027.245 1 115915656.783 1     -3258.508          24.000                                                                  
G21  20556543.701 1 108025322.47511     -1762.268          25.000                                                                  
J 3  39005975.125 1 204977757.675 1     -1777.477          36.000                                                                  
R21  20120037.488 1 107666384.022 1       862.151          26.000  
> 2021  5 18  3 10 39.9980006  0 12                     
C 7  36686997.420 1 191038812.523 1      -614.928          34.000  
C 8  37755228.099 1 196601270.801 1       542.893          28.000  
C 9  37348981.438 1 194485861.452 1     -2560.256          23.000  
C27  22206858.312 1 115636871.982 1       150.307          28.000  
C28  22217241.024 1 115691014.322 1     -2609.138          36.000  
C37  22044881.346 1 114793474.681 1        17.946          41.000  
E15  23126324.779 1  90752638.262 1      -130.244          30.000  
G 1  20330099.365 1 106835446.807 1       880.682          25.000    20330101.464 1  79779683.770 1       657.397          21.000  
G 7  20302760.092 1 106691751.244 1      -109.475          30.000                                                                  
G21  20556637.236 1 108025824.541 1     -1762.635          31.000                                                                  
J 3  39006071.658 1 204978274.145 1     -1776.580          35.000                                                                  
R21  20119634.267 1 107664226.682 1       861.623          28.000  
> 2021  5 18  3 10 40.9979999  0 15                     
C 3  36457619.915 1 189844384.39711      -954.451          27.000  
C 7  36686907.183 1 191038336.555 1      -617.000          34.000  
C 8  37754912.718 1 196599636.150 1       541.606          28.000  
C 9  37349264.142 1 194487328.395 1     -2559.903          25.000  
C13  38537223.535 1 200673620.51711       563.236          23.000  
C27  22206619.677 1 115635628.674 1       150.662          27.000  
C28  22217533.322 1 115692531.447 1     -2608.412          36.000  
C37  22044667.894 1 114792364.605 1        17.423          42.000  
E15  23126147.901 1  90751944.794 1      -130.513          27.000  
G 1  20329723.725 1 106833463.718 1       879.822          22.000    20329723.425 1  79778203.676 1       655.792          23.000  
G 7  20302570.623 1 106690758.063 1      -110.102          28.000                                                                  
G 8  22058818.698 1 115919812.07911     -3259.819          19.000                                                                  
G21  20556761.350 1 108026484.594 1     -1763.357          33.000                                                                  
J 3  39006194.274 1                     -1778.437          34.000                                                                  
R21  20119263.424 1 107662242.400 1       860.912          34.000  
> 2021  5 18  3 10 41.9979994  0 11                     
C 7  36686876.604 1                      -615.210          31.000  
C 8  37754659.393 1 196598313.638 1       541.589          29.000  
C10  37261510.093 1 194030532.17911      -698.555          19.000  
C28  22217887.377 1 115694360.895 1     -2609.142          37.000  
C37  22044515.300 1 114791566.891 1        17.423          42.000  
E15  23126031.282 1  90751486.317 1      -129.746          28.000  
G 1  20329406.545 1 106831796.791 1       878.732          25.000    20329406.844 1  79776959.677 1       654.879          25.000  
G 7  20302442.911 1 106690080.613 1      -110.490          27.000                                                                  
G 8  22059289.672 1 115922284.595 1     -3259.746          21.000                                                                  
J 3  39006385.541 1                     -1777.007          33.000                                                                  
R21  20118954.338 1 107660587.812 1       859.622          32.000  
> 2021  5 18  3 10 42.9979986  0 12                     
C 7  36686753.089 1 191037560.32911      -617.190          32.000  
C 8  37754316.431 1 196596523.666 1       540.641          26.000  
C27  22206175.385 1 115633294.36611       152.740          20.000  
C28  22218149.995 1 115695722.041 1     -2611.534          37.000  
C37  22044272.468 1 114790301.040 1        17.026          41.000  
E15  23125824.725 1  90750674.003 1      -129.921          27.000  
G 1  20328998.527 1 106829657.754 1       879.195          26.000    20329000.326 1  79775362.766 1       655.294          22.000  
G 7  20302223.763 1 106688931.064 1      -111.049          28.000                                                                  
G 8  22059668.909 1 115924282.901 1     -3258.088          26.000                                                                  
G21  20557044.055 1 108027964.56611     -1764.201          33.000                                                                  
J 3  39006483.873 1 204980439.74511     -1775.776          33.000                                                                  
R21  20118554.415 1 107658447.990 1       858.885          29.000  
> 2021  5 18  3 10 43.9979981  0 13                     
C 7  36686721.911 1 191037395.421 1      -615.768          34.000  
C 8  37754061.907 1 196595202.198 1       541.179          27.000  
C27  22206000.006 1 115632361.747 1       151.795          22.000  
C28  22218499.253 1 115697551.421 1     -2610.457          36.000  
C37  22044120.473 1 114789503.684 1        16.798          41.000  
E15  23125708.105 1  90750215.760 1      -129.870          27.000  
G 1  20328679.848 1 106827991.299 1       877.896          26.000    20328684.045 1  79774119.399 1       656.587          25.000  
G 7  20302095.752 1 106688254.697 1      -111.735          27.000                                                                  
G 8  22060136.585 1 115926753.171 1     -3258.127          24.000                                                                  
G21  20557232.324 1                     -1765.206          35.000                                                                  
J 2  37977246.000 1 199571734.74711       177.185          37.000                                                                  
J 3  39006673.642 1 204981427.475 1     -1775.897          27.000                                                                  
R21  20118240.532 1 107656768.206 1       858.241          26.000  
> 2021  5 18  3 10 44.9979976  0 14                     
C 7  36686691.032 1 191037230.314 1      -616.582          34.000  
C 8  37753809.182 1 196593881.281 1       540.041          27.000  
C 9  37350543.956 1 194493979.67011     -2560.033          20.000  
C13  38536108.008 1 200667782.33011       558.963          22.000  
C28  22218852.708 1 115699381.066 1     -2610.164          36.000  
C37  22043966.979 1 114788706.615 1        16.087          41.000  
E15  23125591.786 1  90749757.472 1      -130.607          27.000  
G 1  20328363.867 1 106826326.027 1       877.515          27.000    20328368.064 1  79772876.253 1       653.967          24.000  
G 7  20301968.040 1 106687578.739 1      -111.953          23.000                                                                  
G 8  22060605.161 1 115929223.485 1     -3257.941          23.000                                                                  
G21  20557418.495 1 108029961.44611     -1764.414          33.000                                                                  
J 2  37977058.629 1                       175.714          36.000                                                                  
J 3  39006860.712 1 204982414.747 1     -1774.608          23.000                                                                  
R21  20117929.647 1 107655105.164 1       857.265          28.000  
> 2021  5 18  3 10 45.9979968  0 12                     
C 7  36686572.015 1 191036597.682 1      -615.925          34.000  
C 8  37753465.320 1 196592092.128 1       541.156          27.000  
C28  22219113.228 1 115700743.446 1     -2611.257          37.000  
C37  22043722.349 1 114787442.086 1        16.344          42.000  
E15  23125384.629 1  90748946.767 1      -128.577          26.000  
G 1  20327958.247 1 106824188.401 1       876.707          26.000    20327962.444 1  79771280.250 1       656.927          24.000  
G 7  20301752.189 1 106686430.633 1      -112.610          23.000                                                                  
G 8  22060987.096 1 115931222.280 1     -3260.397          19.000                                                                  
G21  20557510.831 1 108030466.446 1     -1766.283          33.000                                                                  
J 2  37976781.321 1 199569352.19211       175.848          31.000                                                                  
J 3  39006958.744 1 204982928.372 1     -1773.030          22.000                                                                  
R21  20117536.919 1 107653002.955 1       858.718          24.000  
> 2021  5 18  3 10 46.9979960  0 13                     
C 7  36686453.597 1 191035964.860 1      -614.330          34.000  
C 8  37753121.758 1 196590302.248 1       541.159          27.000  
C27  22205293.695 1 115628621.98411       154.005          16.000  
C28  22219375.247 1 115702105.872 1     -2611.767          37.000  
C37  22043481.016 1 114786177.774 1        15.780          41.000  
E15  23125177.773 1  90748135.551 1      -131.230          26.000  
G 1  20327550.829 1 106822051.245 1       876.616          26.000    20327555.926 1  79769682.281 1       657.311          23.000  
G 7  20301534.540 1 106685283.096 1      -113.034          27.000                                                                  
G 8  22061369.931 1 115933221.905 1     -3259.233          22.000                                                                  
G21  20557610.662 1 108030972.187 1     -1765.885          35.000                                                                  
J 2  37976508.810 1 199567914.937 1       177.942          24.000                                                                  
J 3  39007056.177 1 204983441.266 1     -1772.933          25.000                                                                  
R21  20117141.793 1 107650888.620 1       858.532          17.000  
> 2021  5 18  3 10 47.9979955  0 11                     
C 7  36686419.420 1 191035799.319 1      -614.670          34.000  
C 8  37752869.632 1 196588980.690 1       540.852          27.000  
C28  22219727.203 1 115703936.105 1     -2609.389          38.000  
C37  22043328.121 1 114785381.552 1        15.936          42.000  
E15  23125061.753 1  90747679.023 1      -131.504          28.000  
G 1  20327237.246 1 106820386.649 1       876.480          23.000    20327236.947 1  79768437.068 1       656.140          25.000  
G 7  20301405.929 1 106684608.975 1      -113.936          25.000                                                                  
G21  20557794.735 1 108031950.513 1     -1766.250          32.000                                                                  
J 2  37976326.536 1 199566949.551 1       177.341          30.000                                                                  
J 3  39007243.847 1 204984426.711 1     -1774.062          26.000                                                                  
R21  20116828.210 1 107649211.216 1       857.953          20.000  
> 2021  5 18  3 10 48.9979950  0 12                     
C 7  36686385.844 1 191035633.564 1      -616.277          34.000  
C 8  37752616.907 1 196587658.923 1       541.341          27.000  
C27  22204935.443 1 115626757.60711       148.026          18.000  
C28  22220079.159 1 115705766.484 1     -2612.417          38.000  
C37  22043175.227 1 114784585.611 1        14.770          42.000  
E15  23124945.733 1  90747222.797 1      -131.577          28.000  
G 1  20326922.464 1 106818722.271 1       876.879          29.000    20326920.666 1  79767193.866 1       654.600          26.000  
G 7  20301277.018 1 106683934.660 1      -112.957          27.000                                                                  
G 8  22062309.181 1 115938167.49611     -3262.702          20.000                                                                  
J 2  37976146.061 1 199565984.411 1       177.191          26.000                                                                  
J 3  39007430.618 1 204985413.472 1     -1774.990          28.000                                                                  
R21  20116518.824 1 107647555.131 1       857.525          20.000  
> 2021  5 18  3 10 49.9979942  0 12                     
C 7  36686262.629 1 191034999.795 1      -614.736          34.000  
C 8  37752271.546 1 196585868.309 1       542.684          27.000  
C27  22204665.930 1 115625363.498 1       143.768          18.000  
C28  22220339.979 1 115707129.193 1     -2611.636          37.000  
C37  22042932.695 1 114783321.913 1        14.130          42.000  
E15  23124739.776 1  90746413.190 1      -131.791          28.000  
G 1  20326516.845 1 106816586.165 1       874.950          28.000    20326515.046 1  79765599.264 1       652.680          24.000  
G 7  20301055.472 1 106682788.530 1      -115.012          25.000                                                                  
G 8  22062687.519 1 115940170.270 1     -3261.721          24.000                                                                  
G21  20558070.844 1 108033432.70511     -1766.585          28.000                                                                  
J 2  37975876.248 1 199564547.581 1       174.988          30.000                                                                  
J 3  39007528.950 1 204985929.121 1     -1777.530          23.000                                                                  
> 2021  5 18  3 10 50.9979937  0 12                     
C 7  36686232.650 1 191034834.848 1      -616.318          34.000  
C 8  37752017.622 1 196584544.225 1       543.566          26.000  
C27  22204488.153 1 115624439.255 1       143.237          19.000  
C28  22220692.235 1 115708961.056 1     -2612.064          36.000  
C37  22042780.101 1 114782527.362 1        13.108          42.000  
G 1  20326201.164 1 106814923.194 1       875.063          28.000    20326198.466 1  79764360.571 1       651.004          22.000  
G 7  20300926.861 1 106682115.783 1      -115.231          28.000                                                                  
G 8  22063156.095 1 115942644.785 1     -3262.362          22.000                                                                  
G21  20558257.315 1 108034411.875 1     -1767.744          30.000                                                                  
J 2  37975694.574 1 199563583.965 1       176.594          27.000                                                                  
J 3  39007715.421 1 204986919.151 1     -1777.326          24.000                                                                  
R21  20115816.710 1 107643798.07011       855.517          20.000  
> 2021  5 18  3 10 51.9979930  0 12                     
C 7  36686145.110 1 191034357.193 1      -615.605          33.000  
C 8  37751703.140 1 196582907.492 1       544.085          27.000  
C27  22204250.118 1 115623202.762 1       143.552          20.000  
C28  22220985.432 1 115710480.529 1     -2612.274          38.000  
C37  22042567.548 1 114781420.566 1        13.643          42.000  
G 1  20325824.325 1 106812945.463 1       875.019          25.000    20325821.926 1  79762886.474 1       650.239          23.000  
G 7  20300737.992 1 106681128.504 1      -116.202          30.000                                                                  
G 8  22063567.110 1 115944803.753 1     -3262.308          27.000                                                                  
G21  20558382.028 1 108035076.920 1     -1767.468          25.000                                                                  
J 2  37975451.742 1 199562303.645 1       178.006          26.000                                                                  
J 3  39007841.933 1 204987593.681 1     -1777.901          27.000                                                                  
R21  20115444.967 1 107641808.934 1       855.968          20.000  
> 2021  5 18  3 10 52.9979922  0 10                     
C 7  36686023.095 1 191033723.070 1      -611.193          35.000  
C 8  37751357.779 1 196581114.772 1       542.881          26.000  
C27  22203981.503 1 115621810.729 1       143.389          21.000  
C28  22221244.752 1 115711843.868 1     -2612.711          39.000  
C37  22042325.616 1 114780157.885 1        13.006          41.000  
G 1  20325416.007 1 106810810.448 1       874.349          29.000    20325414.808 1  79761295.039 1       649.633          23.000  
G 7  20300518.543 1 106679984.914 1      -117.761          27.000                                                                  
G 8  22063948.147 1 115946806.610 1     -3263.753          23.000                                                                  
J 2  37975178.931 1 199560863.929 1       179.528          26.000                                                                  
J 3  39007942.064 1 204988110.384 1     -1776.107          26.000                                                                  
> 2021  5 18  3 10 53.9979917  0 11                     
C 7  36685990.118 1 191033557.485 1      -614.685          34.000  
C 8  37751103.855 1 196579792.315 1       541.016          25.000  
C27  22203801.628 1 115620886.337 1       144.060          22.000  
C28  22221597.608 1 115713676.027 1     -2612.420          39.000  
C37  22042172.721 1 114779364.030 1        13.459          41.000  
G 1  20325100.026 1 106809148.695 1       874.807          25.000    20325098.827 1  79760058.092 1       648.211          23.000  
G 7  20300389.033 1 106679315.229 1      -118.698          25.000                                                                  
G21  20558667.431 1 108036565.81611     -1768.599          26.000                                                                  
J 2  37974996.657 1 199559898.618 1       176.677          26.000                                                                  
J 3  39008131.532 1 204989098.357 1     -1774.724          26.000                                                                  
R21  20114747.950 1 107638078.59111       856.173          25.000  
> 2021  5 18  3 10 54.9979912  0 10                     
C 7  36685959.539 1 191033391.584 1      -613.979          32.000  
C 8  37750848.731 1 196578471.077 1       540.813          23.000  
C27  22203624.151 1 115619961.604 1       144.155          28.000  
C28  22221950.464 1 115715508.432 1     -2614.674          38.000  
C37  22042020.127 1 114778570.446 1        12.641          41.000  
G 1  20324785.544 1 106807486.196 1       873.935          28.000                                                                  
G 7  20300260.122 1 106678645.730 1      -118.357          28.000                                                                  
J 2  37974814.683 1 199558934.654 1       175.750          27.000                                                                  
J 3  39008319.802 1 204990084.897 1     -1773.820          27.000                                                                  
R21  20114439.763 1 107636429.426 1       852.700          28.000  
> 2021  5 18  3 10 55.9979904  0 11                     
C 7  36685839.322 1 191032757.523 1      -615.124          31.000  
C 8  37750505.169 1 196576682.356 1       538.425          24.000  
C27  22203354.937 1 115618568.123 1       144.811          26.000  
C28  22222213.682 1 115716872.814 1     -2613.739          37.000  
C37  22041778.494 1 114777308.938 1        12.353          42.000  
G 1  20324379.025 1 106805352.301 1       872.490          26.000                                                                  
G 7  20300042.473 1 106677505.040 1      -119.925          27.000                                                                  
G21  20558956.730 1 108038056.60511     -1769.864          25.000                                                                  
J 2  37974544.570 1 199557497.306 1       176.044          22.000                                                                  
J 3  39008417.534 1 204990598.643 1     -1773.838          27.000                                                                  
R21  20114042.838 1 107634305.959 1       851.907          26.000  
> 2021  5 18  3 10 56.9979899  0 10                     
C 3  36457563.854 1 189844086.38711      -956.436          27.000  
C 7  36685806.944 1 191032592.329 1      -615.184          30.000  
C 8  37750250.945 1 196575362.773 1       538.814          23.000  
C27  22203176.561 1 115617643.578 1       143.495          25.000  
C28  22222565.638 1 115718706.011 1     -2613.950          37.000  
C37  22041625.001 1 114776516.331 1        12.128          42.000  
G 1  20324062.145 1 106803692.514 1       871.804          28.000                                                                  
G 7  20299915.061 1 106676837.026 1      -120.179          27.000                                                                  
J 2  37974360.797 1 199556532.620 1       177.949          24.000                                                                  
J 3  39008604.005 1 204991585.113 1     -1774.254          26.000                                                                  
> 2021  5 18  3 10 57.9979891  0 12                     
C 7  36685683.430 1 191031958.357 1      -615.035          28.000  
C 8  37749908.882 1 196573573.875 1       540.184          26.000  
C16  38883210.713 1 202475019.24611     -2649.419          22.000  
C28  22222827.956 1 115720071.474 1     -2614.222          35.000  
C37  22041382.768 1 114775255.831 1        12.116          41.000  
G 1  20323656.226 1 106801560.205 1       872.468          27.000                                                                  
G 7  20299699.510 1 106675696.265 1      -119.185          30.000                                                                  
G 8  22066127.338 1 115958242.54911     -3264.946          19.000                                                                  
G21  20559244.231 1 108039551.60411     -1772.540          30.000                                                                  
J 2  37974085.887 1 199555093.306 1       179.149          25.000                                                                  
J 3  39008703.536 1 204992098.345 1     -1773.693          22.000                                                                  
R21  20113340.724 1 107630548.79811       849.924          24.000  
> 2021  5 18  3 10 58.9979884  0 10                     
C 7  36685590.194 1 191031480.683 1      -615.637          29.000  
C 8  37749597.697 1 196571941.642 1       540.233          26.000  
C16  38883509.906 1 202476577.205 1     -2650.514          19.000  
C28  22223119.355 1 115721593.317 1     -2615.358          34.000  
C37  22041171.714 1 114774151.915 1        10.633          41.000  
G 1  20323278.487 1 106799584.687 1       870.364          22.000                                                                  
G 7  20299513.339 1 106674712.900 1      -120.118          28.000                                                                  
G21  20559370.744 1 108040221.203 1     -1772.567          28.000                                                                  
J 2  37973842.456 1 199553811.775 1       178.518          30.000                                                                  
R21  20112971.679 1 107628573.475 1       851.609          22.000  
> 2021  5 18  3 10 59.9979881  0  9                     
C 7  36685618.974 1 191031627.720 1      -615.560          27.000  
C 8  37749403.732 1 196570931.831 1       543.500          26.000  
C28  22223529.770 1 115723740.576 1     -2615.835          35.000  
C37  22041080.577 1 114773673.205 1        10.255          41.000  
G 1  20323020.666 1 106798241.766 1       869.848          24.000                                                                  
G 7  20299449.184 1 106674361.694 1      -122.701          25.000                                                                  
G21  20559620.171 1 108041521.999 1     -1774.920          29.000                                                                  
J 2  37973718.642 1 199553160.541 1       178.962          30.000                                                                  
J 3  39009078.277 1 204994072.82611     -1776.229          31.000                                                                  
> 2021  5 18  3 11  0.9979873  0 10                     
C 7  36685496.659 1 191030994.641 1      -616.327          27.000  
C 8  37749058.371 1 196569139.280 1       543.307          25.000  
C16  38884196.731 1 202480161.62711     -2651.952          19.000  
C28  22223795.387 1 115725107.086 1     -2615.850          33.000  
C37  22040837.746 1 114772413.980 1        10.458          42.000  
G 1  20322615.646 1 106796111.023 1       871.631          26.000                                                                  
G 7  20299233.333 1 106673223.984 1      -123.108          27.000                                                                  
G21  20559717.304 1 108042036.620 1     -1775.480          27.000                                                                  
J 2  37973446.430 1 199551721.509 1       179.030          28.000                                                                  
R21  20112319.331 1 107625082.77711       849.893          21.000  
> 2021  5 18  3 11  1.9979866  0 10                     
C 7  36685405.522 1 191030517.665 1      -615.185          29.000  
C 8  37748743.289 1 196567503.184 1       542.484          25.000  
C28  22224084.986 1 115726629.301 1     -2613.124          32.000  
C37  22040625.792 1 114771310.793 1        10.760          42.000  
G 1  20322241.505 1 106794137.372 1       869.774          27.000                                                                  
G 7  20299047.162 1 106672244.128 1      -123.067          30.000                                                                  
G21  20559844.716 1 108042709.330 1     -1775.799          31.000                                                                  
J 2  37973201.799 1 199550439.044 1       180.052          24.000                                                                  
J 3  39009311.516 1 204995259.51311     -1774.136          26.000                                                                  
R21  20111948.188 1 107623097.154 1       848.077          21.000  
> 2021  5 18  3 11  2.9979860  0 10                     
C 7  36685343.465 1 191030196.285 1      -615.477          28.000  
C 8  37748460.285 1 196566025.373 1       540.077          27.000  
C16  38884825.096 1 202483438.44511     -2650.854          19.000  
C28  22224406.963 1 115728307.114 1     -2614.474          32.000  
C37  22040442.919 1 114770363.416 1        10.879          42.000  
G 1  20321896.744 1 106792323.287 1       867.825          27.000                                                                  
G 7  20298890.670 1 106671421.685 1      -122.658          28.000                                                                  
G21  20560004.205 1 108043539.872 1     -1776.122          27.000                                                                  
J 3  39009470.106 1 204996088.365 1     -1773.825          27.000                                                                  
R21  20111612.121 1 107621298.449 1       848.676          24.000  
> 2021  5 18  3 11  3.9979853  0 11                     
C 7  36685251.429 1 191029718.334 1      -613.941          28.000  
C 8  37748147.901 1 196564392.747 1       540.273          26.000  
C16  38885123.689 1 202484995.790 1     -2648.913          19.000  
C28  22224701.060 1 115729828.602 1     -2613.937          35.000  
C37  22040232.465 1 114769260.063 1        10.436          41.000  
G 1  20321521.703 1 106790353.772 1       865.961          30.000                                                                  
G 7  20298703.600 1 106670441.355 1      -122.670          25.000                                                                  
G21  20560127.420 1 108044211.953 1     -1775.043          19.000                                                                  
J 2  37972738.920 1 199548032.44611       179.700          27.000                                                                  
J 3  39009597.817 1 204996759.254 1     -1773.802          23.000                                                                  
R21  20111242.177 1 107619318.788 1       848.064          24.000  
> 2021  5 18  3 11  4.9979848  0 10                     
C 7  36685218.452 1 191029551.253 1      -612.956          29.000  
C 8  37747893.677 1 196563072.417 1       540.255          26.000  
C28  22225051.817 1 115731663.403 1     -2616.150          36.000  
C37  22040079.271 1 114768469.756 1         9.118          41.000  
G 1  20321206.322 1 106788700.245 1       865.973          27.000                                                                  
G 7  20298579.186 1 106669776.583 1      -123.527          25.000                                                                  
G21  20560315.690 1 108045199.287 1     -1775.386          24.000                                                                  
J 2  37972552.149 1 199547065.156 1       177.877          28.000                                                                  
J 3  39009788.785 1 204997745.561 1     -1775.226          25.000                                                                  
R21  20110931.592 1 107617656.540 1       846.872          24.000  
> 2021  5 18  3 11  5.9979843  0 10                     
C 7  36685186.674 1 191029383.179 1      -612.685          29.000  
C 8  37747639.753 1 196561751.512 1       540.784          24.000  
C28  22225406.771 1 115733498.380 1     -2616.255          36.000  
C37  22039928.475 1 114767679.646 1         9.471          42.000  
G 1  20320890.340 1 106787046.197 1       866.245          29.000                                                                  
G 7  20298452.374 1 106669112.538 1      -124.237          23.000                                                                  
G21  20560503.360 1 108046187.322 1     -1775.855          26.000                                                                  
J 2  37972364.179 1 199546099.776 1       177.903          25.000                                                                  
J 3  39009978.854 1 204998731.995 1     -1774.450          21.000                                                                  
R21  20110615.311 1 107615963.999 1       845.345          22.000  
> 2021  5 18  3 11  6.9979835  0  9                     
C 7  36685064.059 1 191028746.599 1      -612.159          28.000  
C 8  37747297.090 1 196559961.405 1       540.302          27.000  
C28  22225668.190 1 115734864.781 1     -2614.126          36.000  
C37  22039686.842 1 114766421.227 1        10.148          42.000  
G 1  20320486.220 1 106784919.934 1       865.675          28.000                                                                  
G 7  20298239.221 1 106667976.342 1      -124.272          25.000                                                                  
G21  20560600.492 1 108046703.748 1     -1777.085          28.000                                                                  
J 3  39010080.183 1 204999244.307 1     -1772.339          23.000                                                                  
R21  20110221.084 1 107613854.418 1       845.111          21.000  
> 2021  5 18  3 11  7.9979827  0 10                     
C 7  36684941.743 1 191028109.306 1      -612.207          28.000  
C 8  37746955.626 1 196558171.172 1       542.022          25.000  
C16  38886375.323 1 202491528.60211     -2647.279          19.000  
C28  22225930.808 1 115736231.722 1     -2615.970          36.000  
C37  22039444.610 1 114765163.307 1         9.128          42.000  
G 1  20320082.100 1 106782794.055 1       865.594          28.000                                                                  
G 7  20298023.371 1 106666840.441 1      -124.878          26.000                                                                  
G21  20560699.124 1 108047222.711 1     -1779.719          25.000                                                                  
G30  22619902.168 1 118868388.00911      1804.889          28.000                                                                  
R21  20109826.257 1 107611741.801 1       844.451          20.000  
> 2021  5 18  3 11  8.9979822  0 10                     
C 7  36684910.565 1 191027941.363 1      -612.956          31.000  
C 8  37746702.602 1 196556848.116 1       543.235          24.000  
C28  22226279.167 1 115738067.828 1     -2616.285          33.000  
C37  22039292.315 1 114764374.432 1         8.036          41.000  
G 1  20319767.018 1 106781140.613 1       865.658          27.000                                                                  
G 7  20297898.357 1 106666177.831 1      -125.587          29.000                                                                  
G21  20560884.996 1 108048214.387 1     -1778.903          26.000                                                                  
G30  22619409.609 1 118865795.981 1      1803.661          29.000                                                                  
J 3  39010371.582 1 205000742.18211     -1773.622          24.000                                                                  
R21  20109519.269 1 107610099.342 1       844.032          22.000  
