     3.03           OBSERVATION DATA    M: Mixed            RINEX VERSION / TYPE
RTKCONV demo5 b33c                      20210520 081154 UTC PGM / RUN BY / DATE 
log: C:\Users\Ivan_PolyU_Dktp\Dropbox\HUAWEI Exp\20210518_  COMMENT             
format: RINEX                                               COMMENT             
                                                            MARKER NAME         
                                                            MARKER NUMBER       
                                                            MARKER TYPE         
                                                            OBSERVER / AGENCY   
BFN16413056         NOV CDSR0G55N       OEM060710RN0000     REC # / TYPE / VERS 
                                                            ANT # / TYPE        
 -2419223.1668  5385476.7986  2405344.6619                  APPROX POSITION XYZ 
        0.0000        0.0000        0.0000                  ANTENNA: DELTA H/E/N
G    8 C1C L1C D1C S1C C2W L2W D2W S2W                      SYS / # / OBS TYPES 
R    8 C1C L1C D1C S1C C2P L2P D2P S2P                      SYS / # / OBS TYPES 
C    8 C2I L2I D2I S2I C7I L7I D7I S7I                      SYS / # / OBS TYPES 
  2021     5    18     3     7   15.0000000     GPS         TIME OF FIRST OBS   
  2021     5    18     4     3    4.0000000     GPS         TIME OF LAST OBS    
G                                                           SYS / PHASE SHIFT   
R                                                           SYS / PHASE SHIFT   
C                                                           SYS / PHASE SHIFT   
  1 R10 -7                                                  GLONASS SLOT / FRQ #
 C1C    0.000 C1P    0.000 C2C    0.000 C2P    0.000        GLONASS COD/PHS/BIS 
                                                            END OF HEADER       
> 2021  5 18  3  7 15.0000000  0  4                     
G 7  20340126.027 7 106888082.857 7      1010.943          43.750                                                                  
G 1  20405917.526 7 107233814.353 7      1999.302          46.000    20405918.202 7  83558824.422 7      1557.899          46.000  
C13  38598736.218 6 200993754.74626      1554.792          37.000    38598743.553 5 155421134.26825      1202.549          32.750  
C 3  36459075.495 7 189851975.961 7        29.804          43.750    36459073.592 6 146805584.650 6        22.796          36.750  
> 2021  5 18  3  7 16.0000000  0  4                     
G 7  20339933.777 7 106887072.440 7      1010.410          43.750                                                                  
G 1  20405537.146 7 107231815.383 7      1998.844          46.500    20405537.823 7  83557266.782 7      1557.541          46.750  
C13  38598437.571 6 200992199.569 6      1555.214          37.250    38598444.864 5 155419931.229 5      1202.896          33.750  
C 3  36459069.866 7 189851946.413 7        29.866          43.750    36459068.239 6 146805561.808 6        22.819          37.250  
> 2021  5 18  3  7 17.0000000  0  5                     
G 7  20339741.695 7 106886062.431 7      1009.994          43.750                                                                  
G 1  20405156.849 7 107229816.789 7      1998.377          46.250    20405157.517 7  83555709.432 7      1557.176          46.500  
C13  38598139.108 6 200990644.273 6      1555.434          37.750    38598145.818 5 155418728.627 5      1202.453          34.000  
C 3  36459064.186 7 189851916.657 7        29.881          43.750    36459062.350 6 146805538.787 6        22.840          37.000  
C10  37272910.291 6 194089821.00226       267.298          39.250                                                                  
> 2021  5 18  3  7 18.0000000  0  5                     
G 7  20339548.605 7 106885048.886 7      1031.334          43.750                                                                  
G 1  20404775.843 7 107227814.607 7      2020.125          46.500    20404776.461 7  83554149.287 7      1574.121          46.500  
C13  38597839.582 6 200989084.935 6      1577.320          37.500    38597846.092 5 155417522.783 5      1219.510          33.250  
C 3  36459057.673 7 189851882.774 7        51.467          44.000    36459055.795 6 146805512.576 6        39.788          37.000  
C10  37272857.944 6 194089549.89926       288.648          39.000    37272856.198 6 150082349.43516       222.857          36.750  
> 2021  5 18  3  7 19.0000000  0  5                     
G 7  20339348.906 7 106884000.883 7      1054.888          43.750    20339349.055 7  83286234.03817       821.990          43.000  
G 1  20404388.229 7 107225777.972 7      2043.518          46.250    20404388.869 7  83552562.291 7      1592.349          46.250  
C13  38597533.546 6 200987490.850 6      1601.185          38.000    38597540.633 5 155416290.108 5      1238.117          33.000  
C 3  36459044.474 7 189851814.162 7        75.489          44.000    36459042.527 6 146805459.513 6        58.614          37.500  
C10  37272798.128 6 194089243.96926       312.916          39.000    37272798.810 6 150082112.83826       241.947          36.750  
> 2021  5 18  3  7 20.0000000  0  5                     
G 7  20339148.410 7 106882946.439 7      1053.277          44.250    20339147.992 7  83285410.19417       820.736          44.250  
G 1  20403999.397 7 107223734.923 7      2041.740          46.250    20404000.239 7  83550970.299 7      1590.963          46.250  
C13  38597226.085 6 200985889.834 6      1600.213          38.750    38597233.573 5 155415052.161 5      1237.384          33.250  
C 3  36459029.923 7 189851738.544 7        74.648          43.500    36459028.114 6 146805401.053 6        57.756          38.000  
C10  37272737.716 6 194088930.97526       312.054          39.000    37272738.794 6 150081870.79726       241.468          36.750  
> 2021  5 18  3  7 21.0000000  0  5                     
G 7  20338947.997 7 106881894.571 7      1050.394          43.750    20338948.006 7  83284590.493 7       818.488          43.500  
G 1  20403611.070 7 107221694.365 7      2039.143          46.250    20403611.937 7  83549380.250 7      1588.940          46.250  
C13  38596919.052 6 200984290.784 6      1597.796          39.500    38596926.487 5 155413815.673 5      1235.015          33.000  
C 3  36459015.767 7 189851664.855 7        72.509          43.500    36459013.918 6 146805344.064 6        56.064          38.250  
C10  37272678.542 6 194088619.257 6       310.492          38.750    37272678.029 6 150081630.165 6       239.916          36.500  
> 2021  5 18  3  7 22.0000000  0  5                     
G 7  20338748.431 7 106880845.640 7      1047.632          44.250    20338748.286 7  83283773.133 7       816.337          44.500  
G 1  20403223.304 7 107219656.762 7      2036.336          46.250    20403224.225 7  83547792.502 7      1586.752          46.250  
C13  38596612.443 6 200982694.098 6      1595.857          39.500    38596619.396 5 155412580.977 5      1233.940          34.000  
C 3  36459002.076 7 189851593.460 7        70.624          43.750    36459000.351 6 146805288.871 6        54.345          38.000  
C10  37272618.900 6 194088310.346 6       307.777          39.000    37272619.128 6 150081391.287 6       238.162          36.500  
> 2021  5 18  3  7 23.0000000  0  6                     
G 7  20338549.374 7 106879799.439 7      1045.201          44.000    20338549.139 7  83282957.907 7       814.442          43.750  
G 1  20402836.055 7 107217621.865 7      2033.874          46.500    20402837.047 7  83546206.870 7      1584.834          46.000  
G21  20530453.803 5 107888265.26625      -605.532          35.500                                                                  
C13  38596306.095 6 200981099.556 6      1593.703          38.250    38596313.694 5 155411347.996 5      1231.923          33.750  
C 3  36458988.826 7 189851524.201 7        68.321          43.750    36458986.976 6 146805235.289 6        53.318          37.750  
C10  37272559.776 6 194088003.426 6       306.245          39.250    37272560.064 6 150081153.968 6       236.505          36.750  
> 2021  5 18  3  7 24.0000000  0  6                     
G 7  20338350.631 7 106878755.288 7      1043.153          44.250    20338350.626 7  83282144.279 7       812.847          44.500  
G 1  20402449.200 7 107215589.002 7      2031.649          46.500    20402450.163 7  83544622.820 7      1583.101          46.250  
G21  20530568.736 5 107888871.98425      -608.015          35.500                                                                  
C13  38596000.352 6 200979506.396 6      1592.216          39.000    38596007.767 5 155410116.095 5      1231.095          34.000  
C 3  36458975.795 7 189851456.329 7        66.835          44.000    36458973.983 6 146805182.819 6        51.930          37.500  
C10  37272501.489 6 194087697.848 6       304.836          39.250    37272501.272 6 150080917.674 6       235.680          36.250  
> 2021  5 18  3  7 25.0000000  0  6                     
G 7  20338152.502 7 106877713.808 7      1040.236          44.750    20338152.255 7  83281332.731 7       810.573          45.000  
G 1  20402062.823 7 107213558.781 7      2028.868          46.500    20402063.921 7  83543040.829 7      1580.935          46.250  
G21  20530685.316 5 107889480.868 5      -610.687          35.000                                                                  
C13  38595694.853 6 200977915.365 6      1589.656          39.000    38595702.458 5 155408885.788 5      1229.486          33.250  
C 3  36458963.173 7 189851390.499 7        64.554          44.000    36458961.423 6 146805131.880 6        50.449          37.750  
C10  37272442.959 6 194087394.211 6       302.426          39.250    37272443.193 6 150080682.851 6       234.307          36.500  
> 2021  5 18  3  7 26.0000000  0  6                     
G 7  20337955.011 7 106876675.272 7      1036.813          45.000    20337954.587 7  83280523.482 7       807.907          45.250  
G 1  20401677.045 7 107211531.487 7      2025.538          46.750    20401678.258 7  83541461.119 7      1578.340          46.000  
G21  20530801.724 5 107890093.190 5      -614.220          35.500                                                                  
C13  38595389.756 6 200976326.696 6      1587.340          39.250    38595397.419 5 155407657.303 5      1227.577          33.500  
C 3  36458950.989 7 189851326.994 7        61.908          44.000    36458949.338 6 146805082.801 6        47.885          37.500  
C10  37272385.044 6 194087092.780 6       300.051          39.250    37272385.028 6 150080449.782 6       232.039          36.750  
> 2021  5 18  3  7 27.0000000  0  6                     
G 7  20337758.125 7 106875640.013 7      1033.556          45.000    20337757.498 7  83279716.786 7       805.368          45.250  
G 1  20401291.880 7 107209507.412 7      2022.663          46.750    20401293.186 7  83539883.920 7      1576.100          46.250  
G21  20530918.673 5 107890708.822 5      -617.269          35.500                                                                  
C13  38595085.185 6 200974740.665 6      1584.819          38.750    38595092.671 5 155406430.910 5      1225.249          33.500  
C 3  36458939.313 7 189851266.073 7        59.689          44.000    36458937.517 6 146805035.685 6        46.181          37.750  
C10  37272327.398 6 194086793.889 6       297.536          39.250    37272327.621 6 150080218.669 6       229.812          36.500  
> 2021  5 18  3  7 28.0000000  0  6                     
G 7  20337561.882 7 106874608.281 7      1029.785          45.250    20337561.009 7  83278912.835 7       802.429          45.250  
G 1  20400907.341 7 107207486.906 7      2018.318          46.750    20400908.790 7  83538309.500 7      1572.715          46.250  
G21  20531035.683 5 107891328.069 5      -621.925          35.750                                                                  
C13  38594781.077 6 200973157.616 6      1581.048          38.750    38594788.598 5 155405206.788 5      1222.720          33.750  
C 3  36458928.214 7 189851208.103 7        56.245          44.000    36458926.422 6 146804990.852 6        43.709          37.750  
C10  37272270.662 6 194086497.843 6       294.333          39.750    37272270.676 6 150079989.733 6       227.783          36.750  
> 2021  5 18  3  7 29.0000000  0  6                     
G 7  20337366.419 7 106873580.404 7      1026.291          45.000    20337365.432 7  83278111.889 7       799.706          45.500  
G 1  20400523.554 7 107205470.225 7      2014.871          46.750    20400525.039 7  83536738.063 7      1570.030          46.250  
G21  20531154.779 5 107891951.074 5      -624.288          35.250                                                                  
C13  38594477.672 6 200971577.787 6      1578.306          38.500    38594485.132 5 155403985.170 5      1220.837          33.500  
C 3  36458917.704 7 189851153.318 7        53.453          44.000    36458915.859 6 146804948.494 6        41.452          37.750  
C10  37272214.695 6 194086204.939 6       291.493          39.250    37272214.144 6 150079763.253 6       225.301          36.750  
> 2021  5 18  3  7 30.0000000  0  6                     
G 7  20337171.572 7 106872555.834 7      1023.076          45.000    20337170.352 7  83277313.521 7       797.200          45.250  
G 1  20400140.361 7 107203456.780 7      2012.328          46.500    20400141.936 7  83535169.147 7      1568.048          46.250  
G21  20531273.536 5 107892577.480 5      -627.721          35.750                                                                  
C13  38594174.820 6 200970000.664 6      1575.968          38.000    38594182.106 5 155402765.629 5      1218.496          33.500  
C 3  36458907.755 7 189851101.207 7        50.867          44.000    36458905.990 6 146804908.203 6        39.314          37.750  
C10  37272158.965 6 194085914.565 6       289.423          39.000    37272158.462 6 150079538.724 6       223.681          36.750  
> 2021  5 18  3  7 31.0000000  0  6                     
G 7  20336977.255 7 106871534.131 7      1020.170          45.250    20336976.080 7  83276517.387 7       794.937          45.500  
G 1  20399757.735 7 107201446.205 7      2009.377          46.250    20399759.410 7  83533602.472 7      1565.751          46.000  
G21  20531393.231 5 107893206.743 5      -630.405          35.500                                                                  
C13  38593872.238 6 200968425.829 6      1573.561          38.250    38593879.298 5 155401547.864 5      1216.879          33.500  
C 3  36458898.132 7 189851051.293 7        48.839          44.000    36458896.479 6 146804869.605 6        37.613          37.750  
C10  37272103.500 6 194085626.354 6       287.177          39.250    37272103.207 6 150079315.838 6       222.047          36.250  
> 2021  5 18  3  7 32.0000000  0  6                     
G 7  20336783.493 7 106870515.517 7      1017.163          45.250    20336782.229 7  83275723.662 7       792.593          45.250  
G 1  20399375.717 7 107199438.694 7      2006.142          46.250    20399377.388 7  83532038.183 7      1563.231          46.000  
G21  20531513.868 5 107893839.133 5      -633.898          35.250                                                                  
C13  38593570.331 6 200966853.448 6      1571.407          38.000    38593577.510 5 155400331.995 5      1215.245          33.500  
C 3  36458889.007 7 189851003.831 7        46.518          44.000    36458887.452 6 146804832.913 6        35.865          38.000  
C10  37272048.578 6 194085340.509 6       284.881          39.250    37272048.310 6 150079094.815 6       220.130          36.500  
> 2021  5 18  3  7 33.0000000  0  6                     
G 7  20336590.243 7 106869499.124 7      1015.521          45.500    20336588.818 7  83274931.669 7       791.315          45.250  
G 1  20398994.101 7 107197433.423 7      2004.255          46.250    20398995.750 7  83530475.635 7      1561.759          45.500  
G21  20531634.930 5 107894473.759 5      -635.147          35.500                                                                  
C13  38593268.743 6 200965282.717 6      1570.185          38.250    38593275.973 5 155399117.448 5      1213.962          33.250  
C 3  36458880.178 7 189850957.994 7        45.168          44.250    36458878.618 6 146804797.437 6        35.186          37.750  
C10  37271994.168 6 194085056.188 6       283.620          39.250    37271993.804 6 150078874.952 6       219.300          36.750  
> 2021  5 18  3  7 34.0000000  0  6                     
G 7  20336397.323 7 106868484.623 7      1013.550          45.750    20336395.753 7  83274141.147 7       789.779          45.750  
G 1  20398612.874 7 107195430.011 7      2002.221          46.000    20398614.499 7  83528914.538 7      1560.175          45.750  
G21  20531756.052 5 107895110.317 5      -637.672          35.500                                                                  
C13  38592967.300 6 200963713.340 6      1568.494          38.250    38592974.405 5 155397903.891 5      1212.866          33.500  
C 3  36458871.625 7 189850913.394 7        43.832          44.250    36458870.011 6 146804762.957 6        34.060          37.750  
C10  37271939.709 6 194084773.014 6       282.584          39.250    37271939.410 6 150078655.986 6       218.304          37.000  
> 2021  5 18  3  7 35.0000000  0  6                     
G 7  20336204.620 7 106867471.393 7      1013.020          45.750    20336202.888 7  83273351.615 7       789.365          45.750  
G 1  20398231.884 7 107193427.822 7      2002.173          46.000    20398233.506 7  83527354.391 7      1560.137          45.500  
G21  20531877.564 5 107895748.125 5      -637.926          35.500                                                                  
C13  38592665.985 6 200962144.561 6      1569.016          38.000    38592673.007 5 155396690.778 5      1213.321          32.750  
C 3  36458863.202 7 189850869.438 7        44.127          44.250    36458861.657 6 146804728.978 6        33.991          38.000  
C10  37271885.471 6 194084490.398 6       283.097          39.500    37271885.260 6 150078437.448 6       218.724          36.500  
> 2021  5 18  3  7 36.0000000  0  7                     
G 7  20336012.036 7 106866459.135 7      1011.162          45.750    20336010.193 7  83272562.842 7       787.918          45.750  
G 1  20397851.035 7 107191426.590 7      2000.302          46.000    20397852.679 7  83525794.990 7      1558.678          46.000  
G21  20531999.077 5 107896386.950 5      -640.039          35.500    20532010.442 4  84075126.81614      -498.732          26.250  
C13  38592364.733 6 200960576.227 6      1567.438          38.000    38592371.940 5 155395478.039 5      1212.264          32.750  
C 3  36458854.879 7 189850825.830 7        42.904          44.250    36458853.260 6 146804695.239 6        33.306          37.750  
C10  37271831.178 6 194084208.052 6       281.551          39.500    37271831.137 6 150078219.115 6       217.809          36.750  
C 8  37809696.622 5 196885010.92615      1562.080          34.750                                                                  
> 2021  5 18  3  7 37.0000000  0  7                     
G 7  20335819.799 7 106865448.791 7      1009.948          46.000    20335817.875 7  83271775.560 7       786.971          46.000  
G 1  20397470.582 7 107189427.275 7      1998.800          45.750    20397472.156 7  83524237.081 7      1557.508          45.750  
G21  20532120.972 5 107897027.694 5      -641.257          35.500    20532133.785 4  84075626.060 4      -499.681          26.750  
C13  38592063.793 6 200959009.223 6      1566.744          38.250    38592070.967 5 155394266.340 5      1211.570          33.250  
C 3  36458846.775 7 189850783.514 7        42.199          44.000    36458845.172 6 146804662.529 6        32.580          37.750  
C10  37271777.183 6 194083926.910 6       280.925          39.750    37271777.227 6 150078001.736 6       217.047          36.500  
C 8  37809397.825 5 196883449.17625      1561.590          34.500                                                                  
> 2021  5 18  3  7 38.0000000  0  8                     
G 7  20335627.841 7 106864439.747 7      1007.667          46.000    20335625.818 7  83270989.290 7       785.193          46.000  
G 1  20397090.323 7 107187429.208 7      1996.850          45.500    20397091.946 7  83522680.145 7      1555.988          45.250  
G21  20532242.721 5 107897669.707 5      -643.186          35.000    20532254.431 4  84076126.373 4      -501.184          25.250  
C13  38591762.916 6 200957442.890 6      1565.133          37.750    38591770.188 5 155393055.149 5      1210.724          33.000  
C 3  36458838.789 7 189850741.863 7        40.787          44.000    36458837.213 6 146804630.325 6        31.369          37.750  
C10  37271723.339 6 194083646.368 6       279.691          39.500    37271723.411 6 150077784.792 6       215.997          36.750  
C23  23093223.669 5 120252475.73715     -1638.687          32.500                                                                  
C 8  37809097.287 5 196881888.18925      1559.967          33.750                                                                  
> 2021  5 18  3  7 39.0000000  0  8                     
G 7  20335436.338 7 106863432.887 7      1005.900          45.750    20335434.193 7  83270204.722 7       783.817          46.250  
G 1  20396710.503 7 107185433.345 7      1994.859          45.500    20396712.148 7  83521124.931 7      1554.437          45.500  
G21  20532365.621 5 107898314.000 5      -645.339          35.250    20532376.361 4  84076628.529 4      -502.862          24.750  
C13  38591462.380 6 200955878.194 6      1564.136          38.750    38591469.786 5 155391845.222 5      1209.684          33.000  
C 3  36458831.134 7 189850701.797 7        39.410          44.000    36458829.607 6 146804599.336 6        30.523          38.250  
C10  37271669.762 6 194083367.287 6       278.524          39.500    37271669.952 6 150077569.000 6       215.165          36.750  
C23  23093539.915 5 120254115.297 5     -1639.702          32.750                                                                  
C 8  37808798.188 5 196880328.89025      1558.221          34.250                                                                  
> 2021  5 18  3  7 40.0000000  0  8                     
G 7  20335245.230 7 106862428.002 7      1003.689          46.000    20335242.951 7  83269421.694 7       782.094          46.000  
G 1  20396331.075 7 107183439.424 7      1992.827          45.250    20396332.730 7  83519571.224 7      1552.853          45.250  
G21  20532488.286 5 107898960.243 5      -647.695          35.750    20532499.696 3  84077132.028 3      -504.698          23.250  
C13  38591162.230 6 200954314.861 6      1562.684          38.250    38591169.368 5 155390636.345 5      1208.152          32.750  
C 3  36458823.695 7 189850663.057 7        37.838          44.250    36458822.090 6 146804569.366 6        29.251          37.750  
C10  37271616.423 6 194083089.462 6       277.078          39.500    37271616.617 6 150077354.145 6       214.088          37.000  
C23  23093851.942 5 120255756.586 5     -1642.570          32.500                                                                  
C 8  37808498.994 5 196878771.046 5      1557.147          34.250    37808498.528 5 152239153.01625      1204.097          30.750  
> 2021  5 18  3  7 41.0000000  0  8                     
G 7  20335054.390 7 106861425.029 7      1001.843          46.000    20335052.022 7  83268640.157 7       780.656          45.750  
G 1  20395951.962 7 107181447.395 7      1990.798          45.250    20395953.601 7  83518018.990 7      1551.271          45.000  
G21  20532611.813 5 107899608.404 5      -649.248          35.500                                                                  
C13  38590862.265 6 200952752.846 6      1561.249          38.250    38590869.633 5 155389428.512 5      1207.309          33.000  
C 3  36458816.528 7 189850625.600 7        36.615          44.250    36458814.865 6 146804540.403 6        28.561          38.000  
C10  37271563.237 6 194082812.860 6       275.924          39.500    37271563.545 6 150077140.252 6       213.089          36.750  
C23  23094169.822 5 120257399.485 5     -1643.610          32.750                                                                  
C 8  37808200.921 5 196877214.572 5      1555.708          34.750    37808198.282 4 152237949.47424      1202.597          30.000  
> 2021  5 18  3  7 42.0000000  0  8                     
G 7  20334863.958 7 106860423.855 7      1000.634          46.000    20334861.479 7  83267860.022 7       779.715          45.750  
G 1  20395573.213 7 107179457.151 7      1989.535          45.000    20395574.811 7  83516468.144 7      1550.285          44.750  
G21  20532735.507 5 107900258.365 5      -650.135          35.750                                                                  
C13  38590562.600 6 200951192.048 6      1560.182          38.500    38590569.948 5 155388221.563 5      1206.977          32.750  
C 3  36458809.542 7 189850589.309 7        36.019          44.000    36458808.027 6 146804512.348 6        27.726          37.750  
C10  37271510.267 6 194082537.333 6       275.250          40.000    37271510.687 6 150076927.199 6       212.548          36.750  
C23  23094484.261 5 120259043.997 5     -1645.369          33.250                                                                  
C 8  37807902.435 5 196875659.388 5      1554.616          35.000    37807896.732 5 152236746.89525      1202.340          31.000  
> 2021  5 18  3  7 43.0000000  0  8                     
G 7  20334673.744 7 106859423.931 7       999.089          46.000    20334671.168 7  83267080.860 7       778.511          45.750  
G 1  20395194.725 7 107177468.137 7      1988.169          45.000    20395196.264 7  83514918.261 7      1549.221          45.250  
G21  20532859.328 5 107900909.638 5      -651.946          35.250                                                                  
C13  38590262.995 6 200949631.909 6      1559.604          38.750    38590270.380 5 155387015.182 5      1206.154          33.000  
C 3  36458802.692 7 189850553.630 7        35.478          44.000    36458801.110 6 146804484.774 6        27.163          37.500  
C10  37271457.406 6 194082262.328 6       274.461          39.750    37271457.973 6 150076714.516 6       212.331          36.500  
C23  23094801.605 5 120260689.507 5     -1646.320          33.250                                                                  
C 8  37807603.248 5 196874104.931 5      1554.147          34.000    37807599.331 5 152235544.92925      1201.403          31.000  
> 2021  5 18  3  7 44.0000000  0  8                     
G 7  20334483.662 7 106858425.050 7       998.464          45.500    20334481.023 7  83266302.510 7       778.023          45.500  
G 1  20394816.417 7 107175480.325 7      1987.320          45.000    20394817.934 7  83513369.313 7      1548.559          45.000  
G21  20532983.481 6 107901562.013 6      -652.791          36.000    20532999.186 4  84079214.25814      -508.668          26.750  
C13  38589963.582 6 200948072.495 6      1559.011          38.750    38589970.924 5 155385809.358 5      1205.594          33.000  
C 3  36458795.964 7 189850518.561 7        34.855          44.250    36458794.375 6 146804457.628 6        27.212          37.750  
C10  37271404.645 6 194081987.606 6       274.597          39.500    37271405.134 5 150076502.082 5       212.356          35.500  
C23  23095117.632 5 120262335.834 5     -1646.588          32.750                                                                  
C 8  37807304.554 5 196872551.312 5      1553.557          34.250    37807303.196 5 152234343.49125      1201.148          31.750  
> 2021  5 18  3  7 45.0000000  0  7                     
G 7  20334293.656 7 106857426.538 7       998.134          45.500    20334291.120 7  83265524.456 7       777.769          45.250  
G 1  20394438.259 7 107173493.116 7      1986.641          45.750    20394439.742 7  83511820.826 7      1548.026          46.000  
G21  20533107.900 5 107902214.968 5      -653.808          35.000    20533116.369 4  84079723.060 4      -509.461          25.250  
C13  38589664.134 6 200946513.326 6      1558.465          37.500    38589671.403 5 155384603.701 5      1205.227          34.250  
C 3  36458789.252 7 189850483.476 7        34.732          45.000    36458787.638 6 146804430.529 6        27.009          37.000  
C10  37271351.735 6 194081712.343 6       275.446          38.750    37271352.271 6 150076289.274 6       212.791          38.500  
C 8  37807006.685 5 196870997.793 5      1552.393          34.750    37807003.584 4 152233141.771 4      1200.135          29.250  
> 2021  5 18  3  7 46.0000000  0  8                     
G 7  20334103.745 7 106856428.505 7       998.158          45.500    20334101.244 7  83264746.778 7       777.789          45.250  
G 1  20394060.353 7 107171507.211 7      1985.770          46.250    20394061.834 7  83510273.354 7      1547.347          46.500  
G21  20533232.766 5 107902868.682 5      -653.677          34.500                                                                  
R10  19964287.446 5 106420511.80515      1864.889          33.750                                                                  
C13  38589364.890 6 200944955.408 6      1557.352          38.500    38589372.246 5 155383399.000 5      1204.640          35.500  
C 3  36458782.676 7 189850449.011 7        34.679          44.000    36458780.955 6 146804403.873 6        26.418          37.750  
C10  37271298.665 6 194081436.323 6       276.649          39.750    37271299.386 5 150076075.773 5       214.342          35.750  
C 8  37806708.298 5 196869445.365 5      1553.501          31.500    37806705.069 5 152231941.318 5      1200.140          31.750  
> 2021  5 18  3  7 47.0000000  0  8                     
G 7  20333913.899 7 106855430.518 7       997.670          45.000    20333911.361 7  83263969.139 7       777.412          45.000  
G 1  20393682.596 7 107169522.171 7      1984.618          44.750    20393684.079 7  83508726.567 7      1546.450          44.750  
G21  20533357.925 5 107903522.837 5      -654.209          35.000    20533361.012 5  84080672.57015      -509.773          31.750  
R10  19963933.541 5 106418646.94825      1864.889          31.000                                                                  
C13  38589065.794 6 200943398.280 6      1556.921          37.250    38589073.197 5 155382195.056 5      1203.341          35.500  
C 3  36458776.108 7 189850414.907 7        33.474          42.750    36458774.420 6 146804377.471 6        26.663          39.000  
C10  37271245.362 6 194081158.903 6       277.783          41.750    37271246.081 6 150075861.218 6       215.444          37.250  
C 8  37806409.643 5 196867893.763 5      1550.270          32.000    37806407.592 4 152230741.484 4      1199.564          27.500  
> 2021  5 18  3  7 48.0000000  0  7                     
G 7  20333723.980 7 106854432.378 7       997.995          46.750    20333721.413 7  83263191.366 7       777.661          44.750  
G 1  20393304.988 7 107167537.923 7      1983.779          46.250    20393306.499 7  83507180.402 7      1545.798          46.000  
G21  20533482.953 6 107904177.060 6      -653.706          40.500    20533487.077 4  84081182.347 4      -509.382          26.750  
C13  38588766.913 6 200941842.359 6      1555.523          36.750    38588774.254 5 155380991.752 5      1203.067          36.000  
C 3  36458769.597 6 189850381.011 6        33.490          41.750    36458767.946 6 146804351.210 6        25.913          37.750  
C10  37271191.789 7 194080879.918 7       279.336          43.500    37271192.608 6 150075645.538 6       215.423          36.500  
C 8  37806111.680 5 196866342.505 5      1551.590          33.750    37806109.831 4 152229542.102 4      1199.451          29.500  
> 2021  5 18  3  7 49.0000000  0  6                     
G 7  20333534.195 7 106853434.918 7       994.022          45.250    20333531.737 7  83262414.137 7       774.570          46.000  
G 1  20392927.616 7 107165554.802 7      1980.056          45.250    20392929.093 7  83505635.107 7      1542.897          45.500  
C13  38588468.352 6 200940287.405 6      1552.390          37.750    38588475.641 5 155379789.434 5      1200.799          35.750  
C 3  36458763.213 7 189850347.678 7        30.750          42.750    36458761.621 6 146804325.468 6        24.041          39.250  
C10  37271138.108 6 194080600.643 6       277.183          37.250    37271138.924 6 150075429.593 6       214.278          36.250  
C 8  37805814.115 5 196864792.445 5      1547.996          31.750    37805811.903 4 152228343.335 4      1196.844          26.250  
> 2021  5 18  3  7 50.0000000  0  6                     
G 7  20333345.340 7 106852442.290 7       991.639          46.250    20333342.842 7  83261640.651 7       772.706          45.750  
G 1  20392551.157 7 107163576.627 7      1977.017          45.000    20392552.682 7  83504093.681 7      1540.533          45.000  
C13  38588170.587 5 200938736.958 5      1550.088          35.500    38588177.867 5 155378590.508 5      1198.697          35.750  
C 3  36458757.645 7 189850318.655 7        28.659          43.000    36458756.107 6 146804303.133 6        21.645          36.750  
C10  37271085.230 6 194080325.161 6       274.647          39.500    37271086.173 6 150075216.626 6       212.270          37.000  
C 8  37805517.003 5 196863246.759 5      1545.228          32.000                                                                  
> 2021  5 18  3  7 51.0000000  0  8                     
G 7  20333156.809 7 106851451.278 7       990.670          47.000    20333154.239 7  83260868.429 7       771.951          43.500  
G 1  20392175.010 7 107161599.979 7      1976.711          42.250    20392176.627 7  83502553.457 7      1540.299          42.500  
C13  38587872.937 5 200937187.156 5      1550.217          35.500    38587880.375 5 155377392.256 5      1198.526          33.250  
C16  38823364.986 5 202163442.92025     -1671.729          35.750                                                                  
C 3  36458752.246 6 189850290.614 6        28.316          41.250    36458750.659 6 146804281.337 6        21.739          37.250  
C10  37271032.556 6 194080050.801 6       274.350          39.000    37271033.399 5 150075004.432 5       212.494          32.750  
C 8  37805220.618 5 196861701.945 5      1545.649          30.750                                                                  
C28  22165636.916 5 115422287.68015     -1577.224          30.500                                                                  
> 2021  5 18  3  7 52.0000000  0  6                     
G 7  20332968.123 7 106850459.726 7       992.012          45.250    20332965.614 7  83260095.807 7       773.000          45.500  
G 1  20391798.601 7 107159622.078 7      1978.362          42.750    20391800.257 7  83501012.229 7      1541.581          42.250  
C13  38587574.939 6 200935635.363 6      1552.850          37.500    38587582.397 5 155376192.192 5      1200.402          32.500  
C16  38823682.944 5 202165112.848 5     -1670.137          34.000                                                                  
C 3  36458746.530 6 189850260.739 6        30.173          40.250    36458744.867 5 146804258.285 5        23.810          35.250  
C10  37270979.742 6 194079775.394 6       276.187          41.000    37270980.524 5 150074791.453 5       213.653          34.500  
> 2021  5 18  3  7 53.0000000  0  5                     
G 7  20332779.585 7 106849468.686 7       989.827          47.750    20332777.068 7  83259323.552 7       771.291          47.500  
G 1  20391422.407 7 107157645.116 7      1976.084          43.750    20391423.943 6  83499471.731 6      1539.805          41.750  
C13  38587276.952 6 200934083.868 6      1551.076          39.250    38587284.572 5 155374992.512 5      1199.848          31.750  
C 3  36458740.790 6 189850230.965 6        29.505          41.250    36458739.115 6 146804235.273 6        22.801          36.250  
C10  37270926.821 6 194079499.942 6       275.598          40.750    37270927.709 5 150074578.523 5       213.765          32.500  
> 2021  5 18  3  7 54.0000000  0  6                     
G 7  20332591.370 8 106848479.179 8       989.048          48.750    20332588.771 8  83258552.483 8       770.681          48.500  
G 1  20391046.209 6 107155668.421 6      1978.085          41.750    20391047.755 6  83497931.469 6      1541.370          41.750  
C13  38586978.705 6 200932531.007 6      1556.016          38.250    38586986.253 5 155373791.741 5      1203.003          31.250  
C 3  36458735.017 6 189850200.931 6        31.762          41.750    36458733.364 6 146804211.990 6        24.737          37.750  
C10  37270874.287 6 194079226.314 6       272.106          38.750    37270875.237 5 150074366.984 5       210.651          32.250  
C 6  38353331.046 6 199715852.71326     -1579.658          36.250                                                                  
> 2021  5 18  3  7 55.0000000  0  7                     
G 7  20332403.114 8 106847489.629 8       990.517          48.500    20332400.552 8  83257781.407 8       771.829          48.750  
G 1  20390669.627 7 107153689.521 7      1980.070          42.250    20390671.143 7  83496389.482 7      1542.918          42.250  
C13  38586679.712 6 200930974.324 6      1557.448          38.000    38586687.308 4 155372588.012 4      1204.479          29.750  
C 3  36458728.738 7 189850168.178 7        33.720          42.000    36458727.108 6 146804186.685 6        26.066          38.750  
C10  37270821.924 6 194078953.246 6       274.235          38.500    37270822.551 5 150074155.826 5       212.015          32.000  
C 6  38353634.846 6 199717431.13126     -1577.596          37.000    38353637.822 5 154434214.62815     -1219.420          32.250  
C28  22166850.582 5 115428605.26515     -1575.129          32.250                                                                  
> 2021  5 18  3  7 56.0000000  0  9                     
G 7  20332214.592 8 106846498.585 8       991.774          48.250    20332211.988 7  83257009.173 7       772.811          47.750  
G 1  20390292.723 6 107151709.134 6      1980.872          41.250    20390294.254 6  83494846.328 6      1543.542          41.250  
R 9  20456776.626 5 109237668.37415     -1295.567          32.000                                                                  
C13  38586380.309 6 200929415.562 6      1559.946          38.250    38586387.993 5 155371382.658 5      1205.456          30.250  
C 3  36458722.033 6 189850133.355 6        35.881          41.500    36458720.457 6 146804159.756 6        27.589          38.500  
C10  37270769.117 6 194078677.956 6       276.422          39.000    37270769.875 5 150073942.960 5       213.515          32.250  
C 6  38353938.352 6 199719007.49926     -1575.507          36.250    38353940.145 5 154435433.53225     -1218.008          31.250  
C28  22167153.181 5 115430179.19225     -1573.650          31.250                                                                  
C27  22243858.235 5 115829620.03125      1207.676          30.750                                                                  
> 2021  5 18  3  7 57.0000000  0  7                     
G 7  20332025.860 8 106845506.508 8       992.388          48.750    20332023.306 8  83256236.131 8       773.290          48.750  
G 1  20389915.697 7 107149728.144 7      1980.765          42.750    20389917.266 6  83493302.695 6      1543.455          41.750  
C13  38586080.621 6 200927855.902 6      1559.483          37.250    38586088.359 5 155370176.623 5      1205.321          31.250  
C 3  36458715.064 6 189850097.283 6        36.273          41.500    36458713.543 6 146804131.853 6        27.869          38.500  
C10  37270715.927 6 194078400.726 6       278.206          39.250    37270716.573 5 150073728.516 5       215.205          33.750  
C 6  38354239.425 6 199720582.837 6     -1575.169          36.000    38354245.912 5 154436651.72425     -1218.481          30.750  
C27  22243627.713 5 115828412.08525      1207.831          34.000                                                                  
> 2021  5 18  3  7 58.0000000  0  7                     
G 7  20331837.409 8 106844515.817 8       988.836          48.500    20331834.812 7  83255464.168 7       770.521          48.000  
G 1  20389539.147 7 107147749.317 7      1976.933          42.750    20389540.808 6  83491760.738 6      1540.466          42.000  
C13  38585781.433 6 200926298.375 6      1556.511          37.000    38585789.204 5 155368972.244 5      1202.498          31.000  
C 3  36458708.450 6 189850062.783 6        32.491          41.000    36458706.957 6 146804105.217 6        25.372          37.000  
C10  37270662.670 6 194078123.527 6       275.946          38.750    37270663.283 6 150073514.208 6       213.011          36.000  
C 6  38354542.714 6 199722160.273 6     -1578.922          36.250                                                                  
C27  22243398.875 4 115827205.066 4      1205.292          28.250                                                                  
> 2021  5 18  3  7 59.0000000  0  7                     
G 7  20331649.527 8 106843528.270 8       987.215          49.250    20331646.851 8  83254694.642 8       769.257          49.000  
G 1  20389163.294 7 107145774.180 7      1974.236          44.750    20389165.026 6  83490221.666 6      1538.364          40.500  
C13  38585483.002 6 200924744.231 6      1552.923          40.000    38585490.768 4 155367770.476 4      1200.393          28.250  
C 3  36458702.377 6 189850031.277 6        30.977          41.250    36458700.935 6 146804080.843 6        23.955          38.000  
C10  37270609.827 6 194077848.421 6       275.490          40.000    37270610.430 6 150073301.460 6       212.604          37.000  
C 6  38354846.445 6 199723741.104 6     -1581.592          37.500                                                                  
C27  22243166.965 5 115826009.51015      1202.977          30.500                                                                  
> 2021  5 18  3  8  0.0000000  0  6                     
G 7  20331461.642 8 106842540.722 8       987.633          50.000    20331458.878 8  83253925.116 8       769.581          49.500  
G 1  20388787.559 7 107143799.632 7      1974.442          45.000    20388789.265 6  83488683.041 6      1538.521          40.750  
C13  38585184.641 6 200923190.435 6      1553.631          39.250    38585192.402 5 155366568.940 5      1201.988          31.250  
C 3  36458696.320 7 189849999.700 7        32.214          42.750    36458694.859 6 146804056.446 6        24.407          37.000  
C10  37270556.826 6 194077572.310 6       275.456          36.750    37270557.433 5 150073087.919 5       213.231          35.250  
C 6  38355149.947 6 199725322.157 6     -1581.011          39.000                                                                  
> 2021  5 18  3  8  1.0000000  0  7                     
G 7  20331273.688 8 106841552.762 8       989.468          51.000    20331270.850 8  83253155.268 8       771.011          50.250  
G 8  21990349.929 5 115560075.97915     -2251.498          33.250                                                                  
G 1  20388411.656 7 107141824.099 7      1977.191          45.250    20388413.364 6  83487143.673 6      1540.668          41.750  
C13  38584885.918 6 200921634.733 6      1557.437          38.000    38584893.602 4 155365365.987 4      1204.511          30.000  
C 3  36458689.987 7 189849966.633 7        34.890          42.250    36458688.542 6 146804030.739 6        27.024          36.000  
C10  37270503.690 6 194077295.353 6       278.533          37.750    37270504.220 5 150072873.758 5       215.412          35.500  
C 6  38355453.348 6 199726901.348 6     -1577.060          36.500                                                                  
> 2021  5 18  3  8  2.0000000  0  7                     
G 7  20331085.367 8 106840562.814 8       990.546          49.000    20331082.570 8  83252383.882 8       771.851          48.750  
G 1  20388035.462 7 107139846.903 7      1977.292          45.500    20388037.178 6  83485603.017 6      1540.751          42.000  
C13  38584586.765 6 200920077.022 6      1557.800          39.000    38584594.448 5 155364161.505 5      1203.881          33.000  
C16  38826884.438 4 202181762.62714     -1664.871          29.000                                                                  
C 3  36458683.174 7 189849931.218 7        35.979          43.750    36458681.668 6 146804003.404 6        27.731          36.250  
C10  37270449.972 6 194077015.638 6       280.965          40.500    37270450.497 6 150072657.534 6       216.969          36.750  
C 6  38355756.067 5 199728478.415 5     -1577.158          35.500    38355756.969 5 154442738.15915     -1219.142          33.000  
> 2021  5 18  3  8  3.0000000  0  7                     
G 7  20330896.882 7 106839572.631 7       990.827          45.000    20330894.210 7  83251612.319 7       772.078          42.250  
G 1  20387659.422 7 107137871.011 7      1975.728          45.000    20387661.143 6  83484063.357 6      1539.528          41.000  
R10  19958351.244 5 106388894.46125      1862.059          32.500                                                                  
C13  38584287.891 6 200918520.653 6      1554.970          39.000    38584295.537 5 155362957.841 5      1202.799          32.750  
C16  38827201.835 5 202183432.04115     -1667.217          31.750                                                                  
C 3  36458676.501 6 189849896.407 6        33.596          40.750    36458675.029 6 146803976.410 6        27.060          37.500  
C10  37270395.943 6 194076734.570 6       283.450          38.000    37270396.597 5 150072440.092 5       218.732          34.250  
> 2021  5 18  3  8  4.0000000  0  5                     
G 1  20387284.174 7 107135899.243 7      1969.270          47.000    20387285.911 7  83482526.911 7      1534.495          44.250  
R10  19958001.162 6 106387032.43626      1862.391          39.500                                                                  
C13  38583989.986 6 200916969.330 6      1547.957          36.250    38583997.714 5 155361758.462 5      1197.447          31.750  
C 3  36458670.327 7 189849864.328 7        29.690          43.750    36458668.890 6 146803951.658 6        23.420          39.250  
C10  37270341.258 6 194076449.936 6       286.339          39.750    37270341.971 5 150072220.080 5       220.481          35.500  
> 2021  5 18  3  8  5.0000000  0  5                     
G 1  20386909.617 7 107133930.950 7      1968.350          48.000    20386911.404 7  83480993.170 7      1533.778          46.500  
R10  19957652.112 7 106385170.667 7      1860.952          42.500                                                                  
C13  38583692.861 6 200915422.159 6      1547.795          38.750    38583700.607 5 155360562.105 5      1196.013          34.750  
C 3  36458664.679 7 189849834.965 7        29.131          42.250    36458663.264 6 146803928.997 6        22.943          39.750  
C10  37270286.475 6 194076164.926 6       284.460          39.750    37270287.209 5 150071999.698 5       219.488          34.750  
> 2021  5 18  3  8  6.0000000  0  7                     
G 1  20386535.140 8 107131963.121 8      1967.388          49.250    20386536.956 8  83479459.794 8      1533.027          48.750  
R10  19957302.975 6 106383310.282 6      1860.863          41.500                                                                  
C13  38583395.644 6 200913874.576 6      1546.448          40.250    38583403.302 5 155359365.259 5      1196.317          31.500  
C 3  36458659.028 7 189849805.511 7        29.465          43.000    36458657.600 6 146803906.208 6        22.306          38.000  
C 7  36698048.544 7 191096372.17427       366.932          43.250    36698046.664 6 147767830.72016       283.306          37.750  
C10  37270231.817 6 194075880.493 6       286.342          38.250    37270232.486 5 150071779.745 5       220.097          32.250  
C28  22170158.923 7 115445839.99527     -1570.578          46.250                                                                  
> 2021  5 18  3  8  7.0000000  0  9                     
G 7  20330144.325 6 106835629.18316       989.413          40.250                                                                  
G 1  20386160.978 7 107129996.901 7      1964.678          48.000    20386162.785 7  83477927.673 7      1530.917          47.500  
R10  19956953.120 7 106381447.595 7      1863.957          42.500                                                                  
C13  38583098.931 6 200912329.378 6      1543.314          36.750    38583106.588 4 155358181.90914      1193.882          28.250  
C 3  36458653.518 6 189849776.823 6        28.042          41.750    36458652.100 5 146803883.958 5        21.852          36.000  
C 7  36697978.927 7 191096003.78727       369.988          42.250    36697975.085 6 147767545.87126       285.991          38.750  
C10  37270176.522 5 194075592.838 5       290.969          36.000    37270177.288 5 150071560.24415       223.950          31.500  
C 8  37800464.460 6 196836944.45016      1538.103          38.000    37800463.787 5 152206809.16515      1189.781          34.250  
C28  22170460.906 7 115447409.86427     -1567.658          46.500                                                                  
> 2021  5 18  3  8  8.0000000  0 10                     
G 7  20329955.565 7 106834640.52727       987.375          47.000    20329954.076 7  83247765.80517       769.383          44.250  
G 1  20385787.184 7 107128032.599 7      1964.514          47.750    20385789.021 7  83476397.053 7      1530.790          47.250  
G21  20535993.594 7 107917382.04417      -668.647          46.500                                                                  
R10  19956603.179 7 106379583.217 7      1864.344          42.750                                                                  
R20  19865957.915 5 106231815.85525     -2380.235          33.000                                                                  
C 3  36458648.327 6 189849749.694 6        26.729          39.250    36458646.949 5 146803863.014 5        20.853          34.250  
C 7  36697906.923 6 191095633.41326       369.685          40.250    36697902.987 5 147767259.38825       286.845          35.750  
C10  37270120.844 6 194075302.964 6       290.350          37.250    37270121.592 5 150071336.09025       224.074          33.000  
C 8  37800170.082 6 196835406.79626      1537.857          40.000    37800169.093 6 152205620.19626      1189.265          36.000  
C28  22170761.460 7 115448978.38827     -1568.568          46.000                                                                  
> 2021  5 18  3  8  9.0000000  0 10                     
G 7  20329768.064 8 106833652.96428       987.074          48.000    20329765.911 7  83246996.25227       769.149          44.500  
G 1  20385413.416 8 107126068.427 8      1964.469          48.250    20385415.248 8  83474866.533 8      1530.756          48.250  
G21  20536119.860 7 107918050.91027      -669.220          46.000    20536119.055 5  84091978.35815      -521.470          35.000  
R10  19956253.794 6 106377719.436 6      1863.286          42.000                                                                  
R20  19866405.018 5 106234197.40025     -2381.292          32.750                                                                  
C 7  36697835.744 6 191095262.89926       370.941          39.750    36697832.308 5 147766972.451 5       286.393          33.000  
C10  37270065.301 6 194075013.823 6       288.733          40.500    37270066.054 5 150071112.463 5       223.582          35.000  
C 8  37799875.015 6 196833868.66026      1538.571          39.500    37799874.147 5 152204430.748 5      1189.291          35.250  
C28  22171063.052 7 115450547.06527     -1568.329          47.250                                                                  
C27  22240853.796 6 115813963.80016      1199.235          39.500                                                                  
> 2021  5 18  3  8 10.0000000  0 10                     
G 7  20329578.457 6 106832666.53326       983.476          40.250    20329578.499 5  83246227.59025       766.345          35.000  
G 1  20385039.716 7 107124104.601 7      1961.911          47.250    20385041.568 7  83473336.282 7      1528.764          46.250  
G21  20536249.846 8 107918720.46528      -670.477          48.500    20536246.843 6  84092500.07226      -522.450          36.250  
R10  19955904.156 7 106375856.912 7      1860.203          43.250                                                                  
R20  19866852.313 5 106236580.35825     -2385.685          34.000                                                                  
C 3  36458637.008 6 189849689.25616        25.915          41.500                                                                  
C 7  36697765.056 6 191094892.752 6       367.148          40.000    36697761.826 5 147766686.558 5       285.214          33.250  
C10  37270009.875 6 194074725.412 6       286.751          39.250    37270010.739 5 150070889.500 5       221.551          35.250  
C 8  37799579.498 6 196832330.010 6      1537.770          40.750    37799578.668 6 152203240.987 6      1188.931          36.500  
C28  22171364.492 7 115452116.404 7     -1571.869          46.500                                                                  
> 2021  5 18  3  8 11.0000000  0 11                     
G 7  20329391.772 6 106831678.20226       990.353          41.000    20329390.431 6  83245457.46926       771.704          39.500  
G 1  20384665.487 7 107122137.950 7      1969.948          48.000    20384667.345 7  83471803.832 7      1535.026          47.250  
G21  20536375.399 7 107919387.96127      -664.431          46.250    20536372.209 6  84093020.22426      -517.739          36.250  
R10  19955554.266 7 106373992.798 7      1866.464          43.250                                                                  
R20  19867297.556 5 106238961.340 5     -2379.008          34.000    19867295.850 6  82630314.06316     -1850.340          40.500  
R21  26169317.461 6 140036916.36226      1988.013          39.250                                                                  
C 3  36458631.906 7 189849657.851 7        34.753          43.000    36458630.519 6 146803796.687 6        26.654          39.750  
C 7  36697693.570 6 191094520.801 6       375.146          41.500    36697690.081 6 147766398.993 6       289.717          36.750  
C10  37269954.130 6 194074435.094 6       293.520          38.250    37269954.959 5 150070664.971 5       226.997          33.750  
C 8  37799283.621 6 196830787.910 6      1545.778          40.500    37799281.883 6 152202048.573 6      1195.023          36.250  
C28  22171665.626 7 115453684.424 7     -1565.485          47.000                                                                  
> 2021  5 18  3  8 12.0000000  0 10                     
G 7  20329204.819 6 106830690.99826       987.578          40.750    20329202.341 6  83244688.22726       769.542          38.250  
G 1  20384291.137 7 107120170.767 7      1968.193          47.000    20384293.021 7  83470270.956 7      1533.656          47.000  
R10  19955205.239 7 106372130.537 7      1860.503          44.750                                                                  
R20  19867742.964 5 106241344.773 5     -2385.602          34.250    19867742.600 6  82632167.78826     -1855.468          39.750  
R21  26168944.943 5 140034931.50925      1986.523          32.750                                                                  
C 3  36458624.913 7 189849625.972 7        32.920          42.750    36458623.578 6 146803771.964 6        25.558          37.750  
C 7  36697622.640 6 191094150.316 6       369.824          38.750    36697619.847 6 147766112.484 6       285.520          36.750  
C10  37269898.706 6 194074146.410 6       287.204          37.500    37269899.550 5 150070441.821 5       221.610          32.750  
C 8  37798987.213 6 196829244.213 6      1545.782          40.750    37798985.778 6 152200854.865 6      1195.080          36.750  
C28  22171967.147 7 115455253.989 7     -1570.783          46.750                                                                  
> 2021  5 18  3  8 13.0000000  0 13                     
G 7  20329016.030 7 106829705.001 7       985.054          43.500    20329013.569 6  83243919.945 6       767.577          39.000  
G 1  20383916.319 7 107118201.164 7      1970.253          47.750    20383918.223 7  83468736.192 7      1535.260          47.500  
G21  20536633.748 5 107920737.56015      -668.519          33.500                                                                  
R10  19954856.379 7 106370270.957 7      1857.784          43.500                                                                  
R20  19868189.053 5 106243731.024 5     -2387.993          34.000    19868189.398 6  82634023.75426     -1857.328          41.750  
C13  38581316.975 5 200903044.36525      1555.330          30.250                                                                  
C 3  36458618.674 7 189849591.273 7        35.244          42.750    36458617.573 6 146803745.207 6        26.997          36.250  
C 7  36697551.509 6 191093781.718 6       367.445          39.750    36697548.445 5 147765827.473 5       283.733          35.000  
C 1  37402429.935 6 194764275.36226         5.845          39.250                                                                  
C10  37269843.780 6 194073860.562 6       284.652          37.250    37269844.713 5 150070220.70015       220.468          30.500  
C23  23104323.107 6 120310273.10516     -1657.226          38.750                                                                  
C 8  37798689.921 7 196827696.425 7      1549.023          42.500    37798688.563 6 152199658.007 6      1197.159          38.000  
C28  22172268.966 7 115456825.580 7     -1573.005          47.250                                                                  
> 2021  5 18  3  8 14.0000000  0 13                     
G 7  20328828.671 8 106828720.187 8       985.611          48.750    20328826.150 7  83243152.543 7       768.007          46.250  
G 1  20383541.400 7 107116231.001 7      1970.170          47.000    20383543.305 7  83467200.994 7      1535.195          46.500  
G30  22713869.977 5 119362192.13415      2867.947          30.250                                                                  
R10  19954507.891 7 106368412.969 7      1858.839          43.250                                                                  
R20  19868635.535 5 106246118.986 5     -2387.144          34.250    19868636.439 7  82635881.05727     -1856.668          42.000  
C13  38581018.609 5 200901496.25415      1556.526          31.750                                                                  
C 3  36458611.559 6 189849555.552 6        36.656          42.000    36458610.603 6 146803717.538 6        28.154          37.500  
C 7  36697481.072 6 191093414.161 6       369.125          37.750    36697477.823 5 147765543.252 5       284.917          31.000  
C 1  37402425.286 5 194764269.162 5         5.027          35.000    37402427.399 4 150604078.71624         6.226          29.750  
C10  37269789.170 5 194073576.026 5       286.356          35.750    37269790.131 5 150070000.70925       221.283          33.250  
C23  23104642.032 6 120311930.76026     -1657.441          38.250                                                                  
C 8  37798392.646 6 196826147.035 6      1549.990          42.000    37798391.218 6 152198459.923 6      1198.260          38.000  
C28  22172571.161 8 115458398.431 8     -1571.776          48.250                                                                  
> 2021  5 18  3  8 15.0000000  0 11                     
G 7  20328641.425 7 106827734.648 7       985.330          46.750    20328638.710 7  83242384.577 7       767.786          44.250  
G 1  20383166.918 7 107114263.063 7      1965.379          48.000    20383168.820 7  83465667.533 7      1531.462          46.500  
G21  20536886.740 5 107922072.65015      -667.438          35.500                                                                  
R10  19954159.004 6 106366553.102 6      1860.114          38.000                                                                  
R20  19869080.979 4 106248505.240 4     -2387.830          29.750    19869082.531 6  82637737.022 6     -1857.201          38.000  
C 3  36458605.177 7 189849521.155 7        32.655          42.500    36458604.519 6 146803690.971 6        24.701          37.750  
C 7  36697410.130 6 191093044.321 6       371.083          40.000    36697406.359 5 147765257.348 5       286.749          32.500  
C10  37269733.861 6 194073288.337 6       289.224          37.750    37269734.789 5 150069778.278 5       223.168          32.250  
C23  23104961.969 6 120313590.91126     -1662.232          37.750                                                                  
C 8  37798095.472 7 196824600.389 7      1542.955          42.500    37798094.040 6 152197263.943 6      1193.167          36.750  
C28  22172873.006 7 115459969.567 7     -1570.718          46.500                                                                  
> 2021  5 18  3  8 16.0000000  0  9                     
G 7  20328453.635 6 106826748.389 6       985.710          41.750    20328450.401 6  83241616.043 6       768.078          38.250  
G 1  20382793.231 7 107112299.379 7      1961.688          47.750    20382795.135 7  83464137.399 7      1528.589          47.750  
G21  20537013.918 6 107922748.95716      -670.410          36.250                                                                  
R10  19953810.166 5 106364690.770 5      1863.282          34.000                                                                  
C 3  36458599.324 7 189849489.800 7        29.729          44.000    36458598.276 6 146803666.682 6        23.368          39.000  
C10  37269677.859 6 194072996.597 6       292.487          39.500    37269678.731 5 150069552.625 5       226.866          35.000  
C23  23105283.184 5 120315253.380 5     -1666.895          35.000                                                                  
C 8  37797799.486 6 196823058.974 6      1538.507          39.500    37797798.521 6 152196072.066 6      1189.752          37.500  
C28  22173174.339 7 115461538.745 7     -1568.132          43.750                                                                  
> 2021  5 18  3  8 17.0000000  0  6                     
G 1  20382420.301 7 107110339.627 7      1957.940          47.750    20382422.203 7  83462610.323 7      1525.668          47.500  
R10  19953460.527 5 106362826.863 5      1864.516          35.500                                                                  
C 3  36458593.728 6 189849461.380 6        26.884          42.000    36458593.012 6 146803644.709 6        20.977          37.000  
C10  37269621.267 6 194072701.976 6       295.962          38.750    37269622.166 5 150069324.797 5       228.982          34.750  
C 8  37797504.356 6 196821522.047 6      1534.370          40.500    37797503.032 6 152194883.541 6      1186.643          36.500  
C28  22173475.337 6 115463106.856 6     -1566.585          40.500                                                                  
> 2021  5 18  3  8 18.0000000  0  6                     
G 1  20382047.742 7 107108381.785 7      1957.033          46.250    20382049.644 7  83461084.723 7      1524.959          46.500  
R10  19953109.848 7 106360959.628 7      1868.591          42.500                                                                  
C 3  36458588.505 6 189849434.388 6        26.930          40.000    36458587.882 5 146803623.842 5        21.015          35.500  
C10  37269563.923 6 194072403.535 6       300.269          38.000    37269564.872 5 150069094.142 5       231.476          33.500  
C 8  37797209.457 6 196819987.612 6      1533.314          40.500    37797208.208 6 152193697.112 6      1185.889          37.750  
C28  22173775.943 7 115464671.781 7     -1562.787          42.250                                                                  
> 2021  5 18  3  8 19.0000000  0 10                     
G 7  20327890.385 7 106823785.66817       986.735          46.000                                                                  
G 1  20381675.462 7 107106425.490 7      1955.026          47.750    20381677.377 7  83459560.336 7      1523.395          47.500  
R10  19952759.238 6 106359090.078 6      1869.344          42.000                                                                  
R20  19870861.118 5 106258047.98915     -2378.467          31.250    19870862.501 6  82645148.77316     -1849.918          38.750  
C 3  36458583.132 6 189849408.553 6        24.530          41.000    36458583.184 6 146803603.883 6        18.713          36.750  
C 7  36697121.086 7 191091544.39317       380.293          42.250    36697119.388 6 147764099.53816       294.590          37.750  
C10  37269506.105 6 194072102.369 6       301.266          36.500    37269506.894 4 150068861.143 4       233.287          28.750  
C23  23106250.508 6 120320309.63316     -1669.198          37.250                                                                  
C 8  37796915.129 6 196818455.043 6      1531.707          41.000    37796914.026 6 152192512.054 6      1184.127          37.750  
C28  22174075.989 7 115466234.669 7     -1563.062          46.500                                                                  
> 2021  5 18  3  8 20.0000000  0 10                     
G 7  20327703.308 7 106822799.337 7       984.621          44.500    20327701.116 6  83238540.12316       767.237          41.750  
G 1  20381303.175 7 107104469.124 7      1958.674          47.500    20381305.114 7  83458035.910 7      1526.244          46.750  
R10  19952408.778 6 106357222.192 6      1866.377          42.000                                                                  
R20  19871302.796 5 106260427.44025     -2380.823          32.250    19871308.064 6  82646999.45626     -1851.751          39.000  
C 3  36458578.324 7 189849382.188 7        27.780          42.750    36458578.352 6 146803583.471 6        22.427          38.250  
C 7  36697048.401 7 191091164.96627       378.571          43.500    36697045.008 6 147763806.19426       292.637          39.000  
C10  37269448.547 6 194071802.772 6       297.955          37.250    37269449.427 5 150068629.471 5       230.667          33.000  
C23  23106568.033 6 120321979.03226     -1667.621          37.250                                                                  
C 8  37796620.719 6 196816921.491 6      1537.075          40.750    37796619.687 6 152191326.188 6      1188.268          38.000  
C28  22174376.348 7 115467798.899 7     -1565.053          46.000                                                                  
> 2021  5 18  3  8 21.0000000  0 10                     
G 7  20327515.169 6 106821814.036 6       984.477          41.750    20327513.099 6  83237772.421 6       767.125          41.250  
G 1  20380929.744 7 107102506.795 7      1966.420          46.000    20380931.692 7  83456506.839 7      1532.281          46.250  
R10  19952058.866 7 106355357.877 7      1862.422          42.750                                                                  
R20  19871750.270 5 106262810.47925     -2385.209          32.500    19871754.244 6  82648852.94426     -1855.163          40.500  
C 3  36458572.241 7 189849349.713 7        36.347          42.500    36458571.866 6 146803558.380 6        28.158          38.000  
C 7  36696976.347 7 191090788.14127       375.853          43.000    36696972.372 6 147763514.81326       290.640          39.750  
C10  37269391.816 6 194071507.327 6       292.879          39.000    37269392.786 6 150068401.072 6       226.157          37.250  
C23  23106887.698 5 120323628.81815     -1656.807          35.750                                                                  
C 8  37796324.511 6 196815379.401 6      1547.802          40.000    37796323.388 6 152190133.714 6      1196.714          37.250  
C28  22174677.211 7 115469365.701 7     -1568.251          45.750                                                                  
> 2021  5 18  3  8 22.0000000  0 11                     
G 7  20327327.318 7 106820830.577 7       981.846          42.250    20327326.212 6  83237006.096 6       765.074          41.500  
G 8  21999299.828 5 115607119.66615     -2247.857          33.000                                                                  
G 1  20380555.140 7 107100538.334 7      1970.435          47.000    20380557.142 7  83454972.985 7      1535.412          46.750  
R10  19951710.259 7 106353499.438 7      1855.099          42.750                                                                  
R20  19872199.983 5 106265199.33225     -2392.506          33.750    19872200.591 6  82650710.94126     -1860.838          39.500  
C 3  36458564.902 7 189849310.911 7        41.009          43.250    36458563.884 5 146803528.406 5        31.619          36.000  
C 7  36696904.948 7 191090416.241 7       369.062          43.250    36696901.501 6 147763227.230 6       285.402          36.250  
C10  37269336.302 6 194071218.198 6       285.439          39.500    37269337.231 5 150068177.486 5       220.192          33.000  
C23  23107207.433 5 120325285.889 5     -1655.583          35.000                                                                  
C 8  37796026.489 6 196813827.995 6      1554.886          41.000    37796025.523 6 152188934.043 6      1202.472          38.750  
C28  22174978.790 7 115470937.093 7     -1574.214          44.750                                                                  
> 2021  5 18  3  8 23.0000000  0 13                     
G 7  20327140.348 6 106819846.925 6       988.637          41.750    20327138.104 6  83236239.598 6       770.366          41.500  
G 8  21999733.405 5 115609365.43625     -2240.622          33.250                                                                  
G 1  20380179.573 7 107098564.784 7      1978.539          46.750    20380181.606 7  83453435.173 7      1541.729          46.250  
G30  22708943.737 4 119336294.33414      2869.291          28.500                                                                  
G21  20537905.792 6 107927435.74926      -663.000          37.250                                                                  
R10  19951362.083 7 106351642.953 7      1861.405          42.750                                                                  
R20  19872645.510 5 106267589.679 5     -2385.790          32.750    19872647.127 6  82652570.486 6     -1855.614          39.000  
C 3  36458556.407 7 189849266.851 7        49.210          42.250    36458555.331 5 146803494.325 5        38.246          35.500  
C 7  36696833.142 7 191090045.483 7       375.885          42.250    36696829.214 5 147762940.560 5       290.541          35.000  
C10  37269281.208 6 194070931.376 6       292.064          39.750    37269282.076 5 150067955.678 5       225.793          31.750  
C23  23107523.254 5 120326938.484 5     -1647.975          32.750                                                                  
C 8  37795727.254 6 196812269.556 6      1563.757          40.750    37795726.327 6 152187728.950 6      1209.018          38.000  
C28  22175280.580 7 115472509.807 7     -1567.795          44.500                                                                  
> 2021  5 18  3  8 24.0000000  0 13                     
G 7  20326951.182 6 106818853.561 6       992.269          41.750    20326948.690 6  83235465.547 6       773.196          41.000  
G 8  22000156.254 5 115611600.83825     -2236.013          32.750                                                                  
G 1  20379802.159 7 107096581.456 7      1982.134          46.750    20379804.206 7  83451889.734 7      1544.530          46.500  
G30  22708395.672 4 119333420.43424      2872.123          29.000                                                                  
G21  20538031.455 6 107928094.02226      -659.576          36.750                                                                  
R10  19951011.825 7 106349776.401 7      1865.519          42.750                                                                  
R20  19873089.575 5 106269970.596 5     -2381.536          32.750    19873092.167 6  82654422.305 6     -1852.306          39.250  
C 3  36458546.008 7 189849212.478 7        53.484          42.250    36458544.642 5 146803452.268 5        41.655          35.500  
C 7  36696760.015 7 191089664.446 7       380.322          42.000    36696755.831 5 147762645.891 5       294.123          34.750  
C10  37269224.104 6 194070634.187 6       296.614          39.750    37269224.899 5 150067725.839 5       229.607          32.250  
C23  23107839.012 5 120328581.100 5     -1644.402          32.000                                                                  
C 8  37795425.954 6 196810700.896 6      1567.872          40.250    37795425.296 6 152186515.921 6      1212.554          38.000  
C28  22175580.472 7 115474072.564 7     -1563.774          44.250                                                                  
> 2021  5 18  3  8 25.0000000  0 13                     
G 7  20326763.486 6 106817865.618 6       985.811          41.750    20326761.233 6  83234695.723 6       768.164          41.000  
G 8  22000582.985 5 115613841.167 5     -2242.979          32.250                                                                  
G 1  20379425.777 7 107094603.546 7      1975.339          46.750    20379427.828 7  83450348.508 7      1539.233          47.000  
G30  22707847.825 5 119330565.55315      2866.207          30.250                                                                  
G21  20538157.793 6 107928757.192 6      -666.151          36.750    20538156.554 4  84100319.93014      -519.079          29.500  
R10  19950662.644 7 106347915.163 7      1858.720          42.750                                                                  
R20  19873535.894 5 106272357.129 5     -2389.255          32.750    19873538.414 6  82656278.497 6     -1858.309          39.000  
C 3  36458536.490 7 189849162.860 7        47.506          42.000    36458534.945 5 146803413.908 5        36.832          35.750  
C 7  36696687.558 6 191089288.111 6       374.324          42.000    36696684.323 5 147762354.886 5       289.686          34.750  
C10  37269167.898 6 194070341.707 6       290.616          39.750    37269168.716 5 150067499.710 5       224.532          32.250  
C23  23108154.705 5 120330228.795 5     -1649.458          31.000                                                                  
C 8  37795125.545 6 196809137.133 6      1561.355          39.750    37795124.970 6 152185306.726 6      1207.586          38.750  
C28  22175881.387 7 115475640.415 7     -1570.263          44.250                                                                  
> 2021  5 18  3  8 26.0000000  0 13                     
G 7  20326576.305 6 106816882.445 6       981.346          41.750    20326574.309 6  83233929.607 6       764.682          41.250  
G 8  22001009.317 5 115616085.628 5     -2245.979          33.000                                                                  
G 1  20379050.282 7 107092630.348 7      1971.369          46.750    20379052.354 7  83448810.952 7      1536.138          46.750  
G30  22707304.346 5 119327693.16615      2863.203          30.500                                                                  
G21  20538284.548 6 107929425.648 6      -670.693          37.250    20538276.528 4  84100840.811 4      -522.618          27.500  
R10  19950314.319 7 106346058.514 7      1855.030          42.500                                                                  
R20  19873985.818 5 106274748.313 5     -2393.282          32.500    19873985.576 6  82658138.306 6     -1861.442          39.000  
C 3  36458527.763 6 189849117.319 6        44.413          42.000    36458526.179 5 146803378.720 5        33.773          35.750  
C 7  36696615.600 7 191088915.776 7       370.739          42.000    36696613.146 5 147762067.003 5       286.520          34.250  
C10  37269112.487 6 194070053.228 6       286.922          39.250    37269113.240 5 150067276.610 5       222.056          32.250  
C23  23108471.451 5 120331881.029 5     -1653.981          33.000                                                                  
C 8  37794826.044 6 196807577.515 6      1558.079          40.250    37794825.619 6 152184100.734 6      1204.676          38.500  
C28  22176183.128 7 115477212.615 7     -1573.748          44.000                                                                  
> 2021  5 18  3  8 27.0000000  0 13                     
G 7  20326389.998 6 106815901.666 6       980.451          41.750    20326387.046 6  83233165.357 6       763.984          41.250  
G 8  22001439.083 5 115618332.018 5     -2246.878          32.500                                                                  
G 1  20378675.232 7 107090659.544 7      1970.579          46.500    20378677.335 7  83447275.260 7      1535.521          46.750  
G30  22706760.389 5 119324831.00725      2861.493          30.000                                                                  
G21  20538413.080 6 107930096.486 6      -671.092          37.000    20538409.676 5  84101363.537 5      -522.929          33.000  
R10  19949966.385 7 106344204.121 7      1854.155          42.000                                                                  
R20  19874433.306 5 106277142.004 5     -2394.167          32.000    19874433.355 6  82660000.062 6     -1862.131          39.000  
C 3  36458519.339 6 189849073.608 6        43.676          41.750    36458517.775 5 146803344.893 5        33.731          36.000  
C 7  36696544.797 6 191088545.180 6       370.504          42.000    36696540.740 5 147761780.394 5       286.705          34.750  
C10  37269057.384 6 194069766.441 6       286.950          39.250    37269058.165 5 150067054.875 5       221.747          32.500  
C23  23108789.464 5 120333535.450 5     -1654.815          33.500                                                                  
C 8  37794526.744 6 196806019.826 6      1557.443          40.750    37794526.497 6 152182896.238 6      1204.261          38.500  
C28  22176485.269 7 115478786.922 7     -1574.488          43.750                                                                  
> 2021  5 18  3  8 28.0000000  0 12                     
G 7  20326203.506 6 106814921.507 6       979.572          41.750    20326200.527 6  83232401.587 6       763.298          41.500  
G 8  22001864.710 5 115620578.348 5     -2246.723          32.000    22001858.348 4  90093931.25114     -1750.693          29.750  
G 1  20378300.291 7 107088689.338 7      1969.606          46.500    20378302.435 7  83445740.031 7      1534.760          46.500  
G30  22706214.485 5 119321969.11825      2861.192          30.500                                                                  
G21  20538540.520 6 107930768.014 6      -672.647          36.750    20538537.544 5  84101886.837 5      -524.140          32.750  
R10  19949618.500 7 106342350.119 7      1853.515          42.250                                                                  
R20  19874880.562 5 106279536.305 5     -2395.093          32.500    19874881.001 6  82661862.294 6     -1862.851          39.250  
C 3  36458511.007 6 189849029.859 6        43.259          41.750    36458509.282 6 146803311.098 6        33.231          36.250  
C 7  36696473.609 6 191088174.493 6       370.457          41.750    36696470.046 5 147761493.789 5       286.323          34.500  
C10  37269002.276 6 194069479.600 6       286.514          38.750    37269003.108 5 150066833.054 5       221.797          32.250  
C 8  37794227.526 6 196804462.205 6      1557.288          40.250    37794227.410 6 152181691.799 6      1204.141          38.750  
C28  22176787.564 7 115480361.515 7     -1575.085          43.750                                                                  
> 2021  5 18  3  8 29.0000000  0 13                     
G 7  20326017.459 6 106813944.525 6       974.852          42.000    20326014.465 6  83231640.300 6       759.621          41.750  
G 8  22002293.739 5 115622827.390 5     -2250.893          32.750    22002291.384 5  90095683.787 5     -1753.943          32.000  
G 1  20377925.982 7 107086722.303 7      1964.977          46.750    20377928.144 7  83444207.273 7      1531.152          46.500  
G30  22705670.608 5 119319110.12025      2856.414          30.500                                                                  
G21  20538668.683 6 107931442.698 6      -676.820          37.000    20538667.615 5  84102412.579 5      -527.392          31.750  
R10  19949271.246 7 106340499.155 7      1848.979          42.250                                                                  
R20  19875328.600 5 106281933.766 5     -2399.850          32.750    19875329.380 6  82663726.983 6     -1866.552          39.000  
R21  20166799.438 5 107916251.21815      1978.250          33.500                                                                  
C 3  36458503.050 6 189848988.649 6        39.270          41.750    36458501.364 6 146803279.182 6        30.486          37.250  
C 7  36696402.929 6 191087806.282 6       366.532          41.750    36696399.226 5 147761209.046 5       283.429          35.500  
C10  37268947.617 6 194069195.180 6       282.309          39.000    37268948.487 5 150066613.087 5       218.826          33.750  
C 8  37793928.884 6 196802907.256 6      1553.221          40.500    37793928.776 6 152180489.399 6      1200.882          39.750  
C28  22177090.402 7 115481938.950 7     -1579.438          43.750                                                                  
> 2021  5 18  3  8 30.0000000  0 14                     
G 7  20325832.162 6 106812970.096 6       974.995          41.750    20325829.096 6  83230881.007 6       759.735          41.250  
G 8  22002724.175 5 115625078.350 5     -2249.793          31.750    22002724.620 4  90097437.762 4     -1753.086          28.500  
G 1  20377552.132 7 107084757.772 7      1965.670          46.750    20377554.336 7  83442676.466 7      1531.691          46.750  
G30  22705127.704 5 119316253.31925      2857.921          31.500    22705133.565 4  92973746.11614      2226.951          26.000  
G21  20538798.072 6 107932119.959 6      -676.314          37.000    20538797.484 5  84102940.336 5      -526.990          33.000  
R10  19948924.357 7 106338650.578 7      1849.352          42.250                                                                  
R20  19875776.762 5 106284333.763 5     -2398.899          32.500    19875778.075 6  82665593.644 6     -1865.813          39.000  
R21  20166426.890 5 107914273.03125      1978.982          33.000                                                                  
C 3  36458495.521 6 189848949.327 6        40.445          41.750    36458493.664 6 146803248.793 6        31.233          36.750  
C 7  36696332.640 6 191087439.937 6       367.493          42.000    36696328.748 5 147760925.759 5       284.131          35.250  
C10  37268893.318 6 194068912.550 6       283.949          39.000    37268894.235 5 150066394.575 5       219.780          33.750  
C23  23109747.220 5 120338506.30115     -1658.621          34.000                                                                  
C 8  37793630.585 6 196801354.309 6      1553.965          40.500    37793630.708 6 152179288.549 6      1201.572          40.000  
C28  22177393.645 7 115483518.571 7     -1578.536          43.750                                                                  
> 2021  5 18  3  8 31.0000000  0 15                     
G 7  20325646.386 6 106811994.601 6       974.767          42.000    20325643.951 6  83230120.891 6       759.560          41.750  
G 8  22003151.255 5 115627327.668 5     -2249.545          31.750    22003147.171 5  90099190.498 5     -1752.892          31.500  
G 1  20377178.083 7 107082792.205 7      1965.490          46.750    20377180.318 7  83441144.854 7      1531.551          46.500  
G30  22704582.871 5 119313394.727 5      2857.309          31.000    22704594.996 4  92971518.577 4      2226.474          27.750  
G21  20538926.559 6 107932796.132 6      -676.430          37.250    20538927.520 5  84103467.246 5      -527.077          31.750  
R10  19948577.263 7 106336800.718 7      1849.640          42.000                                                                  
R20  19876225.761 5 106286732.715 5     -2398.746          31.750    19876226.726 6  82667459.492 6     -1865.694          39.250  
R21  20166060.180 5 107912293.81325      1978.782          33.000                                                                  
C 3  36458487.535 6 189848908.365 6        41.109          41.500    36458485.764 6 146803217.114 6        31.651          37.000  
C 7  36696262.014 7 191087071.866 7       367.866          42.250    36696258.034 5 147760641.150 5       284.437          35.000  
C 1  37402407.522 5 194764144.89025        11.620          34.000                                                                  
C10  37268838.696 6 194068628.234 6       284.187          38.750    37268839.627 5 150066174.731 5       219.682          33.750  
C23  23110064.450 5 120340165.02025     -1658.764          34.000                                                                  
C 8  37793332.106 6 196799799.799 6      1554.392          40.500    37793332.139 6 152178086.512 6      1201.984          39.750  
C28  22177696.666 7 115485096.852 7     -1578.537          44.000                                                                  
> 2021  5 18  3  8 32.0000000  0 14                     
G 7  20325460.871 6 106811020.331 6       972.632          41.500    20325458.742 6  83229361.727 6       757.897          41.500  
G 8  22003579.256 5 115629577.686 5     -2251.601          30.750    22003575.467 4  90100943.707 4     -1754.494          29.250  
G 1  20376804.288 7 107080827.847 7      1962.792          46.750    20376806.530 7  83439614.185 7      1529.448          47.000  
G30  22704039.072 5 119310537.568 5      2856.234          31.250    22704051.350 4  92969292.217 4      2225.637          27.750  
G21  20539055.332 6 107933473.595 6      -678.484          37.250    20539055.233 4  84103995.138 4      -528.682          29.250  
R10  19948230.430 6 106334951.951 6      1847.168          41.750                                                                  
R20  19876674.170 5 106289132.889 5     -2402.125          31.750    19876675.584 6  82669326.291 6     -1868.322          39.000  
R21  20165690.094 5 107910315.94725      1976.527          32.000                                                                  
C 3  36458479.758 7 189848868.026 7        39.069          42.000    36458478.000 6 146803185.931 6        30.219          36.750  
C 7  36696191.493 6 191086704.306 6       366.480          42.000    36696187.493 5 147760356.942 5       283.095          35.000  
C10  37268784.190 6 194068344.421 6       282.659          39.000    37268785.142 5 150065955.245 5       218.584          32.750  
C23  23110382.382 5 120341824.68525     -1660.780          34.000                                                                  
C 8  37793033.725 6 196798246.044 6      1552.431          40.500    37793033.803 6 152176885.039 6      1200.513          39.750  
C28  22177999.782 7 115486676.037 7     -1580.517          43.750                                                                  
> 2021  5 18  3  8 33.0000000  0 14                     
G 7  20325275.835 6 106810048.357 6       971.641          41.750    20325273.825 6  83228604.339 6       757.121          41.250  
G 8  22004008.456 5 115631829.488 5     -2252.651          31.500    22004000.148 5  90102698.387 5     -1755.314          30.750  
G 1  20376430.902 7 107078865.739 7      1961.988          46.750    20376433.157 7  83438085.269 7      1528.821          46.750  
G30  22703494.516 5 119307682.446 5      2855.543          31.500    22703508.929 5  92967067.428 5      2225.099          30.500  
G21  20539184.584 6 107934153.382 6      -680.293          37.250    20539185.195 5  84104524.847 5      -530.093          31.500  
R10  19947883.929 7 106333105.277 7      1846.346          42.250                                                                  
R20  19877121.949 5 106291535.387 5     -2403.093          32.000    19877124.770 6  82671194.898 6     -1869.075          39.000  
R21  20165321.031 5 107908340.014 5      1975.216          31.750                                                                  
C 3  36458472.252 6 189848829.310 6        38.708          41.750    36458470.430 6 146803155.966 6        30.085          36.500  
C 7  36696121.186 7 191086338.351 7       365.986          42.000    36696117.182 5 147760073.938 5       283.053          35.000  
C10  37268729.954 6 194068062.162 6       282.347          39.250    37268730.966 5 150065737.000 5       218.067          33.250  
C23  23110700.963 5 120343486.444 5     -1661.538          34.250                                                                  
C 8  37792735.652 6 196796694.018 6      1552.103          40.500    37792735.800 6 152175684.923 6      1200.169          39.750  
C28  22178303.357 7 115488257.168 7     -1581.302          43.750                                                                  
> 2021  5 18  3  8 34.0000000  0 15                     
G 7  20325091.192 6 106809077.853 6       970.345          41.500    20325089.247 6  83227848.096 6       756.112          41.250  
G 8  22004437.748 5 115634082.128 5     -2253.523          31.250    22004428.498 5  90104453.701 5     -1755.990          31.000  
G 1  20376057.788 7 107076905.085 7      1960.502          46.750    20376060.076 7  83436557.486 7      1527.664          46.750  
G30  22702951.607 5 119304828.507 5      2853.631          30.500    22702961.839 4  92964843.688 4      2223.608          28.750  
G21  20539314.488 6 107934834.620 6      -681.740          37.250    20539314.171 5  84105055.694 5      -531.219          32.500  
R10  19947537.756 7 106331259.885 7      1845.278          42.250                                                                  
R20  19877571.539 5 106293939.268 5     -2403.706          31.500    19877574.313 6  82673064.581 6     -1869.551          39.250  
R21  20164953.390 5 107906366.210 5      1972.839          31.500                                                                  
C 3  36458464.983 6 189848791.460 6        37.686          42.000    36458463.006 6 146803126.716 6        29.062          37.000  
C 7  36696051.167 6 191085973.183 6       365.314          42.000    36696047.077 5 147759791.568 5       282.383          35.500  
C 1  37402402.316 5 194764126.97315         7.387          34.000                                                                  
C10  37268675.886 6 194067780.671 6       281.470          39.250    37268676.875 5 150065519.336 5       217.399          33.750  
C23  23111019.265 5 120345149.394 5     -1663.068          34.000                                                                  
C 8  37792437.754 6 196795142.985 6      1551.180          40.250    37792438.010 6 152174485.561 6      1199.221          40.000  
C28  22178607.198 7 115489839.455 7     -1582.433          43.750                                                                  
> 2021  5 18  3  8 35.0000000  0 15                     
G 7  20324906.846 6 106808108.549 6       968.783          41.750    20324905.019 6  83227092.801 6       754.897          41.000  
G 8  22004867.387 5 115636335.334 5     -2253.262          30.750    22004855.278 4  90106209.377 4     -1755.808          28.000  
G 1  20375684.913 7 107074945.642 7      1958.832          47.000    20375687.226 7  83435030.649 7      1526.362          47.250  
G30  22702408.740 5 119301975.426 5      2853.104          30.250    22702419.751 5  92962620.480 5      2223.189          30.000  
G21  20539444.508 6 107935517.014 6      -682.225          37.500    20539446.430 5  84105587.420 5      -531.601          34.000  
R10  19947191.770 7 106329415.514 7      1843.738          42.000                                                                  
R20  19878021.494 5 106296344.341 5     -2405.880          31.750    19878024.072 6  82674935.194 6     -1871.241          39.000  
R21  20164582.485 5 107904393.653 5      1971.630          32.250                                                                  
C 3  36458457.778 6 189848754.153 6        37.049          41.750    36458455.792 6 146803097.868 6        28.613          37.000  
C 7  36695981.191 7 191085608.498 7       364.502          42.250    36695977.159 5 147759509.591 5       281.623          35.250  
C 1  37402400.943 5 194764119.36125         7.563          33.250                                                                  
C10  37268621.909 6 194067499.666 6       280.904          38.750    37268622.856 5 150065302.009 5       217.301          33.250  
C23  23111340.001 5 120346813.287 5     -1663.455          34.000                                                                  
C 8  37792140.045 6 196793592.597 6      1550.363          40.500    37792140.309 6 152173286.713 6      1198.732          40.000  
C28  22178911.159 7 115491422.588 7     -1583.381          43.750                                                                  
> 2021  5 18  3  8 36.0000000  0 15                     
G 7  20324722.538 7 106807139.691 7       968.723          42.000    20324720.803 6  83226337.844 6       754.849          41.250  
G 8  22005296.375 5 115638588.458 5     -2252.883          30.250    22005285.626 5  90107965.011 5     -1755.512          31.000  
G 1  20375312.116 7 107072986.593 7      1959.150          47.000    20375314.434 7  83433504.112 7      1526.609          47.250  
G30  22701866.265 5 119299122.564 5      2852.994          31.000    22701876.319 5  92960397.419 5      2223.096          30.500  
G21  20539574.361 6 107936199.931 6      -682.893          37.500    20539576.100 5  84106119.538 5      -532.126          31.750  
R10  19946845.786 7 106327571.334 7      1844.133          42.250                                                                  
R20  19878471.332 5 106298749.850 5     -2404.798          31.750    19878473.902 6  82676806.150 6     -1870.399          39.000  
R21  20164212.354 5 107902421.661 5      1972.115          32.500                                                                  
C 3  36458450.627 6 189848716.656 6        37.887          41.750    36458448.564 6 146803068.890 6        29.168          36.750  
C 7  36695911.217 7 191085243.566 7       365.370          42.000    36695906.848 5 147759227.365 5       282.875          35.000  
C 1  37402399.828 5 194764111.037 5         8.369          33.750                                                                  
C10  37268567.849 6 194067218.414 6       281.186          38.750    37268568.795 5 150065084.549 5       217.376          33.000  
C23  23111658.986 5 120348477.449 5     -1664.203          33.750                                                                  
C 8  37791842.307 6 196792042.179 6      1550.686          40.500    37791842.615 6 152172087.807 6      1199.199          39.500  
C28  22179215.095 7 115493005.856 7     -1583.281          44.000                                                                  
> 2021  5 18  3  8 37.0000000  0 14                     
G 7  20324538.181 7 106806170.984 7       968.412          42.000    20324536.489 6  83225583.007 6       754.607          41.750  
G 8  22005726.080 5 115640841.241 5     -2252.610          31.000    22005714.484 5  90109720.434 5     -1755.292          30.750  
G 1  20374939.334 7 107071027.694 7      1958.964          47.000    20374941.661 7  83431977.693 7      1526.463          46.750  
G30  22701323.943 5 119296269.562 5      2853.128          30.750    22701333.785 4  92958174.272 4      2223.196          29.250  
G21  20539704.214 6 107936882.990 6      -683.050          37.750    20539705.666 4  84106651.779 4      -532.253          29.250  
R10  19946499.927 7 106325727.144 7      1844.191          42.000                                                                  
R20  19878920.984 5 106301155.547 5     -2405.667          31.750    19878923.651 6  82678677.245 6     -1871.075          38.750  
R21  20163842.428 5 107900449.920 5      1972.227          32.750                                                                  
C 3  36458443.329 6 189848678.724 6        38.345          41.500    36458441.146 6 146803039.551 6        29.488          37.250  
C 7  36695841.107 7 191084878.132 7       365.755          42.000    36695836.434 5 147758944.814 5       282.834          35.500  
C10  37268513.728 6 194066936.592 6       282.071          38.500    37268514.630 5 150064866.646 5       218.031          33.250  
C23  23111978.449 5 120350141.469 5     -1663.968          33.750                                                                  
C 8  37791544.474 6 196790491.406 6      1550.978          40.250    37791544.716 6 152170888.671 6      1199.162          39.500  
C28  22179519.108 7 115494588.958 7     -1583.012          43.750                                                                  
> 2021  5 18  3  8 38.0000000  0 14                     
G 7  20324353.854 7 106805202.193 7       968.730          42.000    20324352.127 7  83224828.103 7       754.855          42.500  
G 8  22006155.449 5 115643093.323 5     -2251.715          30.250    22006143.149 4  90111475.329 4     -1754.587          29.000  
G 1  20374566.551 7 107069068.722 7      1958.898          47.250    20374568.902 7  83430451.217 7      1526.412          47.250  
G30  22700780.593 5 119293416.184 5      2853.269          31.500    22700790.842 5  92955950.835 5      2223.309          33.250  
G21  20539833.913 6 107937565.985 6      -682.903          37.500    20539836.030 5  84107183.977 5      -532.137          32.500  
R10  19946153.880 7 106323882.658 7      1844.351          42.000                                                                  
R20  19879370.875 5 106303561.050 5     -2405.738          31.750    19879373.376 6  82680548.191 6     -1871.130          39.000  
R21  20163475.033 5 107898478.202 5      1971.315          32.750                                                                  
C 3  36458435.910 6 189848640.116 6        38.782          41.750    36458433.628 6 146803009.711 6        29.659          37.000  
C 7  36695770.703 7 191084511.937 7       366.296          42.250    36695766.337 5 147758661.641 5       283.263          35.250  
C10  37268459.420 6 194066654.012 6       282.842          38.750    37268460.310 5 150064648.106 5       218.678          33.500  
C23  23112298.164 5 120351805.202 5     -1663.600          34.250                                                                  
C 8  37791246.612 6 196788940.030 6      1551.547          40.500    37791246.817 6 152169689.039 6      1199.793          39.750  
C28  22179823.007 7 115496171.675 7     -1582.577          44.000                                                                  
> 2021  5 18  3  8 39.0000000  0 14                     
G 7  20324169.623 7 106804233.945 7       967.794          42.500    20324168.050 6  83224073.631 6       754.126          41.750  
G 8  22006584.527 5 115645345.421 5     -2252.614          30.750    22006573.291 3  90113230.209 3     -1755.284          18.250  
G 1  20374193.870 7 107067110.252 7      1958.247          47.250    20374196.229 7  83428925.134 7      1525.905          47.000  
G30  22700237.639 5 119290563.000 5      2853.483          31.250    22700246.299 5  92953727.584 5      2223.488          31.250  
G21  20539963.842 6 107938249.519 6      -683.552          38.000    20539965.647 4  84107716.591 4      -532.650          27.750  
R10  19945807.840 6 106322038.506 6      1843.865          42.000                                                                  
R20  19879820.494 5 106305967.104 5     -2406.535          31.750    19879823.242 6  82682419.563 6     -1871.751          39.000  
R21  20163106.811 5 107896507.045 5      1970.950          32.000                                                                  
C 3  36458428.427 6 189848601.409 6        38.792          41.750    36458426.203 6 146802979.767 6        29.879          37.000  
C 7  36695700.328 7 191084145.545 7       366.524          42.000    36695695.980 5 147758378.335 5       283.184          35.000  
C10  37268405.090 6 194066371.238 6       283.003          39.000    37268406.035 5 150064429.462 5       218.851          33.750  
C23  23112618.149 5 120353469.239 5     -1664.225          34.500                                                                  
C 8  37790948.698 6 196787388.696 6      1551.103          40.500    37790948.951 6 152168489.448 6      1199.349          40.000  
C28  22180126.962 7 115497754.607 7     -1583.084          44.000                                                                  
> 2021  5 18  3  8 40.0000000  0 14                     
G 7  20323986.374 7 106803270.624 7       961.829          42.000    20323984.939 6  83223322.994 6       749.478          41.500  
G 8  22007014.367 5 115647601.849 5     -2258.562          31.000    22007001.260 4  90114988.465 4     -1759.923          27.250  
G 1  20373822.117 7 107065156.674 7      1952.203          47.250    20373824.493 7  83427402.861 7      1521.195          47.250  
G30  22699695.825 5 119287714.519 5      2847.813          30.500    22699703.228 4  92951508.040 4      2219.073          29.500  
G21  20540095.089 6 107938937.995 6      -689.520          37.500    20540095.597 5  84108253.025 5      -537.302          30.750  
R10  19945462.744 6 106320199.157 6      1837.880          42.000                                                                  
R20  19880271.327 5 106308378.105 5     -2412.545          31.500    19880274.062 6  82684294.789 6     -1876.424          39.000  
R21  20162739.723 5 107894541.019 5      1965.005          32.750                                                                  
C 3  36458421.831 6 189848566.958 6        33.386          41.250    36458419.457 6 146802953.115 6        25.812          36.750  
C 7  36695630.805 7 191083783.397 7       361.104          42.250    36695626.562 5 147758098.310 5       278.781          35.250  
C10  37268351.550 6 194066092.678 6       277.469          38.750    37268352.528 5 150064214.041 5       214.506          33.000  
C23  23112938.420 5 120355137.900 5     -1669.949          34.000                                                                  
C 8  37790651.693 6 196785841.703 6      1545.950          40.250    37790651.812 6 152167293.233 6      1195.247          39.750  
C28  22180431.794 7 115499342.097 7     -1588.785          44.000                                                                  
> 2021  5 18  3  8 41.0000000  0 14                     
G 7  20323803.626 6 106802310.431 6       956.031          42.000    20323802.169 6  83222574.792 6       744.961          41.750  
G 8  22007445.060 5 115649860.806 5     -2262.505          30.250    22007430.916 4  90116748.741 4     -1762.979          29.500  
G 1  20373450.949 7 107063206.215 7      1946.232          47.500    20373453.346 7  83425883.021 7      1516.542          47.250  
G30  22699154.548 5 119284868.870 5      2841.480          31.250    22699163.352 5  92949290.645 5      2214.138          31.000  
G21  20540226.675 6 107939629.621 6      -695.439          37.750    20540226.572 5  84108791.953 5      -541.909          33.750  
R10  19945118.299 7 106318362.774 7      1832.123          42.000                                                                  
R20  19880723.446 5 106310792.236 5     -2417.695          31.500    19880725.524 6  82686172.448 6     -1880.430          39.000  
R21  20162373.537 5 107892578.309 5      1958.345          33.000                                                                  
C 3  36458415.686 6 189848534.984 6        28.212          41.750    36458413.348 6 146802928.389 6        21.704          37.000  
C 7  36695561.743 7 191083423.645 7       355.979          42.000    36695557.461 5 147757820.094 5       275.386          35.250  
C10  37268298.492 6 194065816.515 6       272.186          38.750    37268299.488 5 150064000.484 5       210.776          33.500  
C23  23113259.614 5 120356809.492 5     -1676.150          34.500                                                                  
C 8  37790355.149 6 196784297.329 6      1540.252          40.250    37790355.243 6 152166098.990 6      1191.281          39.750  
C28  22180737.156 7 115500932.362 7     -1594.260          44.250                                                                  
> 2021  5 18  3  8 42.0000000  0 15                     
G 7  20323621.860 6 106801355.183 6       955.134          41.750    20323620.507 6  83221830.443 6       744.262          41.750  
G 8  22007876.298 5 115652124.198 5     -2262.999          30.750    22007861.716 3  90118512.430 3     -1763.364          21.000  
G 1  20373080.739 7 107061260.717 7      1945.251          47.750    20373083.139 7  83424367.046 7      1515.777          47.750  
G30  22698614.155 5 119282027.836 5      2841.148          30.750    22698624.192 5  92947076.843 5      2213.880          30.000  
G21  20540359.264 6 107940326.228 6      -696.867          37.500    20540359.154 4  84109334.780 4      -543.013          28.250  
R10  19944774.722 7 106316531.257 7      1831.296          42.250                                                                  
R20  19881175.629 5 106313211.446 5     -2419.262          31.750    19881177.897 6  82688054.052 6     -1881.649          39.000  
R21  20162007.832 5 107890620.685 5      1957.378          32.250                                                                  
C 3  36458410.404 6 189848507.332 6        27.784          41.500    36458408.026 6 146802907.010 6        21.509          36.750  
C 7  36695493.482 7 191083068.128 7       355.677          42.250    36695489.355 5 147757545.205 5       274.957          35.000  
C 1  37402395.832 5 194764079.71315        -1.408          34.250                                                                  
C10  37268246.264 6 194065544.547 6       272.158          38.500    37268247.304 5 150063790.206 5       210.203          33.000  
C23  23113581.760 5 120358485.668 5     -1676.294          35.000                                                                  
C 8  37790059.429 6 196782757.363 6      1540.160          40.500    37790059.533 6 152164908.209 6      1190.901          39.500  
C28  22181043.414 7 115502527.237 7     -1594.914          44.250                                                                  
> 2021  5 18  3  8 43.0000000  0 15                     
G 7  20323440.183 7 106800399.738 7       956.351          42.000    20323438.758 6  83221085.941 6       745.209          41.750  
G 8  22008306.893 5 115654386.784 5     -2260.786          30.500    22008293.355 5  90120275.497 5     -1761.644          30.500  
G 1  20372710.472 7 107059314.948 7      1947.114          47.750    20372712.890 7  83422850.859 7      1517.229          47.750  
G30  22698073.476 4 119279186.389 4      2843.536          30.000    22698082.943 4  92944862.691 4      2215.732          28.750  
G21  20540491.657 6 107941022.593 6      -694.887          37.250    20540492.039 5  84109877.437 5      -541.469          31.250  
R10  19944431.043 7 106314699.305 7      1833.541          42.000                                                                  
R20  19881627.747 5 106315630.405 5     -2417.644          32.000    19881630.361 6  82689935.461 6     -1880.391          38.750  
R21  20161642.874 5 107888662.958 5      1958.995          31.500                                                                  
C 3  36458404.927 6 189848478.835 6        30.039          41.750    36458402.522 6 146802884.962 6        23.283          37.000  
C 7  36695424.980 7 191082711.715 7       357.996          42.000    36695420.904 5 147757269.557 5       277.048          34.750  
C 1  37402392.954 5 194764080.871 5         0.736          33.500                                                                  
C10  37268193.832 6 194065271.642 6       274.607          39.000    37268194.826 5 150063579.164 5       212.309          33.250  
C23  23113903.601 5 120360161.460 5     -1674.488          34.750                                                                  
C 8  37789763.583 6 196781216.666 6      1542.299          40.000    37789763.691 6 152163716.853 6      1192.247          39.750  
C28  22181349.622 7 115504121.563 7     -1592.826          44.250                                                                  
> 2021  5 18  3  8 44.0000000  0 14                     
G 7  20323258.152 6 106799442.829 6       956.203          42.000    20323256.721 6  83220340.296 6       745.094          41.750  
G 8  22008737.178 5 115656647.376 5     -2260.791          31.500    22008722.636 5  90122036.971 5     -1761.656          31.250  
G 1  20372339.919 7 107057367.711 7      1946.957          47.750    20372342.361 7  83421333.528 7      1517.106          47.750  
G30  22697532.609 5 119276343.129 5      2843.058          31.000    22697542.343 3  92942647.173 3      2215.366          23.750  
G21  20540623.812 6 107941717.508 6      -694.886          36.750    20540623.402 4  84110418.941 4      -541.463          29.750  
R10  19944087.030 6 106312865.685 6      1833.388          42.000                                                                  
R20  19882080.111 5 106318047.831 5     -2417.486          31.750    19882082.404 6  82691815.681 6     -1880.268          39.000  
R21  20161276.455 5 107886703.813 5      1959.066          31.250                                                                  
C 3  36458399.065 6 189848448.259 6        30.566          41.500    36458396.658 6 146802861.334 6        23.636          37.250  
C 7  36695356.159 7 191082353.168 7       358.614          42.250    36695352.046 5 147756992.323 5       277.506          35.250  
C10  37268141.018 6 194064996.589 6       275.356          38.750    37268141.967 5 150063366.487 5       212.964          33.250  
C23  23114225.226 5 120361835.560 5     -1673.850          35.500                                                                  
C 8  37789467.365 6 196779674.019 6      1542.422          40.500    37789467.478 6 152162523.964 6      1192.870          39.750  
C28  22181655.485 7 115505714.128 7     -1592.708          44.250                                                                  
> 2021  5 18  3  8 45.0000000  0 14                     
G 7  20323076.217 6 106798486.409 6       956.050          41.750    20323074.629 6  83219595.029 6       744.973          41.500  
G 8  22009167.611 5 115658907.927 5     -2261.353          30.000    22009152.637 4  90123798.371 4     -1762.113          29.250  
G 1  20371969.464 7 107055420.970 7      1946.545          47.750    20371971.914 7  83419816.585 7      1516.786          47.750  
G30  22696991.540 5 119273500.135 5      2842.398          32.250    22697001.363 4  92940431.885 4      2214.861          29.250  
G21  20540756.212 6 107942412.947 6      -695.614          37.250    20540755.954 5  84110960.867 5      -542.027          30.500  
R10  19943743.067 6 106311032.377 6      1833.097          41.750                                                                  
R20  19882532.298 5 106320465.719 5     -2418.082          31.750    19882534.631 6  82693696.261 6     -1880.731          39.250  
R21  20160910.417 5 107884745.334 5      1958.455          31.500                                                                  
C 3  36458393.148 6 189848417.605 6        30.789          41.000    36458390.766 6 146802837.625 6        23.681          37.000  
C 7  36695287.303 6 191081994.458 6       358.677          41.750    36695283.206 5 147756714.965 5       277.318          35.000  
C10  37268088.143 6 194064721.374 6       275.369          38.750    37268089.168 5 150063153.669 5       213.000          33.250  
C23  23114546.768 5 120363509.937 5     -1674.121          35.750                                                                  
C 8  37789171.097 6 196778131.351 6      1543.011          40.250    37789171.256 6 152161331.100 6      1192.892          39.500  
C28  22181961.360 7 115507306.892 7     -1592.808          44.250                                                                  
> 2021  5 18  3  8 46.0000000  0 14                     
G 7  20322894.276 6 106797530.319 6       955.935          41.750    20322892.655 6  83218850.022 6       744.883          40.750  
G 8  22009598.158 5 115661168.200 5     -2259.905          30.750    22009582.844 4  90125559.607 4     -1760.975          27.250  
G 1  20371599.067 7 107053474.538 7      1946.397          47.750    20371601.537 7  83418299.883 7      1516.671          47.500  
G30  22696450.574 5 119270657.155 5      2842.293          31.750    22696462.031 5  92938216.601 5      2214.784          30.500  
G21  20540888.680 6 107943108.740 6      -695.516          36.500    20540889.352 5  84111503.041 5      -541.953          32.250  
R10  19943399.123 6 106309199.174 6      1833.565          41.750                                                                  
R20  19882984.505 5 106322883.913 5     -2417.838          31.750    19882986.841 6  82695577.078 6     -1880.541          39.000  
R21  20160544.895 5 107882787.223 5      1958.141          31.500                                                                  
C 3  36458387.233 6 189848386.638 6        31.215          41.500    36458384.812 6 146802813.666 6        24.182          37.250  
C 7  36695218.390 6 191081635.380 6       359.517          42.000    36695214.218 5 147756437.329 5       277.571          35.000  
C10  37268035.222 6 194064445.781 6       275.822          38.500    37268036.200 5 150062940.579 5       213.110          33.750  
C23  23114868.366 5 120365184.409 5     -1674.362          35.750                                                                  
C 8  37788874.821 6 196776588.539 6      1543.077          40.000    37788875.018 6 152160138.081 6      1193.161          39.500  
C28  22182267.243 7 115508899.659 7     -1592.618          44.500                                                                  
> 2021  5 18  3  8 47.0000000  0 14                     
G 7  20322712.244 6 106796573.911 6       956.439          42.000    20322710.507 6  83218104.769 6       745.277          41.500  
G 8  22010028.122 5 115663427.582 5     -2259.008          31.250    22010013.714 4  90127320.171 4     -1760.272          25.500  
G 1  20371228.607 7 107051527.768 7      1946.921          47.750    20371231.100 7  83416782.919 7      1517.079          47.750  
G30  22695909.723 5 119267813.574 5      2843.747          32.000    22695921.292 4  92936000.858 4      2215.917          29.500  
G21  20541021.231 6 107943804.219 6      -695.570          36.250    20541021.634 4  84112044.977 4      -541.999          25.750  
R10  19943055.090 6 106307365.474 6      1833.880          41.750                                                                  
R20  19883436.378 5 106325301.726 5     -2417.467          31.500    19883439.039 6  82697457.598 6     -1880.253          39.000  
R21  20160178.939 5 107880828.875 5      1958.721          31.750                                                                  
C 3  36458381.110 6 189848354.733 6        32.327          41.250    36458378.676 6 146802788.997 6        25.003          37.000  
C 7  36695149.311 7 191081275.321 7       360.598          42.250    36695144.938 5 147756158.854 5       278.978          34.750  
C10  37267982.096 6 194064169.186 6       276.850          38.500    37267983.074 5 150062726.699 5       213.980          33.250  
C23  23115189.859 5 120366858.323 5     -1674.012          35.750                                                                  
C 8  37788578.362 6 196775044.887 6      1543.976          40.250    37788578.601 6 152158944.437 6      1193.706          39.500  
C28  22182572.971 7 115510491.806 7     -1591.823          44.250                                                                  
> 2021  5 18  3  8 48.0000000  0 14                     
G 7  20322529.993 6 106795616.806 6       957.602          41.750    20322528.474 6  83217358.974 6       746.183          41.000  
G 8  22010457.999 5 115665685.682 5     -2257.404          32.250    22010443.360 3  90129079.752 3     -1759.022          21.250  
G 1  20370858.003 7 107049580.258 7      1947.838          47.750    20370860.526 7  83415265.376 7      1517.794          47.500  
G30  22695368.564 5 119264968.971 5      2845.010          33.250    22695378.914 5  92933784.224 5      2216.885          32.250  
G21  20541153.437 6 107944498.973 6      -694.409          36.000    20541153.366 5  84112586.301 5      -541.106          32.500  
R10  19942710.867 7 106305530.780 7      1835.465          42.000                                                                  
R20  19883888.052 5 106327718.798 5     -2416.722          31.500    19883891.069 6  82699337.546 6     -1879.673          39.000  
R21  20159813.632 5 107878869.867 5      1960.185          32.000                                                                  
C 3  36458374.717 6 189848321.505 6        34.086          41.500    36458372.269 6 146802763.314 6        26.429          37.000  
C 7  36695079.888 6 191080913.851 6       362.284          42.000    36695075.661 5 147755879.379 5       279.995          35.250  
C10  37267928.695 6 194063891.143 6       278.759          38.250    37267929.667 5 150062511.676 5       215.867          33.750  
C23  23115511.234 5 120368531.336 5     -1672.575          35.750                                                                  
C 8  37788281.673 6 196773500.009 6      1545.784          40.250    37788281.925 6 152157749.848 6      1195.172          39.500  
C28  22182878.487 7 115512082.898 7     -1590.413          44.500                                                                  
> 2021  5 18  3  8 49.0000000  0 14                     
G 7  20322347.662 6 106794658.976 6       957.953          41.750    20322346.146 6  83216612.608 6       746.456          41.750  
G 8  22010887.557 5 115667942.531 5     -2256.225          31.750    22010873.403 4  90130838.334 4     -1758.101          28.500  
G 1  20370487.271 7 107047632.029 7      1948.222          47.750    20370489.823 7  83413747.276 7      1518.093          47.500  
G30  22694827.289 5 119262123.361 5      2845.685          32.500    22694837.953 5  92931566.856 5      2217.413          31.250  
G21  20541285.452 5 107945193.023 5      -693.647          35.750    20541285.891 5  84113127.107 5      -540.505          34.750  
R10  19942366.550 7 106303695.194 7      1835.614          42.000                                                                  
R20  19884339.958 5 106330135.095 5     -2416.673          31.750    19884342.964 6  82701216.889 6     -1879.634          39.250  
R21  20159447.727 5 107876910.277 5      1959.170          32.000    20159453.576 4  83904270.38814      1523.799          28.250  
C 3  36458368.107 6 189848286.960 6        35.253          41.500    36458365.564 6 146802736.610 6        26.986          37.250  
C 7  36695010.212 7 191080550.989 7       363.317          42.000    36695005.984 5 147755598.786 5       280.744          35.000  
C10  37267874.994 6 194063611.722 6       279.748          38.250    37267876.011 5 150062295.597 5       216.533          33.000  
C23  23115832.474 6 120370203.359 6     -1672.002          36.250                                                                  
C 8  37787984.790 6 196771953.960 6      1546.256          40.250    37787985.104 6 152156554.347 6      1195.535          39.250  
C28  22183183.854 7 115513672.981 7     -1589.793          44.250                                                                  
> 2021  5 18  3  8 50.0000000  0 14                     
G 7  20322165.383 6 106793701.051 6       958.168          41.750    20322163.812 6  83215866.169 6       746.622          41.000  
G 8  22011317.044 5 115670198.696 5     -2255.863          31.000    22011303.732 5  90132596.373 5     -1757.821          31.500  
G 1  20370116.512 7 107045683.679 7      1948.695          47.500    20370119.093 7  83412229.079 7      1518.462          47.500  
G30  22694286.074 5 119259277.383 5      2846.625          32.500    22694296.843 4  92929349.213 4      2218.152          28.500  
G21  20541417.530 5 107945887.047 5      -693.734          35.750    20541417.398 3  84113667.945 3      -540.569          23.500  
R10  19942022.138 6 106301859.293 6      1836.234          41.750                                                                  
R20  19884792.041 5 106332551.266 5     -2416.061          32.000    19884794.889 6  82703096.134 6     -1879.158          39.250  
R21  20159081.910 5 107874950.692 5      1959.743          31.250    20159092.518 4  83902746.19424      1524.244          29.000  
C 3  36458361.364 6 189848251.715 6        35.986          41.750    36458358.757 6 146802709.343 6        27.797          36.750  
C 7  36694940.386 7 191080187.372 7       364.113          42.000    36694936.147 5 147755317.585 5       281.544          35.000  
C10  37267821.194 6 194063331.477 6       281.112          38.500    37267822.170 5 150062078.925 5       217.061          34.000  
C23  23116153.609 6 120371875.031 6     -1671.325          36.500                                                                  
C 8  37787687.731 6 196770407.303 6      1547.016          40.250    37787688.032 6 152155358.354 6      1196.322          39.250  
C28  22183489.113 7 115515262.660 7     -1589.321          44.250                                                                  
> 2021  5 18  3  8 51.0000000  0 14                     
G 7  20321982.971 6 106792742.582 6       959.227          41.750    20321981.401 7  83215119.307 7       747.447          42.000  
G 8  22011746.280 5 115672453.762 5     -2254.013          31.500    22011733.497 2  90134353.569 2     -1756.383          14.500  
G 1  20369745.650 7 107043734.804 7      1949.420          47.500    20369748.262 7  83410710.473 7      1519.027          47.750  
G30  22693744.550 5 119256430.498 5      2848.555          32.500    22693754.254 5  92927130.866 5      2219.652          31.250  
G21  20541549.388 5 107946580.500 5      -692.695          34.750    20541549.664 5  84114208.351 5      -539.742          33.250  
R10  19941677.619 6 106300022.674 6      1837.078          42.000                                                                  
R20  19885244.026 5 106334966.835 5     -2414.979          31.750    19885246.662 6  82704974.908 6     -1878.318          39.250  
R21  20158716.026 5 107872990.610 5      1960.792          31.250    20158730.102 4  83901221.66924      1525.060          28.750  
C 3  36458354.377 6 189848215.355 6        37.038          41.500    36458351.696 6 146802681.207 6        28.915          36.750  
C 7  36694870.306 7 191079822.525 7       365.788          42.250    36694866.025 5 147755035.477 5       282.791          34.500  
C10  37267767.129 6 194063050.053 6       282.289          38.250    37267768.097 5 150061861.310 5       218.156          33.500  
C23  23116474.567 6 120373546.013 6     -1670.418          36.250                                                                  
C 8  37787390.527 6 196768859.613 6      1548.563          40.250    37787390.823 6 152154161.577 6      1197.361          39.250  
C28  22183794.225 7 115516851.492 7     -1588.155          44.250                                                                  
> 2021  5 18  3  8 52.0000000  0 15                     
G 7  20321800.500 6 106791783.835 6       959.083          41.500    20321798.909 6  83214372.229 6       747.335          40.750  
G 8  22012175.333 5 115674707.978 5     -2253.398          31.250    22012161.940 4  90136110.147 4     -1755.888          27.000  
G 1  20369374.721 7 107041785.598 7      1949.154          47.750    20369377.372 7  83409191.606 7      1518.819          47.500  
G30  22693203.002 5 119253583.239 5      2847.561          33.500    22693212.802 4  92924912.190 4      2218.869          29.250  
G21  20541681.336 5 107947273.655 5      -692.921          34.250    20541681.024 4  84114748.525 4      -539.917          28.750  
R10  19941332.921 6 106298185.485 6      1837.277          41.750                                                                  
R20  19885695.511 5 106337382.143 5     -2415.792          32.250    19885698.409 6  82706853.483 6     -1878.948          38.750  
R21  20158350.160 5 107871030.260 5      1960.466          31.250    20158364.648 4  83899696.95824      1524.807          28.750  
C 3  36458347.227 6 189848178.038 6        37.614          41.250    36458344.514 6 146802652.352 6        29.190          36.500  
C 7  36694800.071 7 191079456.700 7       366.213          42.000    36694795.718 5 147754752.589 5       283.482          35.250  
C 1  37402388.848 5 194764038.67915         7.866          33.500                                                                  
C10  37267712.884 6 194062767.607 6       282.591          38.750    37267713.874 5 150061642.866 5       218.754          32.250  
C23  23116795.537 6 120375216.440 6     -1670.613          36.250                                                                  
C 8  37787093.142 6 196767311.090 6      1548.888          40.250    37787093.460 6 152152964.174 6      1197.562          39.000  
C28  22184099.225 7 115518439.690 7     -1588.245          44.750                                                                  
> 2021  5 18  3  8 53.0000000  0 15                     
G 7  20321617.890 6 106790824.552 6       960.674          41.250    20321616.293 6  83213624.730 6       748.575          41.000  
G 8  22012604.108 5 115676961.112 5     -2251.460          31.250    22012590.206 4  90137865.801 4     -1754.391          29.750  
G 1  20369003.709 7 107039835.948 7      1950.189          47.750    20369006.389 7  83407672.398 7      1519.626          47.750  
G30  22692661.208 5 119250734.950 5      2850.210          33.250    22692670.485 4  92922692.786 4      2220.949          29.000  
G21  20541813.142 5 107947966.350 5      -691.354          34.000    20541812.479 3  84115288.267 3      -538.707          23.500  
R10  19940988.136 6 106296347.547 6      1839.373          41.750                                                                  
R20  19886147.107 5 106339796.759 5     -2413.353          32.000    19886149.940 6  82708731.522 6     -1877.051          38.750  
R21  20157983.925 5 107869069.634 5      1960.751          30.500    20157999.760 4  83898171.531 4      1525.028          29.250  
C 3  36458339.852 6 189848139.684 6        39.474          41.250    36458337.179 6 146802622.733 6        30.152          37.000  
C 7  36694729.561 6 191079089.638 6       368.593          41.750    36694725.241 5 147754468.752 5       285.321          35.000  
C 1  37402385.271 5 194764029.565 5         9.154          33.500                                                                  
C10  37267658.390 6 194062483.875 6       285.181          38.250    37267659.367 5 150061423.486 5       220.829          33.500  
C23  23117116.341 6 120376886.237 6     -1669.200          36.500                                                                  
C 8  37786795.598 6 196765761.700 6      1550.008          40.500    37786795.903 6 152151766.089 6      1198.488          39.000  
C28  22184404.035 7 115520027.023 7     -1585.956          44.500                                                                  
> 2021  5 18  3  8 54.0000000  0 12                     
G 7  20321435.114 7 106789863.817 7       961.404          42.750    20321433.458 6  83212876.106 6       749.143          42.000  
G 1  20368632.843 7 107037886.978 7      1946.423          47.000    20368635.524 7  83406153.718 7      1516.691          46.750  
G30  22692118.712 5 119247883.188 5      2856.392          36.000    22692126.962 5  92920470.657 5      2225.765          32.750  
G21  20541945.027 6 107948658.292 6      -692.713          37.250    20541944.092 4  84115827.420 4      -539.772          26.750  
R10  19940642.847 7 106294506.927 7      1842.256          42.750                                                                  
R20  19886598.280 5 106342208.909 5     -2410.444          32.000    19886601.083 6  82710607.637 6     -1874.789          38.750  
R21  20157617.796 5 107867097.22715      1956.960          30.000    20157632.336 4  83896695.84414      1522.080          24.500  
C 3  36458332.482 6 189848101.290 6        36.544          42.000    36458329.833 5 146802593.032 5        28.110          35.750  
C 7  36694658.498 6 191078719.566 6       371.635          41.750    36694654.072 5 147754182.542 5       288.054          36.000  
C10  37267603.242 6 194062196.678 6       289.284          38.000    37267604.166 5 150061201.383 5       224.147          34.750  
C 8  37786498.254 6 196764213.152 6      1545.383          40.000    37786498.487 6 152150568.671 6      1194.781          38.250  
C28  22184708.420 7 115521611.821 7     -1583.008          45.500                                                                  
> 2021  5 18  3  8 55.0000000  0 10                     
G 7  20321252.522 7 106788904.411 7       959.086          42.750    20321250.950 7  83212128.515 7       747.339          42.500  
G 1  20368263.284 7 107035944.877 7      1939.682          46.750    20368265.931 7  83404640.388 7      1511.438          47.250  
G30  22691575.562 6 119245027.699 6      2857.770          39.500    22691582.821 6  92918245.612 6      2226.843          37.000  
R10  19940297.194 6 106292664.384 6      1844.359          41.500                                                                  
R20  19887048.810 5 106344619.245 5     -2408.330          31.500    19887051.966 6  82712482.323 6     -1873.150          39.500  
C 3  36458326.293 7 189848068.896 7        30.639          42.500    36458323.697 6 146802567.933 6        23.860          39.000  
C 7  36694587.022 6 191078347.405 6       373.275          41.500    36694582.768 6 147753894.865 6       288.768          38.000  
C10  37267547.427 6 194061906.042 6       292.935          37.750    37267548.328 5 150060976.705 5       226.249          34.250  
C 8  37786202.469 6 196762672.940 6      1537.456          39.750    37786202.742 6 152149377.712 6      1188.131          37.500  
C28  22185012.567 7 115523195.272 7     -1581.792          45.750                                                                  
> 2021  5 18  3  8 56.0000000  0 10                     
G 7  20321070.106 7 106787945.829 7       957.119          45.500    20321068.437 7  83211381.585 7       745.810          44.000  
G 1  20367894.699 7 107034007.935 7      1934.082          46.250    20367897.329 7  83403131.082 7      1507.074          46.000  
G30  22691031.752 6 119242169.368 6      2858.834          40.000    22691037.857 6  92916018.352 6      2227.671          39.000  
R10  19939951.266 6 106290820.487 6      1843.853          41.750                                                                  
R20  19887499.240 5 106347028.524 5     -2409.618          32.000    19887502.604 6  82714356.199 6     -1874.153          39.750  
C 3  36458320.907 6 189848040.781 6        26.171          41.500    36458318.338 6 146802546.218 6        19.562          38.500  
C 7  36694515.195 6 191077973.507 6       373.675          41.250    36694510.974 6 147753605.662 6       289.147          36.500  
C10  37267491.102 6 194061612.817 6       294.028          38.750    37267492.032 5 150060749.981 5       226.989          34.250  
C 8  37785907.870 6 196761138.770 6      1531.185          39.750    37785908.080 6 152148191.385 6      1183.631          37.500  
C28  22185316.516 7 115524777.620 7     -1582.399          45.750                                                                  
> 2021  5 18  3  8 57.0000000  0 11                     
G 7  20320887.641 7 106786986.894 7       959.919          46.250    20320885.918 7  83210634.375 7       747.994          45.250  
G 1  20367526.748 7 107032074.359 7      1932.126          47.500    20367529.367 7  83401624.388 7      1505.548          47.250  
G30  22690487.086 5 119239313.64015      2864.545          34.750    22690492.676 5  92913773.56315      2232.125          32.750  
G21  20542342.166 7 107950740.83117      -698.409          44.750    20542338.361 5  84117446.27115      -544.215          34.000  
R10  19939604.876 6 106288973.957 6      1848.664          41.500                                                                  
R20  19887949.046 5 106349435.321 5     -2404.951          31.000    19887952.783 6  82716228.138 6     -1870.524          39.250  
C 3  36458316.029 7 189848015.178 7        25.026          43.500    36458313.435 6 146802526.409 6        18.808          40.500  
C 7  36694442.832 6 191077596.765 6       378.637          41.750    36694438.722 6 147753314.334 6       292.970          38.750  
C10  37267434.102 6 194061315.969 6       299.359          37.750    37267435.067 5 150060520.394 5       231.777          34.500  
C 8  37785614.097 6 196759608.822 6      1528.654          39.000    37785614.249 6 152147008.302 6      1181.999          37.750  
C28  22185620.018 7 115526357.753 7     -1578.409          46.000                                                                  
> 2021  5 18  3  8 58.0000000  0 10                     
G 7  20320705.295 7 106786028.751 7       958.324          44.000    20320703.501 7  83209887.779 7       746.751          43.750  
G 1  20367159.507 7 107030144.474 7      1928.679          46.500    20367162.121 7  83400120.586 7      1502.865          46.000  
G21  20542474.986 7 107951441.03027      -700.880          44.250    20542472.669 5  84117991.82625      -546.141          35.000  
R10  19939258.311 6 106287126.599 6      1848.489          40.750                                                                  
R20  19888399.047 5 106351841.397 5     -2405.229          30.500    19888402.787 6  82718099.531 6     -1870.738          38.000  
C 3  36458311.690 7 189847992.476 7        22.075          42.500    36458309.105 6 146802508.868 6        16.575          39.500  
C 7  36694370.278 7 191077218.851 7       379.042          42.750    36694366.235 6 147753022.116 6       293.004          39.000  
C10  37267376.714 6 194061017.089 6       300.880          37.500    37267377.700 5 150060289.322 5       232.550          33.750  
C 8  37785321.056 6 196758082.937 6      1524.428          41.500    37785321.179 6 152145828.396 6      1178.701          38.750  
C28  22185923.389 7 115527937.210 7     -1578.432          45.250                                                                  
> 2021  5 18  3  8 59.0000000  0 12                     
G 7  20320522.824 7 106785069.963 7       959.055          47.000    20320520.925 7  83209140.668 7       747.318          44.500  
G 1  20366792.571 7 107028216.192 7      1927.788          47.250    20366795.166 7  83398618.026 7      1502.170          46.750  
G21  20542608.501 6 107952141.83326      -699.968          39.500    20542609.530 4  84118537.88024      -545.430          29.000  
R10  19938911.451 6 106285277.893 6      1849.938          40.000                                                                  
R20  19888848.484 5 106354246.293 5     -2403.707          30.250    19888852.561 6  82719970.010 6     -1869.552          39.500  
C 3  36458307.470 7 189847970.453 7        22.062          42.500    36458304.869 6 146802491.807 6        17.368          38.500  
C 7  36694297.383 7 191076839.156 7       381.124          43.250    36694293.451 6 147752728.531 6       294.361          39.250  
C10  37267318.880 6 194060715.831 6       302.807          38.750    37267319.775 5 150060056.280 5       234.609          35.250  
C 2  37107619.489 6 193229112.69716         2.465          38.750                                                                  
C 8  37785028.421 6 196756558.887 6      1523.626          41.000    37785028.509 6 152144649.943 6      1178.081          38.500  
C28  22186226.510 7 115529515.401 7     -1577.066          45.250                                                                  
C27  22229397.302 7 115754304.50317      1177.670          45.000                                                                  
> 2021  5 18  3  9  0.0000000  0 13                     
G 7  20320340.343 7 106784110.753 7       959.493          47.000    20320338.353 7  83208393.229 7       747.658          45.750  
G 1  20366425.830 7 107026288.964 7      1926.526          47.250    20366428.399 7  83397116.284 7      1501.186          46.750  
G21  20542741.834 7 107952842.16827      -699.543          42.500    20542739.205 4  84119083.60224      -545.099          30.000  
R10  19938564.214 6 106283427.094 6      1852.399          40.250                                                                  
R20  19889298.033 5 106356649.321 5     -2402.763          30.500    19889302.036 6  82721839.037 6     -1868.817          39.750  
R21  20155428.451 7 107855383.65027      1940.450          44.000    20155428.589 6  83887522.88916      1509.239          37.000  
C 3  36458303.380 6 189847949.085 6        20.971          42.000    36458300.818 6 146802475.276 6        16.372          37.750  
C 7  36694223.987 7 191076457.016 7       383.696          42.750    36694220.162 6 147752433.002 6       296.730          38.750  
C10  37267260.538 6 194060412.074 6       304.434          38.500    37267261.453 5 150059821.384 5       236.012          34.000  
C 2  37107619.787 6 193229112.09726         0.984          38.500    37107617.649 6 149417007.480 6         0.114          38.250  
C 8  37784736.010 6 196755036.023 6      1522.003          39.750    37784736.009 6 152143472.380 6      1176.361          38.250  
C28  22186529.250 7 115531091.572 7     -1574.517          45.500                                                                  
C27  22229171.283 7 115753127.28127      1176.172          45.500                                                                  
> 2021  5 18  3  9  1.0000000  0 13                     
G 7  20320157.770 7 106783151.486 7       958.029          46.500    20320155.782 7  83207645.741 7       746.516          45.500  
G 1  20366059.406 7 107024363.423 7      1923.389          47.250    20366061.953 7  83395615.858 7      1498.741          46.750  
G21  20542874.278 6 107953541.829 6      -701.055          37.750    20542873.259 4  84119628.685 4      -546.276          26.750  
R10  19938216.547 6 106281574.017 6      1852.883          41.250                                                                  
R20  19889747.070 5 106359050.085 5     -2401.763          30.750    19889751.011 6  82723706.301 6     -1868.038          39.750  
R21  20155065.928 7 107853443.50727      1938.412          43.000    20155066.075 5  83886013.88625      1507.654          35.750  
C 3  36458299.529 7 189847929.056 7        18.488          42.250    36458296.963 6 146802459.805 6        14.380          37.250  
C 7  36694150.041 7 191076072.105 7       384.822          42.750    36694146.274 6 147752135.363 6       297.931          38.500  
C 9  37319199.430 6 194330862.63426     -1581.127          39.750    37319200.475 6 150268956.21026     -1222.837          39.750  
C10  37267201.719 6 194060105.689 6       306.488          40.000    37267202.635 5 150059584.558 5       237.010          35.500  
C 8  37784443.951 6 196753515.069 6      1518.846          40.250    37784443.899 6 152142296.263 6      1174.550          37.250  
C28  22186831.565 7 115532665.601 7     -1574.407          46.000                                                                  
C27  22228948.399 6 115751958.05416      1177.815          37.000                                                                  
> 2021  5 18  3  9  2.0000000  0 11                     
G 7  20319975.449 7 106782193.376 7       957.998          46.500    20319973.428 7  83206899.165 7       746.493          46.000  
G 1  20365693.558 7 107022440.897 7      1922.876          46.500    20365696.091 7  83394117.789 7      1498.344          46.500  
G21  20543007.685 6 107954243.810 6      -703.037          36.750    20543011.703 4  84120175.716 4      -547.831          27.750  
R10  19937868.964 6 106279720.996 6      1852.832          37.750                                                                  
R20  19890196.124 4 106361451.087 4     -2400.855          27.750    19890200.041 6  82725573.741 6     -1867.333          36.750  
C 3  36458296.106 7 189847911.353 7        18.042          42.250    36458293.652 6 146802446.118 6        13.975          39.000  
C 7  36694076.027 7 191075686.812 7       386.355          42.000    36694072.247 6 147751837.408 6       299.407          38.250  
C10  37267142.715 6 194059798.416 6       308.802          39.500    37267143.686 5 150059347.015 5       237.768          34.500  
C23  23120029.391 5 120392059.96215     -1696.153          34.000                                                                  
C 8  37784152.496 6 196751997.340 6      1518.364          40.750    37784152.378 6 152141122.635 6      1173.601          38.000  
C28  22187133.883 7 115534239.653 7     -1573.128          46.500                                                                  
> 2021  5 18  3  9  3.0000000  0  8                     
G 7  20319792.844 7 106781233.670 7       960.408          47.250    20319790.778 7  83206151.341 7       748.371          45.500  
G 1  20365327.710 7 107020518.335 7      1922.353          47.250    20365330.214 7  83392619.693 7      1497.937          46.750  
G30  22687211.030 7 119222094.12127      2876.621          42.000    22687210.917 6  92900338.13216      2241.523          38.500  
C 3  36458292.561 7 189847892.764 7        19.128          42.250    36458290.172 6 146802431.804 6        14.127          37.750  
C 7  36694001.507 6 191075299.087 6       388.868          36.250    36693997.908 5 147751537.565 5       301.440          31.250  
C10  37267083.163 6 194059488.239 6       311.598          38.250    37267084.102 5 150059107.108 5       241.402          35.250  
C 8  37783860.977 6 196750479.507 6      1517.345          40.250    37783860.902 5 152139949.005 5      1172.974          35.750  
C28  22187435.860 7 115535811.731 7     -1571.328          43.750                                                                  
> 2021  5 18  3  9  4.0000000  0  7                     
G 7  20319610.504 7 106780275.581 7       957.813          46.750    20319608.468 7  83205404.789 7       746.350          45.250  
G 1  20364962.448 7 107018598.877 7      1918.760          47.000    20364964.940 7  83391124.011 7      1495.137          47.000  
G30  22686664.622 6 119219219.40926      2875.521          40.500    22686665.148 6  92898098.23826      2240.665          38.000  
C 3  36458289.428 7 189847876.443 7        15.754          42.750    36458287.067 6 146802419.107 6        12.467          38.000  
C10  37267023.573 6 194059178.074 6       310.252          39.000    37267024.507 5 150058867.167 5       240.313          35.250  
C 8  37783570.086 6 196748964.771 6      1514.526          40.500    37783569.945 6 152138777.691 6      1170.976          36.750  
C27  22228267.241 7 115748431.25117      1173.224          43.750                                                                  
> 2021  5 18  3  9  5.0000000  0  9                     
G 7  20319428.017 7 106779316.546 7       958.835          46.250    20319425.979 7  83204657.488 7       747.146          45.750  
G 1  20364597.175 7 107016679.326 7      1919.206          47.000    20364599.650 7  83389628.258 7      1495.485          47.000  
G30  22686116.339 6 119216342.74726      2877.607          41.000    22686117.693 6  92895856.71726      2242.291          39.000  
G21  20543409.327 7 107956340.75817      -703.147          46.000    20543407.107 5  84121813.14115      -547.907          34.750  
C 3  36458286.175 7 189847859.355 7        17.344          42.500    36458283.766 6 146802405.907 6        13.383          36.750  
C10  37266963.600 6 194058865.550 6       313.969          38.250    37266964.515 5 150058625.543 5       241.890          34.750  
C 2  37107622.035 6 193229128.38016        -2.157          38.750    37107618.825 6 149417007.19216        -1.137          36.500  
C 8  37783279.149 6 196747449.766 6      1514.819          40.250    37783278.996 6 152137606.182 6      1171.421          36.250  
C27  22228042.698 7 115747256.73127      1174.887          45.000                                                                  
> 2021  5 18  3  9  6.0000000  0 12                     
G 7  20319245.785 7 106778358.772 7       956.583          47.000    20319243.700 7  83203911.161 7       745.388          45.250  
G 1  20364232.156 7 107014761.180 7      1916.361          47.250    20364234.624 7  83388133.594 7      1493.267          47.250  
G30  22685568.626 6 119213466.92126      2874.999          41.500    22685571.434 6  92893615.79726      2240.259          38.250  
G21  20543543.250 7 107957045.14827      -706.303          45.750    20543540.639 5  84122364.19615      -550.366          34.250  
R 9  20474045.764 6 109329875.25216     -1353.107          41.250                                                                  
R21  20153255.784 7 107843757.15917      1932.816          44.250    20153257.785 6  83878489.74916      1503.302          39.500  
C 3  36458283.071 7 189847843.067 7        15.066          42.500    36458280.700 6 146802393.314 6        11.571          37.750  
C 9  37320719.200 6 194338782.66426     -1584.870          39.750    37320721.946 6 150275083.02626     -1225.726          38.750  
C10  37266903.681 6 194058553.576 6       311.023          40.000    37266904.605 5 150058384.307 5       240.912          32.500  
C 2  37107621.904 6 193229130.693 6        -4.432          38.750    37107620.212 6 149417008.898 6        -2.902          37.750  
C 8  37782988.387 6 196745935.692 6      1512.874          40.750    37782988.186 6 152136435.383 6      1169.825          36.250  
C27  22227817.412 7 115746083.32427      1172.214          45.250                                                                  
> 2021  5 18  3  9  7.0000000  0 14                     
G 7  20319063.865 7 106777402.950 7       956.612          46.250    20319061.723 7  83203166.352 7       745.408          43.250  
G 1  20363867.450 7 107012844.615 7      1916.397          47.000    20363869.904 7  83386640.172 7      1493.297          47.000  
G30  22685022.212 6 119210592.591 6      2873.633          40.750    22685024.617 6  92891375.942 6      2239.194          38.000  
G21  20543677.723 6 107957751.307 6      -710.112          40.250    20543677.932 4  84122914.376 4      -553.334          28.250  
R 9  20474299.095 6 109331228.41126     -1353.472          38.000                                                                  
R21  20152894.755 7 107841824.53927      1932.578          44.500    20152895.513 6  83876986.66226      1503.116          37.750  
C 3  36458280.138 7 189847827.736 7        15.265          42.000    36458277.809 6 146802381.463 6        11.899          37.250  
C 1  37402401.520 6 194764119.911 6       -15.714          41.000    37402403.990 6 150603978.760 6       -11.821          36.500  
C 9  37321022.753 6 194340367.73126     -1584.489          39.750    37321027.580 6 150276308.67526     -1225.777          38.500  
C10  37266844.053 6 194058243.125 6       310.373          38.500    37266844.948 5 150058144.255 5       240.485          33.000  
C23  23121652.944 7 120400517.70827     -1700.485          44.500                                                                  
C 2  37107622.289 6 193229134.443 6        -3.613          39.750    37107621.942 6 149417011.870 6        -3.017          36.500  
C 8  37782697.793 6 196744422.608 6      1513.204          40.500    37782697.539 6 152135265.369 6      1170.020          36.500  
C27  22227592.634 7 115744911.34727      1171.799          45.250                                                                  
> 2021  5 18  3  9  8.0000000  0 17                     
G 7  20318882.031 7 106776447.258 7       956.069          47.000    20318879.882 7  83202421.646 7       744.984          46.250  
G 1  20363502.748 7 107010928.093 7      1916.952          47.500    20363505.181 7  83385146.782 7      1493.730          47.000  
G30  22684475.760 6 119207718.610 6      2874.363          40.500    22684477.605 6  92889136.484 6      2239.764          38.000  
R10  19935782.410 7 106268565.50927      1852.680          42.000                                                                  
R21  20152534.293 7 107839891.81427      1932.820          44.750    20152533.397 6  83875483.44626      1503.304          39.000  
C13  38564954.343 6 200817829.65026      1518.473          37.250    38564958.901 5 155285095.71815      1174.131          33.000  
C16  38848056.920 6 202292022.71116     -1697.748          40.000                                                                  
C 3  36458277.105 7 189847811.757 7        16.158          42.250    36458274.701 6 146802369.076 6        12.429          38.250  
C 1  37402405.222 5 194764135.791 5       -18.514          34.750    37402407.858 5 150603991.071 5       -14.187          30.250  
C 9  37321327.960 6 194341951.97326     -1583.545          40.250    37321329.533 6 150277533.61126     -1224.351          38.500  
C10  37266784.334 6 194057932.138 6       311.186          38.750    37266785.185 5 150057903.811 5       240.932          35.500  
C23  23121980.078 6 120402217.90726     -1700.994          38.750                                                                  
C 2  37107622.676 6 193229137.273 6        -1.939          38.000    37107620.365 6 149417014.045 6        -1.784          38.500  
C 6  38375831.009 6 199833022.52316     -1612.439          37.000    38375831.933 5 154523573.33915     -1247.520          35.500  
C 8  37782407.136 6 196742908.979 6      1514.291          40.750    37782406.824 6 152134094.955 6      1170.562          37.500  
C28  22188948.035 7 115543672.01117     -1574.012          46.250                                                                  
C27  22227367.612 7 115743739.04027      1171.907          46.000                                                                  
> 2021  5 18  3  9  9.0000000  0 17                     
G 7  20318700.040 7 106775490.731 7       956.318          46.750    20318697.883 7  83201676.302 7       745.180          44.750  
G 8  22019380.915 7 115712624.54417     -2226.065          43.750    22019382.880 7  90165693.27817     -1734.596          43.000  
G 1  20363137.925 7 107009010.893 7      1917.667          47.000    20363140.345 7  83383652.860 7      1494.286          46.500  
G30  22683928.352 6 119204843.230 6      2875.615          40.500    22683930.299 6  92886895.923 6      2240.739          36.250  
R10  19935433.858 6 106266712.33626      1853.356          42.000                                                                  
R21  20152172.305 7 107837958.131 7      1934.010          44.750    20152172.661 6  83873979.470 6      1504.230          39.000  
C13  38564662.580 6 200816309.971 6      1519.442          38.250    38564669.463 5 155283920.464 5      1174.817          33.000  
C16  38848382.652 6 202293719.722 6     -1696.613          39.000    38848387.640 5 156426344.10625     -1312.066          33.750  
C 3  36458273.768 7 189847794.298 7        18.005          42.750    36458271.329 6 146802355.606 6        14.099          37.750  
C 7  36693554.434 7 191072968.20427       388.796          42.500    36693551.551 6 147749731.97916       300.551          38.000  
C 9  37321632.213 6 194343534.59226     -1581.849          40.750    37321633.661 6 150278757.416 6     -1223.414          38.750  
C10  37266724.312 6 194057619.604 6       313.093          38.500    37266725.172 5 150057662.177 5       241.860          34.750  
C 2  37107622.597 6 193229138.597 6        -1.135          39.250    37107621.545 6 149417014.991 6        -0.854          39.000  
C 6  38376140.730 6 199834633.780 6     -1610.379          37.250    38376140.453 5 154524819.137 5     -1245.919          32.750  
C 8  37782116.222 6 196741394.198 6      1515.245          40.750    37782115.898 6 152132923.634 6      1172.014          37.500  
C28  22189250.004 7 115545244.887 7     -1572.922          46.250                                                                  
C27  22227142.166 7 115742565.37027      1174.079          45.500                                                                  
> 2021  5 18  3  9 10.0000000  0 18                     
G 7  20318518.182 7 106774535.078 7       955.125          46.500    20318516.009 7  83200931.641 7       744.252          44.750  
G 8  22019804.476 7 115714851.56827     -2227.519          44.250    22019806.163 7  90167428.55427     -1735.729          43.250  
G 1  20362773.166 7 107007094.090 7      1917.005          47.250    20362775.578 7  83382159.246 7      1493.772          47.000  
G30  22683381.130 6 119201969.050 6      2873.305          40.250    22683382.953 6  92884656.313 6      2238.941          36.750  
R10  19935087.259 6 106264860.24626      1851.594          42.000                                                                  
R20  19893789.377 5 106380670.30025     -2404.071          32.250                                                                  
R21  20151810.958 7 107836025.152 7      1932.670          44.250    20151811.383 6  83872476.038 6      1503.188          39.250  
C13  38564370.111 6 200814790.280 6      1519.935          38.000    38564378.884 5 155282745.282 5      1175.759          34.250  
C16  38848708.523 6 202295416.273 6     -1696.677          39.000    38848713.619 5 156427655.885 5     -1310.619          33.000  
C 3  36458270.384 7 189847776.625 7        18.667          42.500    36458267.990 6 146802342.033 6        13.440          39.750  
C 7  36693479.621 7 191072579.710 7       387.486          42.500    36693477.256 6 147749431.945 6       299.623          38.750  
C 9  37321936.780 6 194345116.559 6     -1582.469          41.000    37321938.003 6 150279981.114 6     -1223.334          39.250  
C10  37266664.414 6 194057307.664 6       311.898          38.750    37266665.271 5 150057420.993 5       240.709          34.500  
C 2  37107623.494 6 193229139.732 6        -1.049          39.750    37107620.987 6 149417015.869 6        -0.513          37.000  
C 6  38376450.156 5 199836245.110 5     -1610.824          35.500    38376449.008 5 154526064.960 5     -1244.125          33.000  
C 8  37781825.283 6 196739879.191 6      1515.656          41.000    37781824.860 6 152131752.119 6      1171.633          38.000  
C28  22189552.198 7 115546819.162 7     -1574.806          46.500                                                                  
C27  22226916.931 7 115741391.757 7      1173.002          45.750                                                                  
> 2021  5 18  3  9 11.0000000  0 20                     
G 7  20318336.380 7 106773579.764 7       954.746          46.500    20318334.205 7  83200187.244 7       743.958          46.250  
G 8  22020227.955 7 115717078.93027     -2227.208          43.750    22020229.436 7  90169164.13927     -1735.487          43.750  
G 1  20362408.343 7 107005176.965 7      1917.471          47.000    20362410.748 7  83380665.381 7      1494.133          47.000  
G30  22682834.812 6 119199095.321 6      2872.997          38.500    22682835.823 6  92882417.058 6      2238.704          36.000  
G21  20544215.037 7 107960582.16027      -707.257          46.000    20544212.575 5  84125119.07615      -551.109          35.750  
R10  19934740.636 7 106263008.738 7      1851.244          42.500                                                                  
R 9  20475313.295 7 109336636.06217     -1353.161          42.250                                                                  
R20  19894241.332 5 106383074.15525     -2404.509          32.500    19894242.327 6  82742387.59316     -1870.173          40.000  
R21  20151449.770 7 107834091.877 7      1933.126          44.250    20151450.154 6  83870972.375 6      1503.543          38.750  
C13  38564078.518 6 200813269.291 6      1521.495          38.250    38564084.800 5 155281569.171 5      1177.047          33.750  
C16  38849034.111 6 202297111.343 6     -1693.729          38.250    38849038.603 5 156428966.761 5     -1309.881          32.000  
C 3  36458266.890 7 189847758.247 7        18.796          44.000    36458264.483 6 146802327.731 6        14.865          37.250  
C 7  36693405.924 6 191072191.769 6       387.868          42.000    36693403.574 6 147749131.958 6       300.072          38.500  
C 9  37322240.262 6 194346698.018 6     -1581.064          39.500    37322241.906 6 150281204.010 6     -1222.956          38.250  
C10  37266604.543 6 194056995.802 6       311.770          38.250    37266605.337 5 150057179.820 5       241.127          33.500  
C 2  37107623.640 6 193229139.973 6         0.045          38.000    37107620.827 6 149417016.063 6         0.230          37.750  
C 6  38376758.603 5 199837855.037 5     -1609.184          35.750    38376761.149 5 154527310.010 5     -1244.169          33.250  
C 8  37781534.159 6 196738363.212 6      1516.622          39.250    37781533.743 6 152130579.858 6      1172.956          37.750  
C28  22189854.713 7 115548393.756 7     -1574.610          45.500                                                                  
C27  22226691.581 7 115740218.361 7      1172.988          44.750                                                                  
> 2021  5 18  3  9 12.0000000  0 20                     
G 7  20318154.674 7 106772624.943 7       954.326          45.250    20318152.516 7  83199443.232 7       743.631          45.000  
G 8  22020652.343 7 115719306.84327     -2228.664          43.250    22020653.935 7  90170900.17827     -1736.621          42.750  
G 1  20362043.363 7 107003258.936 7      1918.307          46.500    20362045.760 7  83379170.803 7      1494.782          46.500  
G30  22682288.288 6 119196222.937 6      2872.142          39.000    22682289.192 6  92880178.842 6      2238.037          36.750  
G21  20544350.203 7 107961289.11727      -707.611          45.500    20544347.638 5  84125670.07825      -551.385          35.000  
R10  19934393.684 7 106261157.967 7      1850.154          42.000                                                                  
R 9  20475566.087 6 109337988.98926     -1351.970          42.000                                                                  
R20  19894693.328 5 106385478.83325     -2405.006          31.750    19894692.178 6  82744257.91326     -1870.560          38.000  
R21  20151088.433 7 107832158.356 7      1934.103          44.250    20151088.942 6  83869468.532 6      1504.304          37.000  
C13  38563786.062 6 200811746.228 6      1524.961          38.250    38563793.910 5 155280391.513 5      1178.918          33.750  
C16  38849359.292 6 202298804.585 6     -1691.653          38.000    38849365.773 5 156430276.080 5     -1307.937          35.250  
C 3  36458263.106 6 189847738.447 6        20.441          39.750    36458260.683 5 146802312.301 5        16.361          35.250  
C 7  36693331.127 7 191071803.958 7       387.354          42.250    36693328.663 6 147748832.055 6       300.012          39.250  
C 9  37322543.109 6 194348278.261 6     -1579.282          39.500    37322545.387 6 150282425.965 6     -1221.236          39.500  
C10  37266544.749 6 194056684.510 6       310.937          38.250    37266545.555 5 150056939.093 5       240.833          35.250  
C 2  37107623.376 6 193229139.404 6         1.543          39.000    37107620.933 6 149417015.588 6         1.485          39.750  
C 6  38377067.838 5 199839462.869 5     -1605.392          36.000    38377068.500 5 154528553.233 5     -1242.237          33.750  
C 8  37781242.649 6 196736845.310 6      1519.147          41.250    37781242.210 6 152129406.114 6      1174.776          38.500  
C28  22190157.155 7 115549968.821 7     -1575.678          45.750                                                                  
C27  22226466.114 7 115739044.720 7      1173.965          45.250                                                                  
> 2021  5 18  3  9 13.0000000  0 22                     
G 7  20317973.177 7 106771671.292 7       952.758          45.750    20317971.039 7  83198700.130 7       742.410          45.250  
G 8  22021076.492 7 115721535.943 7     -2230.544          42.750    22021077.440 7  90172637.029 7     -1738.086          42.750  
G 1  20361678.167 7 107001339.798 7      1919.818          45.750    20361680.549 7  83377675.368 7      1495.960          45.500  
G30  22681742.112 6 119193353.144 6      2868.513          40.500    22681742.440 6  92877942.625 6      2235.205          37.750  
G21  20544484.902 7 107961995.696 7      -707.443          45.250    20544483.200 6  84126220.567 6      -551.254          36.750  
R10  19934046.624 7 106259309.053 7      1847.707          42.500                                                                  
R 9  20475818.703 6 109339341.08826     -1351.447          41.000                                                                  
R20  19895142.317 5 106387885.602 5     -2407.369          33.000    19895142.174 6  82746129.344 6     -1872.398          39.250  
R21  20150727.017 7 107830224.480 7      1933.828          45.000    20150727.789 6  83867964.410 6      1504.090          38.000  
C13  38563492.878 6 200810220.309 6      1527.613          38.500    38563500.261 4 155279211.640 4      1180.292          29.750  
C16  38849684.221 6 202300495.220 6     -1689.342          38.250    38849691.161 5 156431583.282 5     -1305.571          32.500  
C 3  36458258.958 6 189847717.005 6        21.863          38.000    36458256.578 5 146802295.792 5        17.249          35.250  
C 7  36693257.019 6 191071417.394 6       385.701          41.500    36693253.626 6 147748533.132 6       298.552          36.750  
C 1  37402415.761 6 194764193.60526        -8.753          41.000    37402417.251 6 150604032.81016        -6.633          36.500  
C 9  37322846.088 6 194349856.933 6     -1577.938          39.250    37322848.889 6 150283646.662 6     -1220.512          38.250  
C10  37266485.334 6 194056375.086 6       308.072          38.500    37266486.117 5 150056699.799 5       238.815          32.500  
C23  23123610.603 7 120410707.22927     -1695.820          43.750                                                                  
C 2  37107623.272 6 193229137.837 6         1.922          38.500    37107620.841 6 149417014.427 6         1.090          36.750  
C 6  38377375.458 6 199841067.876 6     -1603.639          36.250    38377377.627 5 154529794.308 5     -1239.895          31.500  
C 8  37780950.696 6 196735325.126 6      1521.093          38.250    37780950.251 5 152128230.597 5      1176.621          34.500  
C28  22190459.946 7 115551545.314 7     -1577.449          45.750                                                                  
C27  22226240.695 7 115737871.079 7      1173.378          44.750                                                                  
> 2021  5 18  3  9 14.0000000  0 23                     
G 7  20317792.007 7 106770719.156 7       951.804          45.500    20317789.814 7  83197958.203 7       741.665          44.750  
G 8  22021501.598 7 115723768.311 7     -2233.432          42.750    22021502.431 7  90174376.532 7     -1740.336          42.500  
G 1  20361312.728 7 106999419.401 7      1921.383          46.500    20361315.090 7  83376178.949 7      1497.179          46.500  
G30  22681196.791 6 119190486.982 6      2864.451          41.750    22681197.231 6  92875709.238 6      2232.037          41.250  
G21  20544619.621 7 107962703.302 7      -707.489          45.000    20544617.159 5  84126771.932 5      -551.290          35.000  
R10  19933699.983 7 106257462.759 7      1845.541          42.500                                                                  
R 9  20476072.913 6 109340692.56126     -1351.268          41.250                                                                  
R20  19895592.490 5 106390295.096 5     -2410.815          32.000    19895592.705 6  82748003.393 6     -1875.078          39.500  
R21  20150365.444 7 107828290.150 7      1935.144          44.250    20150366.341 6  83866459.930 6      1505.113          39.000  
C13  38563199.376 6 200808691.108 6      1531.325          38.250    38563205.920 4 155278028.981 4      1184.096          28.250  
C16  38850008.576 6 202302182.599 6     -1685.433          37.500    38850015.198 5 156432888.134 5     -1302.224          32.750  
C 3  36458254.517 6 189847693.981 6        24.056          42.000    36458252.174 6 146802278.033 6        18.721          37.500  
C 7  36693182.937 7 191071032.729 7       384.020          42.000    36693179.518 6 147748235.709 6       297.056          38.000  
C 1  37402418.299 6 194764201.375 6        -6.076          41.000    37402418.431 6 150604038.844 6        -5.028          37.250  
C 9  37323148.669 6 194351433.693 6     -1575.290          39.750    37323151.088 6 150284865.917 6     -1218.482          37.750  
C10  37266426.378 6 194056068.207 6       306.044          37.750    37266427.208 5 150056462.554 5       236.815          33.750  
C23  23123936.265 7 120412402.01627     -1693.950          44.750                                                                  
C 4  38338507.301 5 199638668.10415         1.817          35.250                                                                  
C 2  37107622.773 6 193229135.301 6         3.604          38.000    37107620.366 6 149417012.460 6         2.693          37.000  
C 6  38377683.393 6 199842669.483 6     -1600.185          36.250    38377685.127 5 154531032.775 5     -1237.323          32.000  
C 8  37780658.231 5 196733802.276 5      1524.728          35.500    37780657.819 5 152127053.033 5      1178.883          30.250  
C28  22190762.949 7 115553123.959 7     -1579.313          46.250                                                                  
C27  22226015.254 7 115736697.401 7      1174.195          46.000                                                                  
> 2021  5 18  3  9 15.0000000  0 23                     
G 7  20317611.052 7 106769768.152 7       950.333          45.750    20317608.831 7  83197217.155 7       740.518          45.500  
G 8  22021926.938 7 115726003.816 7     -2236.963          42.750    22021928.258 7  90176118.478 7     -1743.090          42.250  
G 1  20360946.852 7 106997496.626 7      1924.223          46.250    20360949.178 7  83374680.681 7      1499.392          46.500  
G30  22680652.221 6 119187624.575 6      2860.031          40.500    22680652.434 6  92873478.769 6      2228.589          37.750  
G21  20544754.100 7 107963410.850 7      -707.537          44.250    20544751.887 5  84127323.270 5      -551.328          34.250  
R10  19933353.792 7 106255619.324 7      1841.791          42.500                                                                  
R 9  20476326.187 6 109342042.443 6     -1349.276          40.750    20476326.862 6  85043823.89116     -1049.437          40.000  
R20  19896043.399 5 106392707.554 5     -2414.035          32.250    19896043.810 6  82749879.747 6     -1877.583          39.750  
R21  20150003.357 7 107826354.298 7      1937.020          44.500    20150004.629 6  83864954.268 6      1506.571          38.750  
C13  38562904.456 5 200807156.825 5      1537.207          35.750    38562911.106 5 155276842.480 5      1189.166          31.250  
C16  38850331.838 6 202303865.145 6     -1679.135          36.000    38850338.556 5 156434189.230 5     -1298.425          32.500  
C 3  36458249.578 7 189847668.114 7        27.650          42.750    36458247.309 6 146802258.029 6        21.115          37.000  
C 7  36693109.326 7 191070650.244 7       381.056          42.000    36693106.111 6 147747939.938 6       294.940          37.750  
C 1  37402419.502 6 194764206.190 6        -2.548          41.500    37402420.398 6 150604042.642 6        -2.789          36.750  
C 9  37323450.916 6 194353007.249 6     -1572.088          40.750    37323453.515 6 150286082.682 6     -1215.440          38.500  
C10  37266368.012 6 194055764.228 6       302.512          39.000    37266368.822 5 150056227.509 5       233.648          33.000  
C23  23124260.894 7 120414093.685 7     -1690.927          44.250                                                                  
C 4  38338504.733 5 199638664.82525         5.241          35.750    38338506.615 5 154373280.89725         3.666          32.000  
C 2  37107621.917 6 193229130.689 6         5.740          39.000    37107619.519 6 149417008.867 6         4.335          36.750  
C 6  38377989.912 5 199844265.881 5     -1593.741          35.250    38377990.934 5 154532267.227 5     -1232.207          31.750  
C 8  37780365.005 5 196732275.380 5      1528.922          31.250    37780364.659 4 152125872.439 4      1180.746          28.000  
C28  22191066.786 7 115554704.874 7     -1581.752          46.000                                                                  
C27  22225789.757 7 115735522.997 7      1174.914          45.250                                                                  
> 2021  5 18  3  9 16.0000000  0 23                     
G 7  20317430.413 7 106768818.925 7       948.207          45.500    20317428.199 7  83196477.499 7       738.863          45.250  
G 8  22022353.137 7 115728243.404 7     -2241.848          42.500    22022354.300 6  90177863.605 6     -1746.897          42.000  
G 1  20360580.484 7 106995571.329 7      1926.380          46.000    20360582.800 7  83373180.453 7      1501.075          46.000  
G30  22680108.431 6 119184767.236 6      2854.564          39.750    22680108.878 6  92871252.284 6      2224.333          38.750  
G21  20544888.614 7 107964118.732 7      -708.125          44.750    20544885.581 6  84127874.872 6      -551.785          36.250  
R10  19933008.766 7 106253779.551 7      1838.102          42.000                                                                  
R 9  20476578.641 6 109343390.659 6     -1347.568          41.000                                                                  
R20  19896493.905 5 106395123.809 5     -2417.992          32.000    19896495.622 6  82751759.050 6     -1880.661          40.250  
R21  20149641.458 7 107824417.104 7      1937.666          45.000    20149642.320 6  83863447.557 6      1507.073          38.500  
C13  38562608.163 5 200805617.063 5      1542.619          34.500    38562615.161 5 155275651.953 5      1192.779          33.500  
C16  38850653.324 6 202305542.664 6     -1674.711          38.750    38850660.602 5 156435486.355 5     -1294.933          32.750  
C 3  36458244.108 6 189847639.458 6        29.965          42.000    36458241.819 6 146802235.855 6        23.278          36.750  
C 7  36693036.202 7 191070270.646 7       377.957          42.250    36693033.307 6 147747646.429 6       292.096          37.000  
C 1  37402419.860 6 194764208.035 6        -0.276          41.000    37402420.364 6 150604043.976 6        -0.341          37.000  
C 9  37323752.390 6 194354577.605 6     -1569.257          39.000    37323755.135 6 150287296.971 6     -1212.927          37.750  
C10  37266310.373 6 194055464.146 6       297.630          38.500    37266311.168 5 150055995.418 5       230.679          33.500  
C23  23124585.217 7 120415783.106 7     -1688.720          44.250                                                                  
C 4  38338506.033 6 199638658.241 6         7.366          37.750    38338505.899 5 154373276.233 5         5.264          31.750  
C 2  37107620.564 6 193229124.179 6         7.059          38.250    37107617.884 6 149417003.818 6         5.915          36.000  
C 6  38378294.739 5 199845856.943 5     -1588.923          35.750    38378296.236 5 154533497.507 5     -1228.576          33.000  
C 8  37780070.883 5 196730744.191 5      1533.033          31.750    37780070.621 4 152124688.317 4      1185.591          27.250  
C28  22191371.044 7 115556288.850 7     -1585.820          45.750                                                                  
C27  22225564.226 7 115734348.164 7      1174.775          45.250                                                                  
> 2021  5 18  3  9 17.0000000  0 23                     
G 7  20317250.205 7 106767871.846 7       946.303          45.500    20317247.902 7  83195739.523 7       737.381          45.000  
G 8  22022779.929 7 115730486.938 7     -2245.137          42.000    22022781.110 6  90179611.807 6     -1749.461          41.750  
G 1  20360213.791 7 106993644.387 7      1927.870          46.000    20360216.118 7  83371678.947 7      1502.237          46.250  
G30  22679565.700 6 119181914.694 6      2850.365          41.250    22679566.095 6  92869029.538 6      2221.065          38.750  
G21  20545023.803 7 107964827.296 7      -708.806          44.500    20545020.888 6  84128427.012 6      -552.311          36.750  
R10  19932664.342 7 106251943.505 7      1834.418          42.500                                                                  
R 9  20476831.593 5 109344738.308 5     -1348.466          35.250    20476832.696 5  85045922.84615     -1048.807          33.250  
R20  19896946.608 5 106397543.963 5     -2422.047          31.750    19896948.110 6  82753641.390 6     -1883.816          40.250  
R21  20149279.623 7 107822479.374 7      1937.912          44.750    20149280.319 6  83861940.434 6      1507.265          39.750  
C13  38562311.297 6 200804073.020 6      1546.233          36.000    38562319.166 5 155274458.062 5      1195.569          34.000  
C16  38850974.627 6 202307216.178 6     -1671.525          38.750    38850981.538 5 156436780.427 5     -1292.865          32.250  
C 3  36458238.235 6 189847608.829 6        31.585          42.000    36458235.975 6 146802212.141 6        24.300          37.250  
C 7  36692963.958 7 191069894.001 7       375.226          42.250    36692961.192 6 147747355.168 6       290.214          37.500  
C 1  37402419.330 6 194764207.547 6         1.654          41.750    37402421.076 6 150604043.620 6         1.109          36.750  
C 9  37324053.430 6 194356145.740 6     -1567.711          39.500    37324056.108 6 150288509.533 6     -1211.744          37.000  
C10  37266253.502 6 194055167.898 6       294.455          38.750    37266254.301 5 150055766.399 5       227.033          34.000  
C23  23124909.203 7 120417470.518 7     -1685.784          43.500                                                                  
C 4  38338504.069 6 199638650.113 6         8.626          38.250                                                                  
C 2  37107619.284 6 193229116.577 6         8.497          38.500    37107616.610 6 149416997.981 6         6.414          37.250  
C 6  38378599.779 6 199847443.640 6     -1584.782          37.000    38378601.363 5 154534724.485 5     -1225.735          32.750  
C 8  37779776.132 5 196729208.44015      1536.675          31.000    37779776.026 4 152123501.610 4      1188.380          28.750  
C28  22191675.783 7 115557875.933 7     -1588.534          46.000                                                                  
C27  22225338.652 7 115733173.536 7      1174.261          45.250                                                                  
> 2021  5 18  3  9 18.0000000  0 22                     
G 7  20317070.278 7 106766926.306 7       944.928          45.750    20317067.959 7  83195002.748 7       736.310          45.000  
G 8  22023207.807 7 115732733.647 7     -2248.528          43.250    22023208.852 7  90181362.482 7     -1752.104          42.750  
G 1  20359846.789 7 106991715.797 7      1929.361          46.250    20359849.111 7  83370176.154 7      1503.400          46.250  
G30  22679023.797 6 119179066.283 6      2846.558          36.750    22679023.896 5  92866809.990 5      2218.096          34.750  
G21  20545158.603 7 107965536.330 7      -709.027          44.000    20545156.256 6  84128979.528 6      -552.481          36.500  
R10  19932320.390 7 106250110.379 7      1831.581          43.000                                                                  
R20  19897399.809 5 106399967.175 5     -2424.674          32.750    19897401.184 6  82755526.110 6     -1885.857          40.000  
R21  20148917.507 7 107820540.893 7      1938.656          45.500    20148917.870 6  83860432.725 6      1507.843          39.750  
C13  38562014.083 5 200802525.021 5      1549.678          35.750    38562022.037 5 155273261.006 5      1198.397          33.750  
C16  38851295.279 6 202308885.888 6     -1667.733          38.000    38851302.200 5 156438071.498 5     -1289.225          32.750  
C 3  36458231.967 7 189847576.090 7        33.551          42.000    36458229.716 6 146802186.824 6        26.032          37.250  
C 7  36692892.101 6 191069519.643 6       372.891          42.000    36692889.606 6 147747065.688 6       288.506          37.250  
C 1  37402419.127 7 194764204.749 7         4.286          42.000    37402419.626 6 150604041.487 6         2.946          37.000  
C 9  37324354.145 6 194357711.522 6     -1565.092          39.500    37324356.529 6 150289720.283 6     -1209.967          37.500  
C10  37266197.191 6 194054874.617 6       291.897          39.250    37266197.972 5 150055539.594 5       225.345          34.500  
C23  23125232.960 7 120419156.111 7     -1684.640          44.000                                                                  
C 4  38338502.543 5 199638639.841 5        11.573          35.250    38338502.295 5 154373260.98615         8.439          31.250  
C 2  37107617.480 6 193229107.700 6         9.319          39.750    37107615.170 6 149416991.070 6         7.790          36.500  
C 6  38378903.874 6 199849026.268 6     -1579.940          36.250    38378905.682 5 154535948.252 5     -1221.875          32.750  
C 8  37779480.829 4 196727670.57714      1539.485          30.000    37779480.695 4 152122312.338 4      1190.429          27.000  
C28  22191980.977 7 115559465.393 7     -1590.849          45.750                                                                  
C27  22225112.997 7 115731998.679 7      1175.041          45.250                                                                  
> 2021  5 18  3  9 19.0000000  0 20                     
G 7  20316890.583 7 106765982.009 7       943.645          45.750    20316888.227 7  83194266.926 7       735.308          45.750  
G 8  22023635.696 7 115734982.950 7     -2251.105          43.000    22023636.791 7  90183115.177 7     -1754.112          43.500  
G 1  20359479.533 7 106989785.793 7      1930.049          46.250    20359481.832 7  83368672.259 7      1503.937          46.500  
G21  20545293.656 7 107966245.721 7      -709.663          45.500    20545291.394 6  84129532.296 6      -552.981          36.750  
R10  19931976.881 7 106248279.711 7      1829.357          42.750                                                                  
R20  19897853.097 5 106402393.067 5     -2427.521          32.750    19897854.897 6  82757412.919 6     -1888.072          39.500  
R21  20148555.206 7 107818601.676 7      1939.303          44.750    20148555.400 6  83858924.442 6      1508.346          39.250  
C13  38561716.081 6 200800973.334 6      1552.603          36.500    38561724.350 5 155272061.166 5      1201.081          34.500  
C16  38851615.274 6 202310552.131 6     -1665.169          38.500    38851622.162 5 156439359.958 5     -1287.632          33.750  
C 3  36458225.328 7 189847541.446 7        35.100          42.250    36458223.027 6 146802160.042 6        27.112          36.500  
C 7  36692820.697 7 191069147.102 7       371.701          42.500    36692817.969 6 147746777.587 6       287.881          37.250  
C 1  37402418.087 6 194764200.032 6         4.923          41.500    37402418.684 6 150604037.775 6         4.563          36.750  
C 9  37324654.226 6 194359274.994 6     -1563.040          39.250    37324656.647 6 150290929.271 6     -1208.310          37.500  
C10  37266141.335 6 194054583.711 6       290.423          38.750    37266142.107 5 150055314.648 5       224.214          34.750  
C23  23125556.326 7 120420839.954 7     -1683.459          44.250                                                                  
C 2  37107615.490 6 193229097.376 6        10.996          39.750    37107613.111 6 149416983.147 6         8.176          36.500  
C 6  38379206.797 6 199850605.224 6     -1578.283          36.250    38379208.438 5 154537169.236 5     -1220.245          33.000  
C 8  37779184.956 4 196726129.90114      1540.528          28.000                                                                  
C28  22192286.593 7 115561056.900 7     -1592.375          46.000                                                                  
C27  22224887.400 7 115730823.616 7      1174.856          46.250                                                                  
> 2021  5 18  3  9 20.0000000  0 20                     
G 7  20316711.182 7 106765039.287 7       942.359          45.750    20316708.817 7  83193532.328 7       734.304          45.500  
G 8  22024064.174 7 115737234.629 7     -2252.338          42.250    22024065.436 6  90184869.736 6     -1755.071          41.750  
G 1  20359112.204 7 106987855.430 7      1930.893          46.500    20359114.492 7  83367168.084 7      1504.594          46.250  
G21  20545428.528 7 107966956.094 7      -710.092          44.750    20545426.515 6  84130085.820 6      -553.320          38.000  
R10  19931633.916 7 106246451.484 7      1827.108          43.000                                                                  
R20  19898306.523 5 106404821.528 5     -2429.237          32.500    19898308.708 6  82759301.717 6     -1889.407          38.750  
R21  20148192.876 7 107816662.588 7      1939.389          44.500    20148193.008 6  83857416.262 6      1508.412          38.250  
C13  38561417.839 6 200799419.684 6      1554.967          36.500    38561425.840 5 155270859.773 5      1202.742          33.250  
C16  38851935.248 6 202312216.457 6     -1663.309          38.500    38851940.953 5 156440646.942 5     -1286.405          30.000  
C 3  36458218.493 6 189847505.934 6        36.150          41.250    36458216.199 6 146802132.603 6        27.754          37.250  
C 7  36692749.304 7 191068776.382 7       369.737          42.500    36692746.672 6 147746490.948 6       286.314          37.500  
C 1  37402416.815 6 194764194.428 6         6.627          41.250    37402417.921 6 150604033.439 6         5.475          38.000  
C 9  37324954.204 6 194360837.491 6     -1561.420          39.000    37324956.753 6 150292137.502 6     -1207.468          38.250  
C10  37266085.881 6 194054295.020 6       287.724          38.500    37266086.660 5 150055091.425 5       222.430          34.250  
C23  23125879.771 7 120422523.336 7     -1682.585          44.000                                                                  
C 2  37107613.466 6 193229086.621 6        11.216          40.000    37107610.901 6 149416974.833 6         8.688          36.250  
C 6  38379509.962 6 199852182.147 6     -1575.168          36.500    38379511.285 5 154538388.579 5     -1217.798          33.500  
C 8  37778888.756 4 196724587.59414      1542.138          29.000                                                                  
C28  22192592.636 7 115562650.493 7     -1593.883          46.000                                                                  
C27  22224661.779 7 115729648.951 7      1174.761          45.750                                                                  
> 2021  5 18  3  9 21.0000000  0 20                     
G 7  20316531.935 7 106764097.331 7       941.542          45.750    20316529.595 7  83192798.335 7       733.668          45.250  
G 8  22024492.942 6 115739487.854 6     -2253.872          41.000    22024494.448 6  90186625.516 6     -1756.261          41.000  
G 1  20358744.661 7 106985923.940 7      1931.850          46.500    20358746.932 7  83365663.030 7      1505.340          46.500  
G21  20545563.664 7 107967666.617 7      -710.785          43.500    20545560.978 6  84130639.468 6      -553.858          36.000  
R10  19931291.244 7 106244624.754 7      1826.131          42.250                                                                  
R20  19898760.873 5 106407251.694 5     -2430.604          32.000    19898763.022 6  82761191.846 6     -1890.470          38.750  
R21  20147830.496 7 107814722.921 7      1939.770          44.000    20147830.595 6  83855907.627 6      1508.709          37.750  
C13  38561118.683 6 200797863.146 6      1558.010          36.250    38561127.187 5 155269656.217 5      1204.205          33.500  
C16  38852254.310 6 202313878.046 6     -1660.574          37.750    38852259.268 5 156441931.671 5     -1283.799          32.750  
C 3  36458211.360 6 189847468.773 6        37.916          41.750    36458209.105 6 146802103.871 6        29.130          37.750  
C 7  36692678.321 7 191068406.550 7       369.513          42.250    36692675.592 6 147746204.993 6       285.648          37.250  
C 1  37402415.156 6 194764187.065 6         7.720          41.500    37402416.665 6 150604027.751 6         6.290          37.250  
C 9  37325254.075 6 194362398.204 6     -1559.488          39.500    37325256.541 6 150293344.379 6     -1206.183          37.750  
C10  37266030.692 6 194054007.683 6       286.746          39.250    37266031.509 5 150054869.213 5       221.489          35.500  
C23  23126202.862 7 120424205.217 7     -1681.324          43.750                                                                  
C 2  37107611.192 6 193229074.673 6        12.371          39.500    37107608.762 6 149416965.573 6         9.711          36.500  
C 6  38379811.935 5 199853756.150 5     -1573.030          35.000    38379813.373 5 154539605.686 5     -1216.234          32.500  
C 8  37778592.210 4 196723043.10014      1545.442          28.750                                                                  
C28  22192898.927 7 115564245.242 7     -1595.363          46.000                                                                  
C27  22224436.027 7 115728473.917 7      1175.139          45.250                                                                  
> 2021  5 18  3  9 22.0000000  0 20                     
G 7  20316352.868 7 106763156.262 7       940.745          46.000    20316350.494 7  83192065.033 7       733.047          46.000  
G 8  22024921.828 6 115741742.356 6     -2254.675          41.000    22024923.425 6  90188382.282 6     -1756.885          41.000  
G 1  20358377.006 7 106983991.848 7      1932.216          46.750    20358379.258 7  83364157.502 7      1505.625          47.000  
G21  20545698.911 7 107968377.541 7      -711.142          43.750    20545696.489 6  84131193.429 6      -554.138          36.000  
R10  19930948.957 7 106242799.432 7      1825.119          43.000                                                                  
R20  19899215.321 5 106409683.416 5     -2432.225          33.250    19899217.879 6  82763083.184 6     -1891.732          39.000  
R21  20147467.735 7 107812783.113 7      1939.564          45.000    20147468.160 6  83854398.891 6      1508.550          37.500  
C13  38560819.503 6 200796304.759 6      1558.753          37.000    38560827.910 5 155268451.159 5      1205.212          33.250  
C16  38852573.125 6 202315537.757 6     -1659.586          39.000    38852577.865 5 156443215.117 5     -1283.313          33.000  
C 3  36458204.004 6 189847430.555 6        38.602          41.250    36458201.798 6 146802074.300 6        29.732          37.500  
C 7  36692607.605 7 191068037.561 7       369.034          43.000    36692604.554 6 147745919.653 6       285.327          38.250  
C 1  37402413.790 7 194764178.520 7         8.796          42.500    37402414.898 6 150604021.144 6         6.771          36.750  
C 9  37325553.634 6 194363957.746 6     -1559.235          40.000    37325555.929 6 150294550.269 6     -1205.645          38.500  
C10  37265975.695 6 194053721.404 6       286.251          38.500    37265976.532 6 150054647.866 6       221.255          36.250  
C23  23126525.571 7 120425886.377 7     -1681.110          43.750                                                                  
C 2  37107608.879 6 193229061.895 6        12.995          39.500    37107606.124 6 149416955.713 6         9.970          36.750  
C 6  38380113.781 5 199855328.190 5     -1571.292          35.750    38380115.107 5 154540821.293 5     -1215.010          31.500  
C 8  37778295.306 4 196721496.92814      1547.175          28.500                                                                  
C28  22193205.403 7 115565841.074 7     -1596.136          45.250                                                                  
C27  22224210.336 7 115727298.889 7      1175.061          44.750                                                                  
> 2021  5 18  3  9 23.0000000  0 20                     
G 7  20316173.967 7 106762216.148 7       939.845          46.000    20316171.577 7  83191332.476 7       732.346          46.000  
G 8  22025350.890 6 115743997.503 6     -2255.208          41.000    22025352.477 6  90190139.554 6     -1757.298          41.000  
G 1  20358009.501 7 106982060.545 7      1931.094          46.750    20358011.745 7  83362652.593 7      1504.750          46.500  
G21  20545834.328 7 107969089.378 7      -712.282          43.500    20545832.207 5  84131748.100 5      -555.029          33.000  
R10  19930606.618 7 106240975.022 7      1824.150          43.000                                                                  
R20  19899669.158 5 106412116.206 5     -2432.712          33.000    19899672.659 6  82764975.347 6     -1892.112          39.000  
R21  20147105.380 7 107810844.276 7      1938.394          44.750    20147105.802 6  83852890.912 6      1507.641          37.500  
C13  38560520.151 6 200794746.408 6      1558.289          37.000    38560528.466 5 155267246.116 5      1205.046          32.750  
C16  38852892.099 6 202317197.490 6     -1659.890          39.000    38852896.522 5 156444498.535 5     -1283.578          32.750  
C 3  36458196.676 6 189847392.489 6        37.862          41.250    36458194.479 6 146802044.861 6        29.490          37.750  
C 7  36692536.870 7 191067668.959 7       368.648          42.750    36692533.579 6 147745634.635 6       284.951          38.000  
C 1  37402412.052 7 194764170.133 7         8.306          42.500    37402413.509 6 150604014.681 6         6.402          37.000  
C 9  37325853.151 6 194365517.489 6     -1559.849          39.500    37325855.589 6 150295756.374 6     -1205.972          38.750  
C10  37265920.787 6 194053435.590 6       285.748          38.500    37265921.656 6 150054426.869 6       220.927          36.000  
C23  23126848.371 7 120427568.030 7     -1681.958          43.750                                                                  
C 2  37107606.523 6 193229049.369 6        12.607          39.500    37107603.533 6 149416945.988 6         9.884          37.000  
C 6  38380415.676 5 199856900.243 5     -1572.232          35.500    38380416.955 5 154542036.901 5     -1215.685          31.750  
C 8  37777998.322 4 196719951.16114      1545.757          27.500                                                                  
C28  22193511.932 7 115567437.653 7     -1596.716          45.250                                                                  
C27  22223984.725 7 115726124.514 7      1174.069          44.750                                                                  
> 2021  5 18  3  9 24.0000000  0 21                     
G 7  20315995.180 7 106761276.635 7       939.181          45.750    20315992.790 7  83190600.389 7       731.829          45.750  
G 8  22025780.028 6 115746252.596 6     -2255.225          41.250    22025781.465 6  90191896.775 6     -1757.312          41.250  
G 1  20357642.103 7 106980129.824 7      1930.234          46.750    20357644.337 7  83361148.137 7      1504.081          46.750  
G30  22675777.941 5 119161999.41025      2836.496          30.500                                                                  
G21  20545969.952 7 107969801.795 7      -712.869          43.500    20545967.675 5  84132303.232 5      -555.484          34.250  
R10  19930264.408 7 106239150.994 7      1823.645          43.250                                                                  
R20  19900124.475 5 106414549.605 5     -2434.264          33.000    19900127.697 6  82766867.985 6     -1893.319          39.000  
R21  20146743.196 7 107808906.129 7      1937.650          44.750    20146743.619 6  83851383.470 6      1507.063          37.500  
C13  38560221.064 6 200793188.076 6      1558.330          37.000    38560228.885 5 155266041.137 5      1204.670          33.250  
C16  38853210.943 6 202318857.195 6     -1659.937          39.250    38853215.350 5 156445781.889 5     -1283.246          32.250  
C 3  36458189.326 6 189847354.383 6        37.972          41.000    36458187.197 6 146802015.398 6        29.375          37.750  
C 7  36692466.142 7 191067300.262 7       368.555          43.000    36692462.829 6 147745349.518 6       285.077          38.000  
C 1  37402410.448 7 194764161.716 7         8.311          42.250    37402411.822 6 150604008.171 6         6.312          37.000  
C 9  37326152.763 6 194367077.265 6     -1559.854          39.000    37326155.063 6 150296962.486 6     -1206.089          38.500  
C10  37265865.868 6 194053149.654 6       285.573          38.500    37265866.783 6 150054205.734 6       221.281          36.250  
C23  23127171.374 7 120429250.029 7     -1682.350          43.750                                                                  
C 2  37107604.053 6 193229036.783 6        12.229          39.000    37107601.244 6 149416936.257 6         9.784          36.750  
C 6  38380717.637 5 199858472.221 5     -1571.952          35.500    38380718.485 5 154543252.468 5     -1215.569          32.000  
C 8  37777701.391 4 196718405.40124      1544.679          27.750                                                                  
C28  22193818.496 7 115569034.493 7     -1597.013          45.000                                                                  
C27  22223759.219 7 115724950.516 7      1173.631          45.000                                                                  
> 2021  5 18  3  9 25.0000000  0 21                     
G 7  20315816.585 7 106760338.099 7       937.605          46.000    20315814.145 7  83189869.062 7       730.600          45.500  
G 8  22026209.176 6 115748508.132 6     -2256.444          41.500    22026210.582 6  90193654.344 6     -1758.261          41.750  
G 1  20357274.888 7 106978200.048 7      1928.585          46.750    20357277.119 7  83359644.417 7      1502.796          46.750  
G30  22675239.174 5 119159162.231 5      2835.465          30.000                                                                  
G21  20546105.554 7 107970515.208 7      -714.494          43.500    20546103.337 5  84132859.145 5      -556.747          34.750  
R10  19929922.345 7 106237327.750 7      1822.224          43.250                                                                  
R20  19900579.807 5 106416983.900 5     -2435.386          33.250    19900582.891 6  82768761.323 6     -1894.192          39.000  
R21  20146381.148 7 107806969.038 7      1936.014          44.750    20146381.556 6  83849876.847 6      1505.791          37.500  
C13  38559921.987 6 200791630.117 6      1557.172          37.250    38559929.932 5 155264836.454 5      1203.761          32.500  
C16  38853529.739 6 202320517.233 6     -1660.806          39.250    38853534.146 5 156447065.542 5     -1284.293          32.500  
C 3  36458182.087 6 189847316.618 6        36.963          41.250    36458180.002 6 146801986.192 6        28.628          37.750  
C 7  36692395.430 7 191066931.864 7       367.652          43.000    36692392.118 6 147745064.655 6       284.321          37.750  
C 1  37402409.053 7 194764153.641 7         7.459          42.250    37402410.263 6 150604001.936 6         5.662          37.000  
C 9  37326452.470 6 194368637.473 6     -1561.117          39.250    37326454.756 6 150298168.957 6     -1207.115          38.500  
C10  37265810.996 6 194052863.979 6       285.118          38.750    37265811.956 6 150053984.866 6       220.177          36.000  
C23  23127494.347 7 120430932.761 7     -1683.531          43.500                                                                  
C 2  37107601.668 6 193229024.519 6        11.492          39.000    37107598.740 6 149416926.799 6         8.878          36.500  
C 6  38381019.752 5 199860044.575 5     -1573.228          35.750    38381020.190 5 154544468.309 5     -1216.609          31.750  
C 8  37777404.477 4 196716858.97314      1544.808          28.250                                                                  
C28  22194125.285 7 115570631.997 7     -1598.530          45.250                                                                  
C27  22223533.860 7 115723777.280 7      1172.201          44.750                                                                  
> 2021  5 18  3  9 26.0000000  0 21                     
G 7  20315638.298 7 106759401.211 7       936.295          46.000    20315635.829 7  83189139.017 7       729.580          45.750  
G 8  22026638.581 6 115750764.715 6     -2256.815          41.500    22026639.970 7  90195412.717 7     -1758.554          42.750  
G 1  20356907.987 7 106976271.908 7      1927.406          46.750    20356910.217 7  83358141.969 7      1501.875          47.000  
G30  22674700.447 5 119156326.935 5      2835.315          31.000                                                                  
G21  20546241.624 7 107971230.258 7      -715.740          43.250    20546239.374 5  84133416.321 5      -557.722          34.500  
R10  19929580.828 7 106235505.976 7      1821.341          43.000                                                                  
R20  19901035.955 5 106419419.856 5     -2437.017          33.000    19901038.337 6  82770655.949 6     -1895.462          39.250  
R21  20146019.493 7 107805033.702 7      1934.780          44.500    20146019.921 6  83848371.586 6      1504.831          37.500  
C13  38559623.065 6 200790073.241 6      1556.624          37.250    38559631.070 5 155263632.523 5      1203.773          33.250  
C16  38853848.729 6 202322178.268 6     -1661.364          39.250    38853853.131 5 156448349.955 5     -1284.598          32.500  
C 3  36458175.007 6 189847279.858 6        36.607          41.000    36458172.987 6 146801957.774 6        28.225          37.750  
C 7  36692324.962 7 191066564.370 7       367.435          43.000    36692321.470 6 147744780.491 6       284.060          37.750  
C 1  37402407.869 6 194764146.605 6         6.617          42.000    37402408.792 6 150603996.490 6         5.208          37.000  
C 9  37326752.333 6 194370198.761 6     -1561.316          39.250    37326754.642 6 150299376.238 6     -1207.535          38.500  
C10  37265756.301 6 194052579.232 6       284.746          38.500    37265757.292 6 150053764.656 6       220.230          36.000  
C23  23127817.754 7 120432616.910 7     -1684.677          43.500                                                                  
C 2  37107599.523 6 193229013.262 6        11.259          39.500    37107596.659 6 149416918.112 6         8.549          36.750  
C 6  38381322.059 5 199861617.905 5     -1573.612          35.750    38381321.978 5 154545684.875 5     -1216.805          31.750  
C 8  37777107.962 4 196715314.78314      1543.967          28.000                                                                  
C28  22194432.290 7 115572230.788 7     -1599.134          45.000                                                                  
C27  22223308.725 7 115722605.474 7      1171.447          45.000                                                                  
> 2021  5 18  3  9 27.0000000  0 21                     
G 7  20315460.042 7 106758464.505 7       936.951          46.000    20315457.543 7  83188409.116 7       730.091          45.750  
G 8  22027067.754 6 115753020.925 6     -2255.626          41.750    22027069.444 6  90197170.795 6     -1757.630          41.500  
G 1  20356541.114 7 106974343.909 7      1928.454          46.750    20356543.338 7  83356639.628 7      1502.691          46.750  
G30  22674163.927 5 119153491.540 5      2835.769          31.250                                                                  
G21  20546377.809 7 107971945.505 7      -714.742          43.250    20546375.333 6  84133973.654 6      -556.943          36.250  
R10  19929239.072 7 106233684.206 7      1822.214          42.750                                                                  
R20  19901491.464 5 106421855.885 5     -2435.241          33.000    19901493.853 6  82772550.637 6     -1894.080          39.250  
R21  20145657.910 7 107803098.648 7      1935.480          44.500    20145658.151 6  83846866.543 6      1505.374          37.750  
C13  38559324.041 6 200788515.958 6      1557.391          37.250    38559331.806 5 155262428.332 5      1204.944          33.000  
C16  38854167.652 6 202323838.863 6     -1659.772          39.000    38854171.836 5 156449634.015 5     -1283.356          32.250  
C 3  36458167.857 6 189847242.665 6        37.962          41.000    36458165.899 6 146801929.007 6        29.328          38.000  
C 7  36692254.407 7 191066196.399 7       368.647          42.750    36692250.672 6 147744495.922 6       285.169          37.750  
C 1  37402406.334 7 194764139.102 7         8.256          42.000    37402407.358 6 150603990.688 6         6.244          37.000  
C 9  37327052.215 6 194371759.706 6     -1560.319          39.500    37327054.474 6 150300583.258 6     -1206.495          38.500  
C10  37265701.491 6 194052293.946 6       286.314          38.250    37265702.499 5 150053544.070 5       221.295          36.000  
C23  23128141.055 7 120434300.989 7     -1683.745          43.250                                                                  
C 2  37107597.275 6 193229001.618 6        12.440          39.000    37107594.405 6 149416909.077 6         9.606          36.750  
C 6  38381624.129 5 199863190.726 5     -1572.078          35.250    38381623.772 5 154546901.115 5     -1215.803          32.250  
C 8  37776811.304 4 196713770.17624      1545.583          29.000                                                                  
C28  22194739.198 7 115573829.440 7     -1598.174          44.750                                                                  
C27  22223083.593 7 115721433.629 7      1172.467          44.750                                                                  
> 2021  5 18  3  9 28.0000000  0 21                     
G 7  20315281.636 7 106757526.913 7       937.490          46.000    20315279.084 7  83187678.523 7       730.511          45.750  
G 8  22027496.783 6 115755275.681 6     -2254.542          41.750    22027498.656 6  90198927.742 6     -1756.786          41.750  
G 1  20356174.061 7 106972415.028 7      1928.862          46.750    20356176.289 7  83355136.601 7      1503.008          46.500  
G30  22673621.364 5 119150654.916 5      2836.529          31.250                                                                  
G21  20546513.656 7 107972659.872 7      -714.500          43.250    20546511.069 5  84134530.297 5      -556.755          35.500  
R10  19928897.118 7 106231861.331 7      1823.013          42.750                                                                  
R20  19901947.133 5 106424291.029 5     -2434.828          33.000    19901949.235 6  82774444.636 6     -1893.758          39.000  
R21  20145296.161 7 107801162.766 7      1935.874          44.750    20145296.365 6  83845360.854 6      1505.680          37.750  
C13  38559024.724 6 200786957.203 6      1559.090          37.500    38559032.470 5 155261223.009 5      1205.744          33.500  
C16  38854486.297 6 202325497.978 6     -1658.781          39.250    38854490.367 5 156450916.944 5     -1282.445          32.750  
C 3  36458160.416 6 189847203.983 6        39.039          40.750    36458158.479 6 146801899.091 6        30.130          38.000  
C 7  36692183.450 7 191065826.866 7       369.901          42.500    36692179.679 6 147744210.194 6       285.985          37.750  
C 1  37402404.664 6 194764130.132 6         9.237          42.000    37402405.943 6 150603983.739 6         7.259          36.750  
C 9  37327351.667 6 194373319.213 6     -1559.124          39.500    37327354.052 6 150301789.151 6     -1205.679          38.250  
C10  37265646.411 6 194052007.127 6       286.918          38.500    37265647.445 5 150053322.253 5       222.290          35.750  
C23  23128464.158 7 120435983.963 7     -1683.060          43.250                                                                  
C 2  37107594.919 6 193228988.470 6        13.486          39.000    37107591.845 6 149416898.917 6        10.406          36.750  
C 6  38381925.885 5 199864762.115 5     -1571.238          35.750    38381925.560 5 154548116.194 5     -1214.641          31.250  
C 8  37776514.434 4 196712223.36414      1545.583          28.000                                                                  
C28  22195045.953 7 115575426.905 7     -1597.404          44.750                                                                  
C27  22222858.248 7 115720260.733 7      1172.886          44.750                                                                  
> 2021  5 18  3  9 29.0000000  0 21                     
G 7  20315103.378 7 106756590.173 7       935.866          46.000    20315100.826 7  83186948.595 7       729.245          46.000  
G 8  22027925.818 6 115757530.721 6     -2255.188          41.750    22027927.881 6  90200684.910 6     -1757.291          41.500  
G 1  20355807.170 7 106970486.972 7      1927.826          46.750    20355809.404 7  83353634.219 7      1502.202          46.750  
G30  22673082.196 5 119147818.933 5      2835.742          31.500    22673078.030 4  92842463.80314      2209.669          29.750  
G21  20546649.738 7 107973375.085 7      -715.825          43.000    20546646.668 5  84135087.609 5      -557.785          33.250  
R10  19928555.225 7 106230039.123 7      1821.736          42.500                                                                  
R20  19902402.441 5 106426726.980 5     -2436.916          32.250    19902404.764 6  82776339.264 6     -1895.381          39.000  
R21  20144934.562 7 107799227.857 7      1934.231          44.750    20144934.833 6  83843855.923 6      1504.401          37.750  
C13  38558725.394 6 200785398.753 6      1558.145          37.250    38558733.227 5 155260017.910 5      1204.881          33.500  
C16  38854805.062 6 202327157.269 6     -1659.381          39.750    38854809.069 5 156452200.031 5     -1283.231          32.000  
C 3  36458153.025 6 189847165.524 6        38.423          41.000    36458151.171 6 146801869.380 6        29.358          38.000  
C 7  36692112.577 7 191065457.490 7       369.154          42.750    36692108.546 6 147743924.565 6       285.436          37.500  
C 1  37402402.992 7 194764121.368 7         8.602          42.250    37402404.345 6 150603976.961 6         6.610          37.250  
C 9  37327651.222 6 194374879.008 6     -1559.844          39.500    37327653.495 6 150302995.293 6     -1206.363          38.500  
C10  37265591.347 6 194051720.430 6       286.342          38.500    37265592.409 5 150053100.549 5       221.703          36.000  
C23  23128787.418 7 120437667.541 7     -1684.004          43.000                                                                  
C 2  37107592.386 6 193228975.518 6        12.925          39.250    37107589.243 6 149416888.910 6         9.767          36.750  
C 6  38382227.632 5 199866333.647 5     -1571.464          35.500    38382227.375 5 154549331.396 5     -1215.237          32.250  
C 8  37776217.655 4 196710678.70614      1545.973          27.750                                                                  
C28  22195352.800 7 115577024.880 7     -1598.436          44.750                                                                  
C27  22222633.094 7 115719088.451 7      1171.834          44.750                                                                  
> 2021  5 18  3  9 30.0000000  0 21                     
G 7  20314925.279 7 106755654.278 7       935.676          46.000    20314922.697 7  83186219.323 7       729.096          45.750  
G 8  22028354.826 6 115759786.003 6     -2255.294          42.000    22028357.110 7  90202442.266 7     -1757.374          42.500  
G 1  20355440.431 7 106968559.718 7      1927.190          46.750    20355442.674 7  83352132.463 7      1501.706          46.750  
G30  22672542.322 5 119144983.483 5      2834.936          32.250    22672544.439 4  92840254.327 4      2209.041          24.250  
G21  20546786.021 7 107974091.138 7      -716.393          43.000    20546783.342 5  84135645.581 5      -558.227          35.000  
R10  19928213.655 7 106228217.535 7      1821.304          43.000                                                                  
R20  19902857.933 5 106429163.723 5     -2436.988          32.750    19902860.495 6  82778234.510 6     -1895.436          39.000  
R21  20144573.227 7 107797293.859 7      1933.783          44.750    20144573.416 6  83842351.701 6      1504.053          37.750  
C13  38558426.149 6 200783840.488 6      1558.514          37.000    38558433.964 5 155258812.976 5      1205.055          33.250  
C16  38855123.820 6 202328816.770 6     -1659.447          39.500    38855127.567 5 156453483.213 5     -1282.649          32.000  
C 3  36458145.670 6 189847127.270 6        38.222          41.000    36458143.833 6 146801839.772 6        29.705          37.750  
C 7  36692041.686 7 191065088.249 7       369.201          42.500    36692037.596 6 147743639.047 6       285.531          37.750  
C 1  37402401.364 7 194764112.798 7         8.697          42.250    37402402.586 6 150603970.334 6         6.620          36.750  
C 9  37327950.835 6 194376439.084 6     -1560.019          39.250    37327953.149 6 150304201.643 6     -1206.346          38.500  
C10  37265536.278 6 194051433.831 6       286.541          38.000    37265537.381 5 150052878.947 5       221.706          35.750  
C23  23129110.833 7 120439351.685 7     -1684.236          43.000                                                                  
C 2  37107589.896 6 193228962.787 6        12.726          39.000    37107586.684 6 149416879.040 6        10.011          37.000  
C 6  38382529.420 5 199867905.418 5     -1571.857          35.750    38382529.243 5 154550546.794 5     -1215.508          32.250  
C 8  37775920.893 4 196709133.47514      1544.826          28.500                                                                  
C28  22195659.716 7 115578623.342 7     -1598.613          44.750                                                                  
C27  22222408.009 7 115717916.764 7      1171.548          44.750                                                                  
> 2021  5 18  3  9 31.0000000  0 21                     
G 7  20314747.319 7 106754719.049 7       934.962          46.000    20314744.691 7  83185490.562 7       728.537          46.000  
G 8  22028784.006 6 115762041.415 6     -2255.548          42.000    22028786.420 6  90204199.726 6     -1757.573          42.000  
G 1  20355073.818 7 106966633.154 7      1926.215          46.750    20355076.072 7  83350631.242 7      1500.946          46.750  
G30  22672002.313 5 119142148.364 5      2834.887          31.500    22672007.429 4  92838045.180 4      2209.003          30.000  
G21  20546922.336 7 107974807.859 7      -716.812          43.250    20546919.882 6  84136204.062 6      -558.555          36.000  
R10  19927871.969 7 106226396.452 7      1821.029          43.250                                                                  
R20  19903313.499 5 106431601.113 5     -2437.531          32.750    19903316.372 6  82780130.256 6     -1895.858          39.000  
R21  20144211.993 7 107795360.674 7      1932.882          44.750    20144212.143 6  83840848.113 6      1503.353          38.000  
C13  38558126.925 6 200782282.360 6      1558.396          37.000    38558134.785 5 155257608.152 5      1204.690          33.250  
C16  38855442.588 6 202330476.338 6     -1659.508          39.750    38855446.159 5 156454766.566 5     -1284.013          32.000  
C 3  36458138.314 6 189847089.065 6        38.101          41.000    36458136.551 6 146801810.241 6        29.506          37.750  
C 7  36691970.881 7 191064718.986 7       369.396          42.750    36691966.729 6 147743353.526 6       285.434          37.750  
C 1  37402399.727 7 194764104.318 7         8.277          42.250    37402400.907 6 150603963.788 6         6.476          36.750  
C 9  37328250.541 6 194377999.320 6     -1560.079          39.250    37328252.678 6 150305408.119 6     -1206.569          38.500  
C10  37265481.216 6 194051147.210 6       286.818          38.250    37265482.366 5 150052657.328 5       221.472          35.750  
C23  23129434.329 7 120441036.300 7     -1684.811          43.000                                                                  
C 2  37107587.439 6 193228950.110 6        12.674          38.750    37107584.265 6 149416869.260 6         9.713          36.750  
C 6  38382831.168 5 199869477.198 5     -1571.671          35.750    38382831.059 5 154551762.172 5     -1215.108          32.000  
C 8  37775624.145 4 196707588.36914      1545.550          28.250                                                                  
C28  22195966.727 7 115580222.162 7     -1598.737          44.750                                                                  
C27  22222183.070 7 115716745.568 7      1171.062          44.750                                                                  
> 2021  5 18  3  9 32.0000000  0 21                     
G 7  20314569.564 7 106753784.859 7       933.520          46.000    20314566.881 7  83184762.613 7       727.413          45.750  
G 8  22029213.223 6 115764297.257 6     -2256.255          41.750    22029215.730 6  90205957.519 6     -1758.124          41.750  
G 1  20354707.407 7 106964707.602 7      1924.961          46.750    20354709.660 7  83349130.814 7      1499.970          46.750  
G30  22671462.610 5 119139313.994 5      2833.947          31.750    22671468.212 4  92835836.550 4      2208.270          30.000  
G21  20547058.912 7 107975525.645 7      -718.349          43.000    20547056.813 5  84136763.376 5      -559.752          36.000  
R10  19927530.528 7 106224576.234 7      1819.534          43.250                                                                  
R20  19903769.704 5 106434039.536 5     -2438.602          32.750    19903772.355 6  82782026.808 6     -1896.691          39.000  
R21  20143850.938 7 107793428.602 7      1931.459          44.750    20143851.081 6  83839345.392 6      1502.246          37.500  
C13  38557827.718 6 200780724.684 6      1557.356          37.000    38557835.691 5 155256403.638 5      1204.533          33.750  
C16  38855761.471 6 202332136.288 6     -1660.295          39.500    38855764.789 5 156456050.097 5     -1283.760          32.250  
C 3  36458131.055 6 189847051.284 6        37.337          41.250    36458129.306 6 146801781.016 6        28.852          37.750  
C 7  36691900.097 7 191064350.057 7       368.600          42.750    36691895.878 6 147743068.235 6       285.127          37.750  
C 1  37402398.211 7 194764096.235 7         7.600          42.250    37402399.471 6 150603957.533 6         5.751          37.000  
C 9  37328550.214 6 194379560.003 6     -1560.966          39.250    37328552.484 6 150306614.932 6     -1206.923          38.250  
C10  37265426.215 6 194050860.906 6       286.115          38.250    37265427.370 6 150052435.939 6       221.183          36.250  
C23  23129757.973 7 120442721.683 7     -1685.767          43.000                                                                  
C 2  37107585.041 6 193228937.835 6        11.993          38.750    37107581.936 6 149416859.767 6         9.005          36.750  
C 6  38383133.276 5 199871049.418 5     -1573.039          35.250    38383133.041 5 154552977.925 5     -1216.039          31.500  
C 8  37775327.518 4 196706042.79114      1544.164          28.000                                                                  
C28  22196273.859 7 115581821.709 7     -1600.191          44.750                                                                  
C27  22221958.235 7 115715575.192 7      1169.825          44.500                                                                  
> 2021  5 18  3  9 33.0000000  0 19                     
G 7  20314391.922 7 106752851.402 7       933.195          46.000    20314389.226 7  83184035.240 7       727.160          46.000  
G 8  22029642.429 6 115766553.273 6     -2255.856          41.750    22029645.045 6  90207715.450 6     -1757.813          42.000  
G 1  20354341.144 7 106962782.798 7      1924.425          46.750    20354343.387 7  83347630.966 7      1499.552          47.000  
G21  20547195.659 7 107976244.183 7      -718.689          43.250    20547193.528 5  84137323.285 5      -560.016          35.250  
R10  19927189.080 7 106222756.558 7      1819.373          43.500                                                                  
R20  19904226.069 5 106436478.689 5     -2439.638          33.000    19904228.477 6  82783923.930 6     -1897.497          39.250  
R21  20143489.945 7 107791497.385 7      1930.829          44.750    20143490.164 6  83837843.335 6      1501.756          37.750  
C13  38557528.728 6 200779167.181 6      1557.828          37.000    38557536.753 5 155255199.310 5      1204.265          33.250  
C16  38856080.208 6 202333796.374 6     -1659.871          39.500    38856083.410 5 156457333.746 5     -1283.564          32.000  
C 3  36458123.815 6 189847013.612 6        37.618          41.000    36458122.092 6 146801751.873 6        29.326          37.750  
C 7  36691829.227 7 191063981.207 7       369.019          42.750    36691825.102 6 147742783.042 6       284.968          37.750  
C 1  37402396.648 7 194764088.257 7         7.967          42.250    37402397.733 6 150603951.350 6         6.094          37.000  
C 9  37328849.907 6 194381120.930 6     -1560.952          39.250    37328852.201 6 150307821.918 6     -1206.860          38.250  
C10  37265371.251 6 194050574.621 6       286.676          38.250    37265372.428 5 150052214.578 5       221.524          35.750  
C23  23130081.723 7 120444407.587 7     -1686.186          43.000                                                                  
C 2  37107582.713 6 193228925.694 6        11.873          39.000    37107579.556 6 149416850.379 6         9.218          36.750  
C 6  38383435.151 5 199872621.699 5     -1571.781          35.750    38383435.029 5 154554193.732 5     -1215.867          32.000  
C28  22196581.090 7 115583421.651 7     -1600.017          45.000                                                                  
C27  22221733.552 7 115714405.351 7      1169.570          44.500                                                                  
> 2021  5 18  3  9 34.0000000  0 20                     
G 7  20314214.303 7 106751918.050 7       933.205          46.000    20314211.566 7  83183307.950 7       727.169          45.750  
G 8  22030071.661 6 115768808.834 6     -2255.487          41.750    22030074.187 6  90209473.025 6     -1757.526          42.000  
G 1  20353974.878 7 106960858.032 7      1924.752          46.750    20353977.111 7  83346131.148 7      1499.807          47.000  
G21  20547332.424 7 107976962.801 7      -718.716          43.000    20547330.175 6  84137883.235 6      -560.042          37.250  
R10  19926847.712 7 106220936.758 7      1819.846          43.750                                                                  
R20  19904682.381 5 106438917.867 5     -2439.431          33.250    19904684.594 6  82785821.067 6     -1897.335          39.000  
R21  20143129.176 7 107789566.341 7      1930.931          44.750    20143129.399 6  83836341.413 6      1501.836          38.000  
C13  38557229.503 6 200777609.176 6      1558.088          36.750    38557237.544 5 155253994.521 5      1205.111          33.250  
C16  38856398.898 6 202335455.892 6     -1659.421          39.500    38856402.164 5 156458617.019 5     -1283.059          31.750  
C 3  36458116.464 6 189846975.387 6        38.426          41.000    36458114.774 6 146801722.311 6        29.959          37.750  
C 7  36691758.328 7 191063611.751 7       369.703          42.250    36691754.161 6 147742497.324 6       285.985          37.750  
C 1  37402395.013 7 194764079.756 7         8.596          42.250    37402395.977 6 150603944.765 6         6.842          37.000  
C 9  37329149.581 6 194382681.346 6     -1560.273          39.250    37329151.899 6 150309028.529 6     -1206.416          38.500  
C10  37265316.170 6 194050287.792 6       287.127          38.250    37265317.336 5 150051992.755 5       222.123          35.750  
C23  23130405.445 7 120446093.307 7     -1685.395          43.000                                                                  
C 2  37107580.265 6 193228912.983 6        12.905          39.250    37107576.979 6 149416840.533 6         9.994          36.750  
C 6  38383736.943 5 199874193.444 5     -1571.594          35.750    38383736.861 5 154555409.080 5     -1215.081          31.250  
C 8  37774734.315 4 196702953.74324      1544.943          28.250                                                                  
C28  22196888.236 7 115585021.360 7     -1599.748          44.750                                                                  
C27  22221508.795 7 115713235.361 7      1170.083          44.500                                                                  
> 2021  5 18  3  9 35.0000000  0 20                     
G 7  20314036.786 7 106750985.191 7       932.440          46.000    20314034.026 7  83182581.045 7       726.573          46.000  
G 8  22030500.884 6 115771064.318 6     -2255.748          41.500    22030503.500 6  90211230.544 6     -1757.728          42.000  
G 1  20353608.709 7 106958933.784 7      1923.424          46.750    20353610.939 7  83344631.732 7      1498.772          47.000  
G21  20547469.295 7 107977681.939 7      -719.712          43.250    20547466.934 5  84138443.595 5      -560.816          35.750  
R10  19926506.379 7 106219117.292 7      1818.909          43.750                                                                  
R20  19905138.986 5 106441357.521 5     -2440.276          33.000    19905140.773 6  82787718.574 6     -1897.994          39.000  
R21  20142768.457 7 107787635.909 7      1929.986          44.750    20142768.755 6  83834839.966 6      1501.101          38.250  
C13  38556930.300 6 200776051.130 6      1557.949          36.750    38556938.317 5 155252789.766 5      1204.240          33.250  
C16  38856717.544 6 202337115.292 6     -1659.879          39.250    38856720.715 5 156459900.196 5     -1283.740          31.500  
C 3  36458109.111 6 189846937.052 6        38.228          41.000    36458107.437 6 146801692.678 6        29.709          38.000  
C 7  36691687.371 7 191063242.122 7       369.401          42.250    36691683.092 6 147742211.507 6       285.629          37.750  
C 1  37402393.426 7 194764071.131 7         8.387          42.250    37402394.470 6 150603938.117 6         6.286          37.000  
C 9  37329449.273 6 194384241.732 6     -1560.491          39.500    37329451.618 6 150310235.153 6     -1206.920          38.500  
C10  37265261.038 6 194050000.732 6       286.549          38.250    37265262.212 5 150051770.782 5       221.813          35.750  
C23  23130729.193 7 120447779.333 7     -1686.631          43.000                                                                  
C 2  37107577.808 6 193228900.145 6        12.737          39.000    37107574.448 6 149416830.615 6         9.683          37.000  
C 6  38384038.860 6 199875765.070 6     -1572.104          36.500    38384038.619 5 154556624.367 5     -1216.004          31.750  
C 8  37774437.672 4 196701409.90114      1544.296          28.250                                                                  
C28  22197195.468 7 115586621.238 7     -1600.330          44.750                                                                  
C27  22221284.115 7 115712065.694 7      1169.161          44.250                                                                  
> 2021  5 18  3  9 36.0000000  0 20                     
G 7  20313859.430 7 106750053.103 7       931.476          46.000    20313856.653 7  83181854.741 7       725.823          46.000  
G 8  22030930.167 6 115773319.965 6     -2255.710          41.000    22030932.781 6  90212988.195 6     -1757.697          41.750  
G 1  20353242.678 7 106957010.235 7      1923.139          46.750    20353244.895 7  83343132.863 7      1498.549          46.750  
G21  20547606.331 7 107978401.819 7      -720.527          43.000    20547604.258 5  84139004.541 5      -561.450          35.000  
R10  19926165.126 7 106217298.378 7      1818.342          44.000                                                                  
R20  19905595.113 5 106443797.868 5     -2440.532          33.500    19905597.160 6  82789616.619 6     -1898.193          39.000  
R21  20142407.869 7 107785706.335 7      1929.108          44.750    20142408.149 6  83833339.182 6      1500.416          38.000  
C13  38556631.114 6 200774493.180 6      1557.817          37.750    38556639.254 5 155251585.089 5      1204.230          34.500  
C16  38857036.278 6 202338774.797 6     -1659.839          39.250    38857039.301 5 156461183.424 5     -1283.437          32.000  
C 3  36458101.794 6 189846898.873 6        37.762          41.000    36458100.107 6 146801663.166 6        29.124          37.250  
C 7  36691616.373 7 191062872.549 7       369.213          42.250    36691612.039 6 147741925.728 6       285.457          37.500  
C 1  37402391.753 7 194764062.649 7         8.184          42.000    37402392.832 6 150603931.544 6         6.249          37.250  
C 9  37329748.962 6 194385802.357 6     -1561.244          38.750    37329751.330 6 150311441.886 6     -1206.959          38.750  
C10  37265205.912 6 194049713.684 6       286.681          38.000    37265207.088 5 150051548.818 5       221.922          36.000  
C23  23131053.136 7 120449465.831 7     -1686.830          43.000                                                                  
C 2  37107575.341 6 193228887.491 6        11.998          38.750    37107572.126 6 149416820.810 6         9.382          37.000  
C 6  38384340.702 5 199877336.788 5     -1572.075          35.000    38384340.481 5 154557839.711 5     -1215.443          31.750  
C 8  37774141.033 4 196699865.43324      1544.250          28.750                                                                  
C28  22197502.765 7 115588221.555 7     -1601.006          44.750                                                                  
C27  22221059.545 7 115710896.553 7      1168.588          44.000                                                                  
> 2021  5 18  3  9 37.0000000  0 20                     
G 7  20313682.226 7 106749121.798 7       931.030          45.500    20313679.423 7  83181129.050 7       725.476          45.250  
G 8  22031359.437 6 115775575.876 6     -2255.790          40.500    22031362.133 6  90214746.049 6     -1757.760          40.000  
G 1  20352876.808 7 106955087.508 7      1922.580          46.750    20352879.004 7  83341634.632 7      1498.113          46.750  
G21  20547743.468 7 107979122.510 7      -720.779          43.000    20547741.720 5  84139566.127 5      -561.644          34.000  
R10  19925824.042 7 106215480.089 7      1818.093          43.750                                                                  
R20  19906052.062 5 106446238.961 5     -2441.257          33.250    19906053.561 6  82791515.244 6     -1898.757          39.250  
R21  20142047.400 7 107783777.658 7      1928.380          44.750    20142047.761 6  83831839.097 6      1499.850          38.000  
C13  38556332.041 6 200772935.519 6      1557.577          37.000    38556340.256 5 155250380.550 5      1204.675          33.750  
C16  38857354.913 6 202340434.442 6     -1659.242          39.500    38857358.053 5 156462466.718 5     -1282.949          32.250  
C 3  36458094.500 6 189846860.831 6        38.255          40.750    36458092.851 6 146801633.734 6        29.596          37.500  
C 7  36691545.435 7 191062503.074 7       369.729          42.250    36691541.185 6 147741640.004 6       286.071          37.250  
C 1  37402390.152 6 194764054.318 6         8.438          41.750    37402391.259 6 150603925.078 6         6.839          37.500  
C 9  37330048.734 6 194387363.178 6     -1560.489          39.750    37330051.048 6 150312648.839 6     -1207.102          38.250  
C10  37265150.789 6 194049426.728 6       286.894          38.250    37265151.992 5 150051326.957 5       221.634          35.750  
C23  23131377.127 7 120451152.931 7     -1687.436          42.500                                                                  
C 2  37107572.889 6 193228874.969 6        12.416          38.750    37107569.740 6 149416811.111 6         9.765          37.000  
C 6  38384642.702 6 199878908.711 6     -1571.915          36.000    38384642.265 4 154559055.238 4     -1215.916          29.250  
C 8  37773844.491 4 196698321.13524      1544.403          28.250                                                                  
C28  22197810.144 7 115589822.307 7     -1600.706          44.750                                                                  
C27  22220835.077 7 115709727.988 7      1168.330          44.000                                                                  
> 2021  5 18  3  9 38.0000000  0 20                     
G 7  20313505.101 7 106748191.004 7       930.652          45.000    20313502.282 7  83180403.756 7       725.183          45.000  
G 8  22031788.612 6 115777831.716 6     -2255.689          40.750    22031791.374 6  90216503.839 6     -1757.682          40.500  
G 1  20352511.021 7 106953165.268 7      1921.979          46.750    20352513.200 7  83340136.781 7      1497.645          46.750  
G21  20547880.676 7 107979843.720 7      -721.360          42.750    20547878.291 5  84140128.109 5      -562.099          35.250  
R10  19925483.014 7 106213662.109 7      1818.076          43.500                                                                  
R20  19906508.536 5 106448680.599 5     -2442.227          33.250    19906510.173 6  82793414.293 6     -1899.511          39.250  
R21  20141687.073 7 107781849.584 7      1927.948          45.000    20141687.498 6  83830339.482 6      1499.514          38.000  
C13  38556032.966 6 200771377.778 6      1558.133          37.000    38556041.240 5 155249176.006 5      1204.405          33.500  
C16  38857673.679 6 202342094.035 6     -1659.596          39.250    38857676.578 5 156463750.059 5     -1283.314          32.000  
C 3  36458087.176 6 189846822.700 6        38.403          41.000    36458085.560 6 146801604.255 6        29.666          37.750  
C 7  36691474.466 7 191062133.459 7       369.901          42.250    36691470.196 6 147741354.208 6       285.957          37.000  
C 1  37402388.527 7 194764045.884 7         8.776          42.250    37402389.689 5 150603918.591 5         6.716          36.000  
C 9  37330348.502 6 194388923.998 6     -1561.068          39.000    37330350.874 6 150313855.741 6     -1206.766          38.250  
C10  37265095.639 6 194049139.628 6       287.126          38.250    37265096.828 5 150051104.921 5       222.329          35.750  
C23  23131701.161 7 120452840.302 7     -1687.549          42.750                                                                  
C 2  37107570.394 6 193228862.321 6        12.874          38.500    37107567.358 6 149416801.359 6         9.841          37.000  
C 6  38384944.561 5 199880480.471 5     -1571.387          36.000    38384943.958 4 154560270.586 4     -1215.597          29.750  
C 8  37773547.995 4 196696776.95524      1543.684          28.500                                                                  
C28  22198117.571 7 115591423.277 7     -1600.926          44.750                                                                  
C27  22220610.688 7 115708559.747 7      1168.124          43.500                                                                  
> 2021  5 18  3  9 39.0000000  0 20                     
G 7  20313328.028 7 106747260.555 7       930.248          44.750    20313325.229 7  83179678.732 7       724.868          44.750  
G 8  22032217.825 6 115780087.307 6     -2255.735          40.750    22032220.803 6  90218261.445 6     -1757.716          41.000  
G 1  20352145.305 7 106951243.351 7      1921.646          46.500    20352147.455 7  83338639.186 7      1497.387          46.500  
G21  20548017.927 7 107980565.270 7      -721.618          42.500    20548015.690 5  84140690.352 5      -562.299          33.750  
R10  19925142.032 7 106211844.276 7      1817.640          43.250                                                                  
R20  19906965.423 5 106451122.446 5     -2442.021          33.000    19906966.770 6  82795313.509 6     -1899.351          39.000  
R21  20141326.876 7 107779921.945 7      1927.344          45.000    20141327.255 6  83828840.211 6      1499.045          37.750  
C13  38555733.796 6 200769819.740 6      1557.974          37.000    38555742.016 5 155247971.291 5      1204.608          33.250  
C16  38857992.305 6 202343753.320 6     -1659.205          39.250    38857995.229 5 156465033.082 5     -1282.909          31.500  
C 3  36458079.801 6 189846784.277 6        38.570          41.000    36458078.236 6 146801574.556 6        29.807          37.750  
C 7  36691403.410 7 191061763.449 7       370.341          42.250    36691399.067 6 147741068.108 6       286.165          37.250  
C 1  37402386.850 7 194764037.162 7         8.956          42.000    37402388.106 6 150603911.833 6         7.018          36.250  
C 9  37330648.177 6 194390484.570 6     -1560.667          39.000    37330650.571 6 150315062.477 6     -1206.494          38.750  
C10  37265040.446 6 194048852.102 6       287.678          38.750    37265041.630 5 150050882.608 5       222.481          35.750  
C23  23132025.217 7 120454527.737 7     -1687.516          43.000                                                                  
C 2  37107567.902 6 193228849.414 6        13.049          38.500    37107564.869 6 149416791.345 6        10.294          37.250  
C 6  38385246.297 5 199882051.939 5     -1571.367          35.750    38385245.557 4 154561485.718 4     -1215.069          29.750  
C 8  37773251.345 4 196695232.47514      1544.894          28.000                                                                  
C28  22198424.993 7 115593024.251 7     -1601.174          44.750                                                                  
C27  22220386.269 7 115707391.600 7      1168.049          43.500                                                                  
> 2021  5 18  3  9 40.0000000  0 20                     
G 7  20313151.021 7 106746330.446 7       929.631          44.750    20313148.270 7  83178953.972 7       724.387          44.750  
G 8  22032647.051 6 115782342.612 6     -2255.238          41.000    22032650.027 6  90220018.832 6     -1757.326          41.250  
G 1  20351779.640 7 106949321.744 7      1921.245          46.750    20351781.779 7  83337141.833 7      1497.074          46.750  
G21  20548155.272 7 107981287.161 7      -722.286          42.500    20548152.973 5  84141252.872 5      -562.818          34.000  
R10  19924801.071 7 106210026.576 7      1817.390          43.250                                                                  
R20  19907421.898 5 106453564.618 5     -2442.109          32.250    19907423.425 6  82797212.977 6     -1899.419          38.750  
R21  20140966.695 7 107777994.732 7      1926.698          44.750    20140967.158 6  83827341.273 6      1498.544          38.000  
C13  38555434.610 6 200768261.485 6      1558.250          37.000    38555442.907 5 155246766.325 5      1204.835          32.500  
C16  38858310.958 6 202345412.274 6     -1658.956          39.250    38858313.774 5 156466315.909 5     -1282.693          30.500  
C 3  36458072.375 6 189846745.570 6        38.685          41.000    36458070.829 6 146801544.624 6        29.703          37.750  
C 7  36691332.300 7 191061393.120 7       370.282          42.500    36691328.028 6 147740781.717 6       286.369          37.250  
C 1  37402385.102 7 194764028.164 7         8.885          42.000    37402386.568 6 150603904.857 6         6.829          36.250  
C 9  37330947.820 6 194392044.927 6     -1560.434          39.000    37330950.246 6 150316269.076 6     -1206.864          38.500  
C10  37264985.156 6 194048564.220 6       287.949          38.750    37264986.350 5 150050659.990 5       222.466          35.500  
C23  23132349.297 7 120456215.280 7     -1687.785          42.500                                                                  
C 2  37107565.361 6 193228836.213 6        13.025          38.500    37107562.348 6 149416781.149 6        10.061          37.000  
C 6  38385547.946 6 199883623.101 6     -1571.190          36.250    38385547.066 4 154562700.640 4     -1215.166          29.750  
C 8  37772954.750 4 196693687.93524      1543.653          28.250                                                                  
C28  22198732.465 7 115594625.221 7     -1601.201          45.000                                                                  
C27  22220161.890 7 115706223.613 7      1167.630          43.500                                                                  
> 2021  5 18  3  9 41.0000000  0 20                     
G 7  20312974.090 7 106745400.840 7       929.089          45.000    20312971.388 7  83178229.603 7       723.965          45.000  
G 8  22033076.327 6 115784597.932 6     -2255.659          41.000    22033079.231 6  90221776.235 6     -1757.653          41.000  
G 1  20351414.067 7 106947400.644 7      1920.888          46.750    20351416.182 7  83335644.871 7      1496.796          46.500  
G21  20548292.696 7 107982009.583 7      -722.689          42.500    20548290.530 5  84141815.802 5      -563.132          34.750  
R10  19924460.133 7 106208209.215 7      1817.081          43.000                                                                  
R20  19907878.598 5 106456007.344 5     -2443.287          32.250    19907880.136 6  82799112.876 6     -1900.335          39.000  
R21  20140606.644 7 107776068.156 7      1926.216          44.750    20140607.152 6  83825842.829 6      1498.170          38.000  
C13  38555135.397 6 200766703.199 6      1558.412          37.250    38555143.564 5 155245561.334 5      1205.241          32.750  
C16  38858629.622 6 202347071.163 6     -1658.971          39.500    38858632.212 5 156467598.636 5     -1282.938          31.250  
C 3  36458064.937 6 189846706.762 6        38.875          41.250    36458063.375 6 146801514.606 6        30.151          37.500  
C 7  36691261.170 7 191061022.613 7       370.463          42.500    36691256.986 6 147740495.220 6       286.656          36.750  
C 1  37402383.398 6 194764019.069 6         8.945          42.000    37402384.752 6 150603897.839 6         6.997          36.000  
C 9  37331247.391 6 194393605.290 6     -1560.306          39.000    37331249.962 6 150317475.623 6     -1206.493          38.250  
C10  37264929.845 6 194048276.140 6       288.354          38.750    37264931.037 5 150050437.234 5       222.964          35.500  
C23  23132673.379 7 120457903.114 7     -1687.948          42.500                                                                  
C 2  37107562.781 6 193228822.888 6        13.535          38.750    37107559.760 6 149416770.853 6        10.435          36.750  
C 6  38385849.720 6 199885194.143 6     -1570.820          36.250    38385848.894 4 154563915.468 4     -1214.791          29.000  
C 8  37772658.150 4 196692143.36124      1544.750          28.750                                                                  
C28  22199039.958 7 115596226.404 7     -1601.351          45.000                                                                  
C27  22219937.573 7 115705055.918 7      1167.555          43.500                                                                  
> 2021  5 18  3  9 42.0000000  0 20                     
G 7  20312797.324 7 106744472.073 7       928.409          45.000    20312794.672 7  83177505.894 7       723.437          45.250  
G 8  22033505.548 6 115786853.451 6     -2255.489          41.000    22033508.396 6  90223533.790 6     -1757.520          41.250  
G 1  20351048.652 7 106945480.354 7      1920.052          46.750    20351050.739 7  83334148.542 7      1496.144          46.750  
G21  20548430.276 7 107982732.840 7      -723.665          42.000    20548428.029 5  84142379.384 5      -563.892          33.250  
R10  19924119.275 7 106206392.489 7      1816.551          42.750                                                                  
R20  19908335.399 5 106458450.792 5     -2443.831          32.250    19908337.040 6  82801013.334 6     -1900.758          39.000  
R21  20140246.807 7 107774142.498 7      1925.347          45.000    20140247.284 6  83824345.099 6      1497.494          38.000  
C13  38554836.105 6 200765145.147 6      1557.942          37.250    38554844.425 5 155244356.552 5      1205.059          32.750  
C16  38858948.217 6 202348730.217 6     -1659.217          39.000    38858950.876 5 156468881.512 5     -1282.770          30.750  
C 3  36458057.531 6 189846668.146 6        38.793          40.750    36458055.979 6 146801484.759 6        29.893          37.750  
C 7  36691190.072 7 191060652.229 7       370.662          42.250    36691185.986 6 147740208.819 6       286.485          37.000  
C 1  37402381.671 6 194764010.151 6         9.024          41.750    37402383.189 5 150603890.955 5         6.813          35.750  
C 9  37331547.077 6 194395165.909 6     -1560.585          38.750    37331549.645 6 150318682.393 6     -1206.861          38.500  
C10  37264874.569 6 194047988.210 6       287.947          38.750    37264875.755 5 150050214.578 5       222.761          35.500  
C23  23132997.657 7 120459591.524 7     -1688.382          42.500                                                                  
C 2  37107560.259 6 193228809.794 6        12.930          38.500    37107557.337 6 149416760.701 6        10.329          37.000  
C 6  38386151.488 5 199886765.380 5     -1571.249          35.750    38386150.831 4 154565130.468 4     -1215.164          29.750  
C 8  37772361.588 4 196690599.02624      1544.142          29.000                                                                  
C28  22199347.571 7 115597828.055 7     -1601.821          44.750                                                                  
C27  22219713.356 7 115703888.828 7      1166.984          43.250                                                                  
> 2021  5 18  3  9 43.0000000  0 21                     
G 7  20312620.741 7 106743544.092 7       927.355          45.250    20312618.082 7  83176782.800 7       722.617          45.750  
G 8  22033934.772 6 115789109.215 6     -2255.892          41.250    22033937.628 6  90225291.529 6     -1757.834          40.750  
G 1  20350683.391 7 106943560.846 7      1919.159          46.500    20350685.449 7  83332652.821 7      1495.449          46.250  
G30  22665532.530 5 119108170.56815      2830.786          32.250                                                                  
G21  20548567.929 6 107983456.886 6      -724.531          42.000    20548565.269 5  84142943.580 5      -564.569          32.750  
R10  19923778.585 7 106204576.386 7      1815.475          43.250                                                                  
R20  19908792.721 5 106460895.030 5     -2444.750          32.750    19908794.075 6  82802914.412 6     -1901.471          39.000  
R21  20139887.088 7 107772217.750 7      1924.148          45.250    20139887.642 6  83822848.074 6      1496.561          38.000  
C13  38554536.939 6 200763587.313 6      1557.319          37.250    38554545.202 5 155243151.947 5      1204.439          32.750  
C16  38859266.827 6 202350389.411 6     -1659.224          39.250    38859269.574 5 156470164.518 5     -1282.968          30.250  
C 3  36458050.146 6 189846629.734 6        38.176          41.000    36458048.616 6 146801455.028 6        29.618          37.250  
C 7  36691118.948 7 191060281.971 7       370.002          42.250    36691114.923 6 147739922.506 6       286.247          36.750  
C 1  37402379.977 6 194764001.421 6         8.672          42.000    37402381.576 5 150603884.197 5         6.715          35.750  
C 9  37331846.814 6 194396726.806 6     -1561.379          38.750    37331849.408 6 150319889.351 6     -1207.083          38.500  
C10  37264819.301 6 194047700.354 6       287.852          38.750    37264820.486 5 150049991.994 5       222.484          35.750  
C23  23133321.920 7 120461280.500 7     -1689.629          42.750                                                                  
C 2  37107557.714 6 193228796.845 6        12.838          38.250    37107554.839 6 149416750.712 6         9.478          36.500  
C 6  38386453.362 5 199888336.755 5     -1571.283          35.750    38386452.414 4 154566345.565 4     -1215.436          29.750  
C 8  37772065.141 4 196689055.11724      1542.542          28.750                                                                  
C28  22199655.257 7 115599430.187 7     -1602.479          45.000                                                                  
C27  22219489.278 7 115702722.338 7      1166.018          43.250                                                                  
> 2021  5 18  3  9 44.0000000  0 21                     
G 7  20312444.340 7 106742617.203 7       926.427          44.750    20312441.721 7  83176060.554 7       721.894          44.750  
G 8  22034364.207 6 115791365.479 6     -2256.277          41.000    22034367.043 6  90227049.663 6     -1758.134          40.750  
G 1  20350318.326 7 106941642.407 7      1917.889          46.500    20350320.355 7  83331157.933 7      1494.459          46.500  
G30  22664996.176 5 119105339.655 5      2829.090          32.000                                                                  
G21  20548705.886 7 107984182.014 7      -725.515          42.250    20548703.044 5  84143508.596 5      -565.337          35.000  
R10  19923438.060 7 106202761.178 7      1814.811          42.750                                                                  
R20  19909250.068 5 106463340.347 5     -2445.899          33.000    19909251.358 6  82804816.328 6     -1902.364          39.250  
R21  20139527.649 7 107770294.154 7      1923.047          45.000    20139528.140 6  83821351.943 6      1495.704          38.000  
C13  38554237.889 6 200762029.946 6      1557.074          37.750    38554246.194 5 155241947.721 5      1204.014          33.000  
C16  38859585.557 6 202352049.083 6     -1659.715          39.250    38859588.285 5 156471447.869 5     -1283.315          31.000  
C 3  36458042.856 6 189846591.746 6        37.673          40.750    36458041.302 6 146801425.674 6        29.068          37.500  
C 7  36691047.902 7 191059912.075 7       369.763          42.250    36691043.849 6 147739636.502 6       285.911          37.250  
C 1  37402378.386 7 194763993.137 7         8.252          42.000    37402379.998 6 150603877.808 6         6.185          36.250  
C 9  37332146.647 6 194398288.203 6     -1561.800          38.250    37332149.348 6 150321096.720 6     -1207.517          38.500  
C10  37264764.102 6 194047412.856 6       287.438          39.000    37264765.300 6 150049769.678 6       222.198          36.000  
C23  23133646.434 7 120462970.269 7     -1690.160          42.750                                                                  
C 2  37107555.273 6 193228784.375 6        12.342          38.000    37107552.486 6 149416741.044 6         9.561          36.500  
C 6  38386755.116 6 199889908.574 6     -1571.836          36.500    38386754.239 4 154567560.975 4     -1215.560          29.750  
C 8  37771768.781 4 196687511.59824      1543.061          29.250                                                                  
C28  22199963.039 7 115601033.056 7     -1603.212          44.750                                                                  
C27  22219265.375 7 115701556.689 7      1165.243          43.500                                                                  
> 2021  5 18  3  9 45.0000000  0 21                     
G 7  20312268.061 7 106741691.044 7       925.020          44.750    20312265.474 7  83175338.868 7       720.796          45.000  
G 8  22034793.549 6 115793621.911 6     -2257.168          41.500    22034796.418 6  90228807.920 6     -1758.831          41.500  
G 1  20349953.398 7 106939724.669 7      1916.842          46.750    20349955.395 7  83329663.590 7      1493.643          46.500  
G30  22664451.402 5 119102509.638 5      2828.846          32.750                                                                  
G21  20548843.900 7 107984907.887 7      -726.869          42.250    20548841.185 5  84144074.221 5      -566.390          32.750  
R10  19923097.650 7 106200946.521 7      1813.865          42.750                                                                  
R20  19909707.649 5 106465786.348 5     -2446.868          33.000    19909708.735 6  82806718.781 6     -1903.118          39.250  
R21  20139168.357 7 107768371.389 7      1921.637          45.000    20139168.727 6  83819856.456 6      1494.606          38.250  
C13  38553938.877 6 200760472.760 6      1556.358          37.000    38553947.069 5 155240743.536 5      1203.581          32.750  
C16  38859904.238 6 202353708.848 6     -1660.671          39.000    38859906.957 5 156472731.281 5     -1283.849          30.750  
C 3  36458035.565 6 189846553.862 6        37.107          41.000    36458034.058 6 146801396.377 6        28.719          37.500  
C 7  36690976.876 7 191059542.221 7       369.306          42.500    36690972.808 6 147739350.512 6       285.382          37.000  
C 1  37402376.821 6 194763984.979 6         7.445          42.000    37402378.530 6 150603871.483 6         5.800          36.500  
C 9  37332446.549 6 194399849.762 6     -1562.217          38.750    37332449.270 6 150322304.213 6     -1208.037          38.500  
C10  37264708.904 6 194047125.364 6       287.153          39.000    37264710.088 6 150049547.375 6       221.746          36.000  
C23  23133971.050 7 120464660.566 7     -1691.381          43.000                                                                  
C 2  37107552.803 6 193228771.982 6        11.569          38.250    37107550.104 6 149416731.481 6         8.849          36.250  
C 6  38387056.976 6 199891480.525 6     -1572.751          36.250    38387056.021 4 154568776.467 4     -1215.926          29.250  
C 8  37771472.354 4 196685968.35824      1542.902          28.500                                                                  
C28  22200270.978 7 115602636.333 7     -1604.230          44.750                                                                  
C27  22219041.575 7 115700391.560 7      1164.322          43.250                                                                  
> 2021  5 18  3  9 46.0000000  0 21                     
G 7  20312092.309 7 106740767.537 7       922.142          44.750    20312089.737 7  83174619.248 7       718.552          44.250  
G 8  22035223.306 6 115795880.398 6     -2259.197          41.250    22035226.167 6  90230567.771 6     -1760.414          41.250  
G 1  20349588.982 7 106937809.584 7      1914.000          46.500    20349590.949 7  83328171.316 7      1491.428          46.250  
G30  22663916.041 5 119099681.970 5      2826.526          33.500    22663919.516 5  92804967.14515      2202.488          32.500  
G21  20548982.514 7 107985636.408 7      -729.718          42.000    20548979.773 5  84144641.894 5      -568.612          32.000  
R10  19922757.733 7 106199134.354 7      1811.156          43.000                                                                  
R20  19910165.579 5 106468235.001 5     -2449.992          33.250    19910166.684 6  82808623.290 6     -1905.547          39.250  
R21  20138809.571 7 107766451.404 7      1918.692          45.000    20138809.900 6  83818363.131 6      1492.315          38.000  
C13  38553640.239 6 200758917.612 6      1554.204          37.250    38553648.552 5 155239541.050 5      1201.948          33.000  
C16  38860223.323 6 202355370.574 6     -1662.502          39.500    38860226.185 5 156474016.282 5     -1285.830          31.000  
C 3  36458028.680 6 189846517.977 6        35.043          41.000    36458027.198 6 146801368.627 6        26.953          37.250  
C 7  36690906.216 7 191059174.325 7       367.032          42.250    36690902.160 6 147739066.015 6       284.018          37.250  
C 1  37402375.722 7 194763978.827 7         5.108          42.000    37402377.428 6 150603866.713 6         4.109          36.250  
C 9  37332746.861 6 194401413.444 6     -1564.572          38.250    37332749.564 6 150323513.353 6     -1209.798          38.250  
C10  37264654.086 6 194046839.844 6       284.522          38.750    37264655.282 5 150049326.592 5       220.203          35.750  
C23  23134296.106 7 120466353.240 7     -1693.798          43.000                                                                  
C 2  37107550.780 6 193228761.620 6         9.498          38.000    37107548.093 6 149416723.434 6         7.350          36.250  
C 6  38387359.184 6 199893054.416 6     -1574.318          36.250    38387358.481 4 154569993.518 4     -1217.518          29.250  
C 8  37771176.383 4 196684427.257 4      1541.593          28.250                                                                  
C28  22200579.349 7 115604241.893 7     -1606.465          45.000                                                                  
C27  22218818.247 7 115699228.864 7      1161.730          43.000                                                                  
> 2021  5 18  3  9 47.0000000  0 21                     
G 7  20311916.732 7 106739844.879 7       923.094          45.000    20311914.169 7  83173900.292 7       719.294          45.250  
G 8  22035653.196 6 115798139.199 6     -2258.061          41.500    22035655.988 6  90232327.867 6     -1759.530          41.000  
G 1  20349224.714 7 106935895.330 7      1914.654          46.750    20349226.651 7  83326679.691 7      1491.939          47.000  
G30  22663377.845 5 119096854.910 5      2827.906          33.000    22663380.680 4  92802764.261 4      2203.563          28.750  
G21  20549121.300 7 107986365.783 7      -729.075          42.250    20549118.523 5  84145210.249 5      -568.106          31.500  
R10  19922417.919 7 106197322.845 7      1811.973          43.000                                                                  
R20  19910623.789 5 106470684.496 5     -2449.618          32.750    19910624.784 6  82810528.457 6     -1905.256          39.250  
R21  20138450.991 7 107764532.386 7      1919.396          44.750    20138451.243 6  83816870.563 6      1492.864          38.000  
C13  38553341.691 6 200757362.709 6      1555.815          37.250    38553349.970 5 155238338.709 5      1202.714          33.000  
C16  38860542.460 6 202357032.534 6     -1661.039          39.500    38860545.341 5 156475301.385 5     -1284.406          31.250  
C 3  36458021.827 6 189846482.323 6        36.372          41.000    36458020.383 6 146801341.064 6        28.007          37.250  
C 7  36690835.613 7 191058806.582 7       368.487          42.250    36690831.547 6 147738781.655 6       284.909          36.750  
C 1  37402374.566 6 194763972.869 6         6.629          42.000    37402376.338 6 150603862.112 6         5.119          36.000  
C 9  37333047.158 6 194402977.353 6     -1562.974          38.250    37333049.949 6 150324722.680 6     -1208.819          38.250  
C10  37264599.280 6 194046554.406 6       286.488          39.000    37264600.491 5 150049105.883 5       221.370          35.750  
C23  23134621.297 7 120468046.511 7     -1692.664          42.750                                                                  
C 2  37107548.829 6 193228751.443 6        11.209          38.000    37107546.120 6 149416715.583 6         8.348          36.250  
C 6  38387661.493 6 199894628.551 6     -1573.665          36.000    38387660.709 4 154571210.705 4     -1217.100          29.750  
C 8  37770880.474 4 196682886.507 4      1541.822          28.750                                                                  
C28  22200887.829 7 115605847.992 7     -1605.570          44.750                                                                  
C27  22218595.010 7 115698066.791 7      1162.609          43.000                                                                  
> 2021  5 18  3  9 48.0000000  0 21                     
G 7  20311741.056 7 106738921.826 7       922.475          45.250    20311738.536 7  83173181.028 7       718.811          45.000  
G 8  22036082.827 6 115800397.033 6     -2258.155          41.750    22036085.680 6  90234087.218 6     -1759.603          41.750  
G 1  20348860.367 7 106933980.658 7      1914.214          46.750    20348862.280 7  83325187.739 7      1491.595          46.500  
G30  22662839.550 5 119094027.130 5      2827.950          33.500    22662844.622 4  92800560.758 4      2203.597          28.750  
G21  20549259.985 7 107987094.760 7      -729.392          42.250    20549257.449 5  84145778.307 5      -568.351          32.500  
R10  19922077.954 7 106195510.748 7      1811.729          43.000                                                                  
R20  19911081.628 5 106473133.430 5     -2449.608          33.000    19911082.810 6  82812433.181 6     -1905.249          39.250  
R21  20138092.321 7 107762613.078 7      1918.772          44.750    20138092.544 6  83815377.773 6      1492.380          37.750  
C13  38553042.977 6 200755806.869 6      1555.746          37.250    38553051.145 5 155237135.634 5      1202.745          32.500  
C16  38860861.454 6 202358693.491 6     -1661.242          39.250    38860864.406 5 156476585.736 5     -1284.502          31.250  
C 3  36458014.812 6 189846445.663 6        36.496          40.750    36458013.330 6 146801312.703 6        28.140          37.500  
C 7  36690764.747 7 191058437.762 7       368.602          42.250    36690760.795 6 147738496.458 6       285.131          37.000  
C 1  37402373.217 6 194763965.905 6         6.933          41.750    37402375.052 6 150603856.716 6         5.302          36.250  
C 9  37333347.300 6 194404540.388 6     -1563.077          38.000    37333350.128 6 150325931.314 6     -1208.939          38.250  
C10  37264544.272 6 194046267.933 6       286.332          38.750    37264545.506 5 150048884.344 5       221.560          36.000  
C23  23134946.329 7 120469739.163 7     -1693.144          42.750                                                                  
C 2  37107546.639 6 193228740.290 6        10.916          38.250    37107544.039 6 149416706.960 6         8.336          36.500  
C 6  38387963.682 5 199896201.631 5     -1573.471          35.750    38387962.996 5 154572427.143 5     -1216.406          30.500  
C 8  37770584.303 4 196681343.92214      1541.590          29.000                                                                  
C28  22201196.137 7 115607453.362 7     -1605.734          44.500                                                                  
C27  22218371.681 7 115696904.136 7      1162.229          43.250                                                                  
> 2021  5 18  3  9 49.0000000  0 21                     
G 7  20311565.553 7 106737999.786 7       921.702          45.000    20311563.095 7  83172462.551 7       718.208          45.000  
G 8  22036512.610 6 115802655.312 6     -2258.159          42.000    22036515.322 7  90235846.912 7     -1759.607          42.000  
G 1  20348496.220 7 106932067.002 7      1913.353          46.750    20348498.100 7  83323696.575 7      1490.923          46.750  
G30  22662301.502 5 119091200.166 5      2826.252          33.750    22662308.313 4  92798357.965 4      2202.275          30.000  
G21  20549398.852 7 107987824.784 7      -730.429          42.250    20549396.499 5  84146347.146 5      -569.164          33.000  
R10  19921738.158 7 106193699.464 7      1810.993          43.000                                                                  
R20  19911539.885 5 106475583.441 5     -2450.812          33.000    19911540.987 6  82814338.745 6     -1906.186          39.500  
R21  20137733.908 7 107760694.915 7      1917.710          44.500    20137734.057 6  83813885.869 6      1491.553          37.500  
C13  38552744.323 6 200754251.452 6      1555.458          37.000    38552752.414 5 155235932.896 5      1202.403          33.000  
C16  38861180.453 6 202360354.822 6     -1661.470          39.250    38861183.446 5 156477870.377 5     -1284.596          30.500  
C 3  36458007.836 6 189846409.388 6        36.315          40.500    36458006.392 6 146801284.664 6        27.915          37.250  
C 7  36690693.931 7 191058069.271 7       368.572          42.250    36690690.057 6 147738211.525 6       284.948          37.000  
C 1  37402371.896 6 194763959.357 6         6.250          41.750    37402373.844 6 150603851.651 6         5.147          36.000  
C 9  37333647.489 6 194406103.902 6     -1563.624          38.250    37333650.386 6 150327140.297 6     -1208.956          38.500  
C10  37264489.309 6 194045981.733 6       286.142          38.500    37264490.551 5 150048663.035 5       221.300          35.750  
C23  23135271.537 7 120471432.604 7     -1693.665          42.500                                                                  
C 2  37107544.538 6 193228729.506 6        10.559          38.000    37107541.933 6 149416698.613 6         8.254          36.250  
C 6  38388265.937 5 199897775.102 5     -1573.000          36.000    38388265.276 4 154573643.827 4     -1216.347          29.750  
C 8  37770288.315 4 196679802.75324      1541.174          29.250                                                                  
C28  22201504.550 7 115609059.422 7     -1606.228          44.500                                                                  
C27  22218148.511 7 115695742.287 7      1161.533          43.000                                                                  
> 2021  5 18  3  9 50.0000000  0 21                     
G 7  20311390.226 7 106737078.417 7       921.033          45.250    20311387.783 7  83171744.598 7       717.686          45.250  
G 8  22036942.380 6 115804913.711 6     -2258.974          42.000    22036945.004 6  90237606.699 6     -1760.243          42.000  
G 1  20348132.197 7 106930153.992 7      1912.311          46.500    20348134.050 7  83322205.915 7      1490.111          46.750  
G30  22661764.048 5 119088373.498 5      2826.143          33.750    22661767.775 4  92796155.301 4      2202.190          29.500  
G21  20549537.792 7 107988555.471 7      -731.387          42.000    20549535.613 5  84146916.501 5      -569.913          34.750  
R10  19921398.459 7 106191888.669 7      1810.200          43.000                                                                  
R20  19911998.119 5 106478034.049 5     -2450.997          33.500    19911999.320 6  82816244.770 6     -1906.331          39.500  
R21  20137375.543 7 107758777.483 7      1916.737          44.500    20137375.688 6  83812394.530 6      1490.795          37.750  
C13  38552445.679 6 200752696.139 6      1555.224          37.250    38552453.788 5 155234730.207 5      1202.446          33.000  
C16  38861499.533 6 202362016.178 6     -1661.475          39.500    38861502.471 5 156479155.023 5     -1284.600          30.750  
C 3  36458000.876 6 189846373.161 6        35.979          41.000    36457999.414 6 146801256.650 6        27.726          37.500  
C 7  36690623.140 7 191057700.751 7       368.250          42.250    36690619.293 6 147737926.548 6       284.766          37.000  
C 1  37402370.626 7 194763952.822 7         6.267          42.000    37402372.557 6 150603846.627 6         4.868          36.500  
C 9  37333947.734 6 194407667.487 6     -1563.499          38.500    37333950.732 6 150328349.391 6     -1209.399          38.250  
C10  37264434.350 6 194045695.512 6       285.932          39.000    37264435.567 5 150048441.731 5       221.032          35.750  
C23  23135596.769 7 120473126.457 7     -1694.273          42.500                                                                  
C 2  37107542.439 6 193228718.766 6        10.379          38.250    37107539.796 6 149416690.293 6         8.102          36.250  
C 6  38388568.172 6 199899348.611 6     -1573.914          36.250    38388567.518 4 154574860.563 4     -1217.031          30.000  
C 8  37769992.352 4 196678261.75824      1541.371          29.750                                                                  
C28  22201813.055 7 115610665.813 7     -1606.807          44.750                                                                  
C27  22217925.440 7 115694580.871 7      1161.020          43.250                                                                  
> 2021  5 18  3  9 51.0000000  0 21                     
G 7  20311214.962 7 106736157.482 7       920.961          45.250    20311212.533 7  83171026.985 7       717.630          45.000  
G 8  22037372.124 7 115807171.914 7     -2257.858          42.000    22037374.657 7  90239366.331 7     -1759.373          42.250  
G 1  20347768.251 7 106928241.408 7      1912.701          46.750    20347770.068 7  83320715.588 7      1490.415          46.500  
G30  22661227.345 5 119085547.042 5      2826.028          33.500    22661228.043 4  92793952.849 4      2202.095          29.500  
G21  20549676.875 7 107989286.591 7      -731.078          42.000    20549674.508 5  84147486.201 5      -569.671          32.750  
R10  19921058.772 7 106190078.117 7      1810.698          43.000                                                                  
R20  19912456.382 5 106480485.074 5     -2450.995          33.500    19912457.724 6  82818151.119 6     -1906.330          39.750  
R21  20137017.291 7 107756860.599 7      1916.877          44.500    20137017.452 6  83810903.619 6      1490.904          37.750  
C13  38552147.039 6 200751140.696 6      1555.532          37.500    38552155.078 5 155233527.394 5      1203.052          33.000  
C16  38861818.539 6 202363677.348 6     -1660.709          39.250    38861821.535 5 156480439.545 5     -1283.842          31.250  
C 3  36457993.877 6 189846336.741 6        36.662          41.000    36457992.463 6 146801228.486 6        28.305          37.500  
C 7  36690552.304 7 191057331.991 7       369.122          42.500    36690548.483 6 147737641.412 6       285.491          37.250  
C 1  37402369.303 6 194763946.129 6         7.006          42.000    37402371.303 6 150603841.441 6         5.441          36.250  
C 9  37334248.017 6 194409230.972 6     -1562.930          38.750    37334250.992 6 150329558.349 6     -1208.650          38.500  
C10  37264379.324 6 194045409.002 6       286.698          38.750    37264380.529 5 150048220.129 5       222.217          35.500  
C23  23135922.066 7 120474820.509 7     -1693.830          42.750                                                                  
C 2  37107540.351 6 193228707.816 6        11.386          38.000    37107537.682 6 149416681.842 6         8.720          36.250  
C 6  38388870.316 6 199900921.899 6     -1573.010          36.000    38388869.548 4 154576077.179 4     -1216.564          29.750  
C 8  37769696.436 5 196676720.68325      1541.575          30.500                                                                  
C28  22202121.594 7 115612272.316 7     -1606.326          44.750                                                                  
C27  22217702.419 7 115693419.683 7      1161.256          43.250                                                                  
> 2021  5 18  3  9 52.0000000  0 21                     
G 7  20311039.671 7 106735236.324 7       921.279          45.250    20311037.267 7  83170309.197 7       717.878          45.000  
G 8  22037801.731 6 115809429.347 6     -2257.130          41.750    22037804.291 6  90241125.366 6     -1758.806          41.750  
G 1  20347404.268 7 106926328.585 7      1912.717          46.750    20347406.054 7  83319225.077 7      1490.428          46.750  
G30  22660689.812 5 119082720.064 5      2827.140          33.750    22660691.476 4  92791750.038 4      2202.973          29.000  
G21  20549815.922 7 107990017.494 7      -730.877          42.000    20549814.143 5  84148055.737 5      -569.516          30.750  
R10  19920719.054 7 106188267.139 7      1811.189          43.000                                                                  
R20  19912914.665 5 106482935.796 5     -2450.783          33.250    19912916.024 6  82820057.231 6     -1906.167          39.500  
R21  20136659.052 7 107754943.552 7      1917.172          44.250    20136659.149 6  83809412.584 6      1491.134          37.750  
C13  38551848.185 6 200749584.404 6      1556.466          37.500    38551856.263 5 155232324.017 5      1203.552          32.750  
C16  38862137.374 6 202365337.659 6     -1659.962          39.250    38862140.385 5 156481723.376 5     -1283.186          30.750  
C 3  36457986.717 6 189846299.477 6        37.670          41.000    36457985.332 6 146801199.657 6        29.228          37.500  
C 7  36690481.290 7 191056962.294 7       370.120          42.500    36690477.583 6 147737355.549 6       286.017          37.000  
C 1  37402367.844 6 194763938.573 6         8.049          42.000    37402369.781 6 150603835.570 6         6.324          36.250  
C 9  37334548.113 6 194410793.720 6     -1562.578          38.500    37334551.142 6 150330766.760 6     -1208.179          38.750  
C10  37264324.125 6 194045121.534 6       287.888          38.750    37264325.372 5 150047997.877 5       222.706          35.500  
C23  23136247.295 7 120476514.092 7     -1693.343          42.750                                                                  
C 2  37107538.084 6 193228696.043 6        12.086          38.250    37107535.454 6 149416672.735 6         9.438          36.250  
C 6  38389172.360 6 199902494.399 6     -1572.302          36.250    38389171.581 4 154577293.096 4     -1215.383          29.750  
C 8  37769400.348 5 196675178.824 5      1542.474          30.000                                                                  
C28  22202430.019 7 115613878.259 7     -1605.628          44.750                                                                  
C27  22217479.332 7 115692258.069 7      1161.680          43.250                                                                  
> 2021  5 18  3  9 53.0000000  0 21                     
G 7  20310864.360 7 106734315.146 7       921.125          45.500    20310861.985 7  83169591.394 7       717.758          45.000  
G 8  22038231.196 6 115811686.196 6     -2256.741          41.500    22038233.700 6  90242883.942 6     -1758.504          41.750  
G 1  20347040.275 7 106924415.719 7      1912.778          46.750    20347042.034 7  83317734.531 7      1490.476          46.750  
G30  22660151.728 5 119079892.779 5      2827.460          32.750    22660156.847 4  92789546.989 4      2203.229          27.250  
G21  20549954.961 7 107990748.389 7      -731.227          42.250    20549953.289 5  84148625.269 5      -569.786          35.000  
R10  19920379.302 7 106186455.945 7      1811.189          42.750                                                                  
R20  19913372.953 5 106485386.488 5     -2450.818          33.500    19913374.324 6  82821963.321 6     -1906.194          39.750  
R21  20136300.857 7 107753026.594 7      1916.842          44.250    20136300.854 6  83807921.616 6      1490.877          37.750  
C13  38551549.286 6 200748027.565 6      1557.147          37.500    38551557.236 5 155231120.162 5      1203.887          32.750  
C16  38862456.093 6 202366997.361 6     -1659.733          39.500    38862459.122 5 156483006.768 5     -1283.147          31.250  
C 3  36457979.458 6 189846261.577 6        38.282          41.000    36457978.052 6 146801170.363 6        29.383          37.500  
C 7  36690410.143 7 191056591.926 7       370.646          42.250    36690406.500 6 147737069.137 6       286.670          37.000  
C 1  37402366.235 6 194763930.389 6         8.617          42.000    37402368.136 6 150603829.279 6         6.262          36.000  
C 9  37334848.064 6 194412355.859 6     -1561.973          38.500    37334851.137 6 150331974.714 6     -1207.901          38.750  
C10  37264268.786 6 194044833.380 6       288.543          39.000    37264270.032 5 150047775.082 5       222.814          35.750  
C23  23136572.512 7 120478207.433 7     -1693.116          42.750                                                                  
C 2  37107535.674 6 193228683.647 6        12.607          38.250    37107533.022 6 149416663.160 6         9.589          36.000  
C 6  38389474.199 6 199904066.167 6     -1571.675          36.250    38389473.501 4 154578508.457 4     -1215.182          29.750  
C 8  37769104.152 5 196673636.49815      1542.873          30.250                                                                  
C28  22202738.377 7 115615483.875 7     -1605.631          44.750                                                                  
C27  22217256.207 7 115691096.234 7      1161.826          43.250                                                                  
> 2021  5 18  3  9 54.0000000  0 21                     
G 7  20310689.138 7 106733394.328 7       920.492          45.250    20310686.792 7  83168873.872 7       717.264          45.250  
G 8  22038660.594 6 115813942.838 6     -2256.893          41.250    22038663.111 6  90244642.358 6     -1758.623          41.500  
G 1  20346676.355 7 106922503.215 7      1912.044          46.750    20346678.083 7  83316244.265 7      1489.903          46.750  
G30  22659613.163 5 119077065.535 5      2827.016          33.000    22659620.536 4  92787343.981 4      2202.888          28.750  
G21  20550094.067 7 107991479.641 7      -731.749          42.250    20550092.594 5  84149195.076 5      -570.192          33.250  
R10  19920039.576 7 106184644.948 7      1810.665          42.750                                                                  
R20  19913831.271 5 106487837.511 5     -2451.823          33.500    19913832.703 6  82823869.666 6     -1906.977          39.750  
R21  20135942.748 7 107751110.093 7      1916.005          44.250    20135942.650 6  83806431.002 6      1490.225          38.000  
C13  38551250.299 6 200746470.497 6      1556.809          38.000    38551258.278 5 155229916.158 5      1203.483          33.250  
C16  38862774.762 6 202368656.726 6     -1659.493          39.500    38862777.885 5 156484289.908 5     -1283.269          30.750  
C 3  36457972.126 6 189846223.440 6        37.933          41.000    36457970.757 6 146801140.853 6        29.436          37.250  
C 7  36690338.940 7 191056221.223 7       370.636          42.250    36690335.353 6 147736782.490 6       286.533          37.000  
C 1  37402364.606 6 194763921.949 6         8.498          41.750    37402366.540 6 150603822.745 6         6.396          36.250  
C 9  37335148.056 6 194413917.847 6     -1562.358          38.500    37335151.102 6 150333182.524 6     -1207.880          38.750  
C10  37264213.367 6 194044544.896 6       288.348          39.000    37264214.623 5 150047551.989 5       223.027          36.000  
C23  23136897.765 7 120479900.892 7     -1693.719          42.750                                                                  
C 2  37107533.292 6 193228670.977 6        12.731          38.250    37107530.625 6 149416653.365 6         9.481          36.250  
C 6  38389776.065 6 199905637.704 6     -1571.865          36.250    38389775.343 4 154579723.664 4     -1215.150          29.750  
C 8  37768807.872 5 196672094.05025      1542.932          30.750                                                                  
C28  22203046.726 7 115617089.510 7     -1605.895          44.750                                                                  
C27  22217033.089 7 115689934.544 7      1161.370          43.500                                                                  
> 2021  5 18  3  9 55.0000000  0 21                     
G 7  20310514.063 7 106732474.361 7       919.503          45.500    20310511.743 7  83168157.014 7       716.495          45.250  
G 8  22039090.039 6 115816199.734 6     -2257.166          41.250    22039092.584 6  90246400.974 6     -1758.835          41.000  
G 1  20346312.582 7 106920591.517 7      1911.130          46.750    20346314.282 7  83314754.627 7      1489.190          46.750  
G30  22659075.274 5 119074238.939 5      2825.954          33.250    22659082.001 3  92785141.444 3      2202.055          22.750  
G21  20550233.342 7 107992211.736 7      -732.597          42.250    20550231.919 5  84149765.537 5      -570.856          32.750  
R10  19919699.976 7 106182834.613 7      1809.844          42.750                                                                  
R20  19914289.832 5 106490289.344 5     -2452.426          33.000    19914291.210 6  82825776.644 6     -1907.445          39.750  
R21  20135584.776 7 107749194.534 7      1914.911          44.000    20135584.647 6  83804941.119 6      1489.374          38.000  
C13  38550951.362 6 200744913.724 6      1556.337          37.750    38550959.245 5 155228712.343 5      1203.511          33.000  
C16  38863093.473 6 202370316.347 6     -1659.638          39.500    38863096.660 5 156485573.210 5     -1283.289          31.250  
C 3  36457964.857 6 189846185.503 6        37.796          41.000    36457963.496 6 146801111.522 6        29.234          37.500  
C 7  36690267.807 7 191055850.671 7       370.376          42.250    36690264.161 6 147736495.936 6       286.612          37.250  
C 1  37402362.999 7 194763913.718 7         8.095          42.000    37402364.924 6 150603816.376 6         6.168          36.750  
C 9  37335448.056 6 194415480.091 6     -1562.156          38.500    37335451.135 6 150334390.559 6     -1208.111          38.500  
C10  37264158.001 6 194044256.516 6       288.261          38.750    37264159.231 6 150047328.984 6       222.990          36.000  
C23  23137223.098 7 120481594.963 7     -1694.530          42.750                                                                  
C 2  37107530.881 6 193228658.538 6        12.203          38.250    37107528.161 5 149416643.719 5         9.511          36.000  
C 6  38390077.888 6 199907209.436 6     -1571.942          36.250    38390077.125 4 154580939.033 4     -1215.308          30.000  
C 8  37768511.751 5 196670551.93125      1542.189          30.500                                                                  
C28  22203355.204 7 115618695.668 7     -1606.406          44.500                                                                  
C27  22216810.091 7 115688773.482 7      1160.679          43.250                                                                  
> 2021  5 18  3  9 56.0000000  0 21                     
G 7  20310339.141 7 106731555.192 7       918.530          45.750    20310336.839 7  83167440.779 7       715.736          45.250  
G 8  22039519.497 6 115818456.843 6     -2257.137          41.250    22039522.145 6  90248159.756 6     -1758.813          41.000  
G 1  20345948.962 7 106918680.632 7      1910.390          46.750    20345950.642 7  83313265.625 7      1488.615          46.750  
G30  22658537.296 5 119071412.815 5      2825.202          33.000    22658544.299 5  92782939.287 5      2201.471          32.250  
G21  20550372.819 7 107992944.650 7      -733.297          42.500    20550371.601 5  84150336.640 5      -571.399          34.000  
R10  19919360.421 7 106181024.882 7      1809.456          42.250                                                                  
R20  19914748.594 5 106492741.968 5     -2452.982          32.750    19914749.907 6  82827684.238 6     -1907.878          39.750  
R21  20135226.955 7 107747279.858 7      1914.036          44.250    20135226.822 6  83803451.924 6      1488.694          37.750  
C13  38550652.447 6 200743357.123 6      1556.392          38.000    38550660.314 5 155227508.665 5      1203.619          32.750  
C16  38863412.185 6 202371976.105 6     -1659.768          39.500    38863415.309 5 156486856.659 5     -1283.688          31.250  
C 3  36457957.615 6 189846147.744 6        37.551          40.750    36457956.260 6 146801082.325 6        29.056          37.500  
C 7  36690196.646 7 191055480.232 7       370.285          42.500    36690193.037 6 147736209.512 6       286.206          37.000  
C 1  37402361.489 6 194763905.690 6         7.742          42.000    37402363.393 6 150603810.163 6         5.910          36.250  
C 9  37335748.092 6 194417042.612 6     -1562.708          38.250    37335751.214 6 150335598.808 6     -1208.609          38.750  
C10  37264102.654 6 194043968.228 6       288.374          38.750    37264103.890 5 150047106.088 5       222.598          35.750  
C23  23137548.552 7 120483289.602 7     -1695.337          42.500                                                                  
C 2  37107528.551 6 193228646.243 6        12.264          38.250    37107525.837 6 149416634.222 6         9.280          36.250  
C 6  38390379.833 5 199908781.281 5     -1571.964          36.000    38390378.934 4 154582154.516 4     -1216.058          29.250  
C 8  37768215.702 5 196669010.07725      1541.023          30.250                                                                  
C28  22203663.757 7 115620302.294 7     -1606.861          44.750                                                                  
C27  22216587.211 7 115687613.012 7      1160.048          43.500                                                                  
> 2021  5 18  3  9 57.0000000  0 21                     
G 7  20310164.329 7 106730636.584 7       918.243          45.750    20310162.056 7  83166724.978 7       715.513          45.750  
G 8  22039949.015 6 115820713.979 6     -2256.951          40.750    22039951.580 6  90249918.563 6     -1758.666          41.000  
G 1  20345585.442 7 106916770.307 7      1909.986          46.750    20345587.121 7  83311777.059 7      1488.299          47.000  
G30  22657999.665 5 119068586.954 5      2825.620          33.000    22658007.073 5  92780737.306 5      2201.791          32.500  
G21  20550512.376 7 107993678.139 7      -733.889          42.500    20550510.990 5  84150908.191 5      -571.861          32.000  
R10  19919021.027 7 106179215.532 7      1809.275          42.000                                                                  
R20  19915207.505 5 106495195.081 5     -2453.274          33.000    19915208.686 6  82829592.213 6     -1908.104          39.750  
R21  20134869.315 7 107745365.839 7      1913.626          44.250    20134869.139 6  83801963.245 6      1488.375          37.750  
C13  38550353.578 6 200741800.534 6      1556.631          37.500    38550361.357 5 155226304.974 5      1203.855          32.500  
C16  38863730.946 6 202373635.827 6     -1659.498          39.500    38863734.075 5 156488140.046 5     -1283.406          30.500  
C 3  36457950.349 6 189846109.944 6        37.560          40.750    36457948.999 6 146801053.067 6        29.530          37.500  
C 7  36690125.452 7 191055109.668 7       370.888          42.500    36690121.887 6 147735922.950 6       286.871          37.000  
C 1  37402359.908 7 194763897.574 7         8.276          42.000    37402361.764 6 150603803.870 6         6.386          36.250  
C 9  37336048.181 6 194418605.136 6     -1562.430          38.750    37336051.347 6 150336807.028 6     -1208.014          38.500  
C10  37264047.291 6 194043679.826 6       288.616          38.750    37264048.518 5 150046883.043 5       223.092          35.750  
C23  23137874.078 7 120484984.532 7     -1695.019          42.750                                                                  
C 2  37107526.138 6 193228633.914 6        12.486          38.250    37107523.472 5 149416624.670 5         9.737          36.000  
C 6  38390681.800 5 199910353.111 5     -1571.933          35.750    38390680.688 5 154583369.939 5     -1215.354          30.000  
C 8  37767919.624 4 196667468.25824      1541.822          29.750                                                                  
C28  22203972.372 7 115621909.165 7     -1606.980          45.000                                                                  
C27  22216364.400 7 115686452.877 7      1160.176          43.250                                                                  
> 2021  5 18  3  9 58.0000000  0 21                     
G 7  20309989.620 7 106729718.593 7       917.222          45.750    20309987.383 7  83166009.664 7       714.719          45.500  
G 8  22040378.490 6 115822971.139 6     -2257.644          40.250    22040381.125 6  90251677.391 6     -1759.204          40.000  
G 1  20345222.030 7 106914860.545 7      1909.230          46.750    20345223.703 7  83310288.932 7      1487.710          46.750  
G30  22657461.836 5 119065761.436 5      2825.005          32.750    22657470.416 5  92778535.609 5      2201.311          32.000  
G21  20550652.051 7 107994412.212 7      -734.603          42.500    20550650.603 5  84151480.200 5      -572.418          35.000  
R10  19918681.714 7 106177406.602 7      1808.204          42.250                                                                  
R20  19915666.213 5 106497648.801 5     -2454.096          32.000    19915667.556 6  82831500.663 6     -1908.743          39.250  
R21  20134511.821 7 107743452.548 7      1912.580          44.000    20134511.580 6  83800475.129 6      1487.562          37.750  
C13  38550054.687 6 200740243.931 6      1556.425          37.750    38550062.450 5 155225101.384 5      1203.193          33.000  
C16  38864049.689 6 202375295.520 6     -1660.024          39.250    38864052.931 5 156489423.398 5     -1283.213          30.500  
C 3  36457943.094 6 189846072.079 6        37.595          41.250    36457941.760 6 146801023.821 6        29.007          37.500  
C 7  36690054.261 7 191054739.014 7       370.496          42.500    36690050.661 6 147735636.340 6       286.431          37.000  
C 1  37402358.362 7 194763889.456 7         7.689          42.000    37402360.280 6 150603797.593 6         6.154          36.000  
C 9  37336348.274 6 194420167.721 6     -1563.082          38.500    37336351.383 6 150338015.325 6     -1208.536          38.500  
C10  37263991.897 6 194043391.316 6       288.190          39.000    37263993.141 5 150046659.968 5       222.789          35.500  
C23  23138199.646 7 120486679.839 7     -1695.981          42.750                                                                  
C 2  37107523.713 6 193228621.558 6        11.776          38.000    37107521.168 6 149416615.129 6         9.343          36.250  
C 6  38390983.619 5 199911924.913 5     -1572.348          35.500    38390982.574 5 154584585.327 5     -1215.408          30.500  
C 8  37767623.533 5 196665926.525 5      1541.487          30.500                                                                  
C28  22204281.026 7 115623516.298 7     -1607.656          44.750                                                                  
C27  22216141.685 7 115685293.167 7      1159.257          43.500                                                                  
> 2021  5 18  3  9 59.0000000  0 21                     
G 7  20309815.032 7 106728801.214 7       917.367          45.750    20309812.818 7  83165294.825 7       714.832          45.250  
G 8  22040808.002 6 115825228.204 6     -2256.610          40.500    22040810.653 6  90253436.150 6     -1758.396          39.750  
G 1  20344858.772 7 106912951.573 7      1908.420          47.000    20344860.441 7  83308801.421 7      1487.080          46.500  
G30  22656924.095 5 119062936.066 5      2825.670          34.250    22656931.660 5  92776334.036 5      2201.833          31.500  
G21  20550791.851 7 107995147.000 7      -735.284          43.250    20550790.412 5  84152052.764 5      -572.945          32.750  
R10  19918342.401 7 106175597.958 7      1808.952          42.000                                                                  
R20  19916125.219 5 106500102.980 5     -2453.958          32.000    19916126.502 6  82833409.468 6     -1908.635          39.500  
R21  20134154.419 7 107741540.134 7      1912.004          44.000    20134154.155 6  83798987.696 6      1487.114          37.750  
C13  38549755.815 6 200738687.673 6      1555.809          38.000    38549763.539 5 155223897.992 5      1202.504          32.250  
C16  38864368.463 6 202376955.420 6     -1660.061          38.750    38864371.829 5 156490707.026 5     -1284.283          31.000  
C 3  36457935.852 6 189846034.429 6        37.329          40.750    36457934.525 6 146800994.693 6        28.912          37.250  
C 7  36689983.022 7 191054368.182 7       371.844          42.000    36689979.397 6 147735349.600 6       287.205          37.250  
C 1  37402356.872 7 194763881.517 7         7.506          42.000    37402358.717 5 150603791.463 5         5.771          35.500  
C 9  37336648.417 6 194421730.589 6     -1563.349          39.000    37336651.484 6 150339223.811 6     -1208.869          38.250  
C10  37263936.481 6 194043102.601 6       289.615          39.750    37263937.688 5 150046436.669 5       224.072          35.250  
C23  23138525.346 7 120488375.756 7     -1696.597          42.000                                                                  
C 2  37107521.383 6 193228609.325 6        12.230          38.750    37107518.857 6 149416605.671 6         9.270          36.750  
C 6  38391285.499 5 199913496.950 5     -1572.535          35.750    38391284.485 4 154585800.947 4     -1216.060          29.750  
C 8  37767327.541 5 196664385.158 5      1541.133          31.250                                                                  
C28  22204589.709 7 115625123.634 7     -1606.955          45.250                                                                  
C27  22215919.039 7 115684133.907 7      1159.196          43.500                                                                  
