     3.03           OBSERVATION DATA    M: Mixed            RINEX VERSION / TYPE
RTKCONV demo5 b33c                      20210520 080931 UTC PGM / RUN BY / DATE 
log: C:\Users\Ivan_PolyU_Dktp\Dropbox\HUAWEI Exp\20210518_  COMMENT             
format: RINEX                                               COMMENT             
Geo++                                                       MARKER NAME         
                                                            MARKER NUMBER       
                                                            MARKER TYPE         
                                                            OBSERVER / AGENCY   
unknown             Xiaomi              MI 8                REC # / TYPE / VERS 
unknown             MI 8                                    ANT # / TYPE        
 -2419220.0076  5385473.7854  2405345.6523                  APPROX POSITION XYZ 
        0.0000        0.0000        0.0000                  ANTENNA: DELTA H/E/N
G    8 C1C L1C D1C S1C C5Q L5Q D5Q S5Q                      SYS / # / OBS TYPES 
R    4 C1C L1C D1C S1C                                      SYS / # / OBS TYPES 
J    8 C1C L1C D1C S1C C5Q L5Q D5Q S5Q                      SYS / # / OBS TYPES 
  2021     5    18     3     7   14.9996139     GPS         TIME OF FIRST OBS   
  2021     5    18     4     3    3.9997618     GPS         TIME OF LAST OBS    
G                                                           SYS / PHASE SHIFT   
R                                                           SYS / PHASE SHIFT   
J                                                           SYS / PHASE SHIFT   
  3 R01  1 R09 -2 R17  4                                    GLONASS SLOT / FRQ #
 C1C    0.000 C1P    0.000 C2C    0.000 C2P    0.000        GLONASS COD/PHS/BIS 
                                                            END OF HEADER       
> 2021  5 18  3  7 14.9996139  0 10                     
G 1  20405825.141 1 107233424.521 1      2082.134          28.000    20405824.242 1  80076773.22411      1554.796          24.250  
G 7  20340030.290 1                      1098.476          19.250                                                                  
G 8  21970611.962 1                     -2175.347          15.250    21970624.853 1  86217535.38111     -1623.349          24.750  
G21  20529429.871 1                      -553.181          21.500                                                                  
G30  22746111.794 1                      2959.451          21.750                                                                  
J 2  38024013.323 1                      1252.926          21.250    38024015.122 1 149214315.87811       933.521          21.250  
J 3                                                                  38975680.798 1                      -529.418          23.000  
R 9  20446902.404 1 109185371.131 1     -1193.153          28.000  
R10  19975231.435 1                      1946.198          19.250  
R21  20194453.771 1                      2104.964          13.250  
> 2021  5 18  3  7 15.9996140  0  9                     
G 1  20405457.296 1 107231499.872 1      2082.192          27.750    20405458.195 1                      1555.055          24.750  
G 7  20339845.318 1                      1098.837          19.250                                                                  
G 8  21971069.745 1                     -2175.192          15.000    21971067.946 1                     -1621.940          24.250  
G21  20529568.975 1                      -555.815          22.250                                                                  
J 2  38023797.773 1                      1259.046          20.750    38023806.467 1 149213499.356 1       934.167          20.500  
J 3                                                                  38975849.281 1                      -528.470          23.000  
R 9  20447153.930 1 109186724.223 1     -1193.004          28.250  
R10  19974863.889 1                      1946.526          18.250  
R21  20194095.219 1                      2106.810          13.500  
> 2021  5 18  3  7 16.9996140  0  9                     
G 1  20405063.369 1 107229417.785 1      2082.087          28.250    20405061.270 1  80073781.32011      1554.832          23.500  
G 7  20339638.761 1                      1096.120          18.000                                                                  
G 8                                                                  21971480.461 1                     -1624.073          24.500  
G21  20529670.905 1                      -557.930          21.500                                                                  
J 2  38023552.842 1                      1256.806          20.750    38023566.932 1                       933.136          20.000  
J 3                                                                  38975982.089 1                      -529.590          24.000  
R 9  20447385.969 1 109187917.421 1     -1193.198          28.750  
R10  19974458.270 1                      1960.549          22.750  
R21  20193714.482 1                      2105.452          15.000  
> 2021  5 18  3  7 17.9996141  0  9                     
G 1  20404703.917 1 107227494.137 1      2081.190          29.000    20404696.123 1  80072344.792 1      1554.173          24.250  
G 7  20339460.385 1                      1092.272          18.250                                                                  
G 8                                                                  21971925.353 1  86222638.89411     -1622.782          25.750  
G21  20529801.015 1                      -564.698          21.250                                                                  
G30  22744507.905 1                      2956.310          20.500                                                                  
J 2  38023345.985 1                      1253.385          21.000    38023357.078 1                       934.748          20.250  
J 3                                                                  38976148.174 1 152950607.50411      -529.027          24.500  
R 9  20447642.292 1 109189271.540 1     -1194.032          28.750  
R10  19974140.490 1                      1957.534          22.500  
> 2021  5 18  3  7 18.9996141  0  9                     
G 1  20404305.193 1 107225413.486 1      2080.651          29.000    20404300.996 1  80070790.986 1      1553.806          25.000  
G 7  20339239.138 1                      1093.516          18.750                                                                  
G 8                                                                  21972337.267 1  86224261.779 1     -1622.885          26.250  
G21  20529910.439 1                      -560.668          22.500                                                                  
G30  22743918.813 1                      2955.387          20.750                                                                  
J 2  38023118.143 1                      1248.968          21.500                                                                  
J 3                                                                  38976281.882 1 152951136.293 1      -528.789          24.000  
R 9  20447857.543 1 109190466.078 1     -1194.537          28.250  
R10  19973778.041 1                      1955.668          24.750  
> 2021  5 18  3  7 19.9996142  0  9                     
G 1  20403938.847 1                      2079.466          29.250    20403935.549 1  80069355.583 1      1553.048          26.000  
G 7  20339066.757 1                      1095.806          16.250                                                                  
G 8  21972784.258 1                     -2169.549          15.500    21972780.960 1  86226002.503 1     -1623.079          26.500  
G21  20530054.939 1                      -560.343          21.750                                                                  
G30  22743375.889 1                      2965.249          20.250                                                                  
J 2  38022905.590 1                      1251.165          21.500                                                                  
J 3  38976432.677 1                      -708.655          15.000    38976445.868 1 152951783.150 1      -529.211          24.750  
R 9  20448116.264 1 109191821.706 1     -1195.541          28.250  
R10  19973446.171 1                      1947.851          22.500  
> 2021  5 18  3  7 20.9996142  0 10                     
G 1  20403543.421 1 107221413.72111      2078.027          29.250    20403538.025 1                      1552.121          24.250  
G 7  20338856.603 1                      1093.030          17.250                                                                  
G 8  21973190.177 1                     -2175.379          15.500    21973195.273 1  86227626.475 1     -1623.972          26.250  
G21  20530154.770 1                      -564.244          21.000                                                                  
J 2  38022676.549 1                      1254.418          21.750                                                                  
J 3                                                                  38976583.773 1                      -531.687          24.250  
R 9  20448348.603 1 109193018.999 1     -1197.293          28.750  
R10  19973044.749 1                      1948.756          22.750  
R20  19845111.016 1                     -2276.346          10.250  
R21  20192223.914 1                      2099.102          15.500  
> 2021  5 18  3  7 21.9996143  0  9                     
G 1  20403177.074 1 107219494.996 1      2076.267          29.500    20403171.378 1  80066370.92111      1550.582          23.250  
G 7  20338682.723 1                      1079.289          17.500                                                                  
G 8  21973633.270 1                     -2170.560          15.000    21973639.266 1  86229369.065 1     -1624.945          26.250  
G21  20530285.779 1                      -564.611          21.000                                                                  
J 2  38022469.392 1                      1255.006          21.250                                                                  
J 3                                                                  38976747.159 1                      -530.868          25.500  
R 9  20448589.036 1 109194378.232 1     -1199.146          28.500  
R10  19972731.766 1                      1947.556          22.500  
R21  20191784.419 1                      2103.333          16.000  
> 2021  5 18  3  7 22.9996143  0 10                     
G 1  20402785.246 1 107217418.967 1      2076.029          30.000    20402777.751 1  80064820.732 1      1550.189          23.500  
G 7  20338489.357 1                      1078.407          18.250                                                                  
G 8  21974050.282 1                     -2174.741          15.250    21974055.378 1  86230993.777 1     -1624.712          26.500  
G21  20530394.903 1                      -562.964          21.250                                                                  
G30  22741731.227 1                      2953.628          20.750    22741712.040 1                      2201.970          17.750  
J 2  38022238.852 1                      1255.492          20.250    38022228.959 1                       932.076          22.500  
J 3                                                                  38976881.466 1 152953491.70411      -530.384          24.750  
R 9  20448820.776 1 109195577.484 1     -1199.253          28.500  
R10  19972362.721 1                      1952.582          23.500  
R21  20191448.951 1                      2101.447          16.500  
> 2021  5 18  3  7 23.9996144  0  9                     
G 1  20402422.197 1 107215500.092 1      2076.417          30.500    20402412.604 1                      1551.266          23.000  
G 7  20338315.177 1                      1089.224          20.250                                                                  
G 8                                                                  21974499.071 1                     -1623.220          26.000  
G21  20530533.407 1                      -561.340          20.500                                                                  
G30  22741202.993 1                      2954.876          20.500                                                                  
J 2  38022019.104 1                      1256.215          19.500    38022017.005 1 149206501.11111       933.427          22.750  
J 3                                                                  38977049.050 1                      -528.333          24.250  
R 9  20449081.895 1 109196936.490 1     -1198.918          29.000  
R10  19972008.067 1                      1955.705          23.000  
> 2021  5 18  3  7 24.9996144  0  9                     
G 1  20402028.270 1 107213422.560 1      2077.532          31.250    20402016.578 1                      1550.545          23.500  
G 7  20338121.511 1                      1096.857          21.000                                                                  
G 8                                                                  21974910.686 1  86234358.52711     -1623.078          26.000  
G21  20530650.027 1                      -559.020          20.750                                                                  
G30  22740640.582 1                      2953.893          20.500                                                                  
J 2  38021777.471 1                      1254.781          20.000    38021779.270 1 149205566.639 1       934.472          24.000  
J 3                                                                  38977182.158 1 152954667.85411      -528.782          24.500  
R 9  20449306.740 1 109198134.746 1     -1198.257          29.000  
R10  19971619.835 1                      1957.445          23.250  
> 2021  5 18  3  7 25.9996145  0  9                     
G 1  20401661.024 1 107211503.750 1      2076.351          31.250    20401653.529 1  80060403.87211      1550.631          23.500  
G 7  20337928.445 1                      1093.220          19.750                                                                  
G 8                                                                  21975356.177 1  86236099.496 1     -1623.324          26.500  
G21  20530793.627 1                      -563.201          21.000                                                                  
G30  22740103.054 1                      2953.525          19.500                                                                  
J 2  38021567.317 1                      1245.358          21.000    38021574.212 1                       933.217          23.000  
J 3                                                                  38977349.742 1 152955314.387 1      -528.887          23.750  
R 9  20449560.064 1                     -1199.937          28.750  
R10  19971304.454 1                      1952.851          23.250  
> 2021  5 18  3  7 26.9996145  0  8                     
G 1  20401266.797 1 107209428.197 1      2075.554          31.000                                                                  
G 7  20337734.180 1                      1088.984          20.500                                                                  
G 8                                                                  21975768.392 1  86237722.936 1     -1623.440          26.250  
G21  20530896.156 1                      -567.873          21.000                                                                  
J 2  38021341.273 1                      1250.427          20.750    38021334.078 1                       934.611          23.000  
J 3                                                                  38977482.251 1 152955843.301 1      -528.915          24.500  
R 9  20449790.605 1 109200693.56411     -1199.760          28.750  
R10  19970934.210 1                      1946.101          25.500  
> 2021  5 18  3  7 27.9996146  0  8                     
G 1  20400904.648 1 107207510.815 1      2074.923          30.750                                                                  
G 7  20337542.312 1                      1084.615          21.500                                                                  
G 8                                                                  21976210.586 1                     -1622.963          25.750  
G21  20531025.667 1                      -560.046          20.750                                                                  
J 2  38021137.414 1                      1251.262          20.500    38021126.622 1 149202999.56511       934.042          22.750  
J 3                                                                  38977648.336 1                      -529.035          24.500  
R 9  20450046.627 1 109202054.046 1     -1200.394          27.750  
R10  19970609.235 1                      1948.714          24.500  
> 2021  5 18  3  7 28.9996146  0  9                     
G 1  20400507.423 1 107205437.006 1      2073.809          31.000                                                                  
G 7  20337352.244 1 106873386.36411      1084.955          23.000                                                                  
G 8                                                                  21976626.998 1  86241088.06111     -1624.071          26.000  
G21  20531134.491 1                      -565.578          22.250                                                                  
G30  22738451.797 1                      2956.476          21.000                                                                  
J 2  38020901.777 1                      1252.618          20.000                                                                  
J 3                                                                  38977780.244 1 152957019.11511      -529.359          24.500  
R 9  20450265.476 1 109203255.656 1     -1201.610          27.750  
R10  19970247.385 1 106527602.02811      1949.582          25.500  
> 2021  5 18  3  7 29.9996147  0  9                     
G 1  20400142.875 1 107203521.189 1      2073.359          32.250                                                                  
G 7  20337166.972 1 106872459.356 1      1084.551          25.250                                                                  
G 8  21977089.577 1                     -2176.552          18.500    21977068.892 1                     -1624.242          25.750  
G 9  23940856.690 1                     -2200.758          10.750                                                                  
G21  20531278.392 1                      -570.123          23.750                                                                  
J 2  38020674.235 1                      1248.924          21.750                                                                  
J 3                                                                  38977945.430 1                      -529.393          23.750  
R 9  20450509.507 1 109204617.699 1     -1201.956          27.750  
R10  19969908.020 1                      1951.717          25.750  
> 2021  5 18  3  7 30.9996147  0 10                     
G 1  20399746.250 1 107201448.132 1      2073.058          32.500                                                                  
G 7  20336961.614 1                      1083.569          26.500                                                                  
G 8  21977492.499 1                     -2174.505          19.500    21977483.505 1                     -1623.929          25.500  
G 9  23941270.703 1                     -2183.997          10.000                                                                  
G21  20531380.621 1                      -567.470          22.000                                                                  
G30  22737367.148 1 119485720.11711      2949.831          23.250                                                                  
J 2  38020428.705 1                      1252.576          19.750                                                                  
J 3  38978080.636 1                      -707.863          16.000                                                                  
R 9  20450735.850 1 109205820.004 1     -1202.305          27.250  
R10  19969534.179 1                      1948.862          26.000  
> 2021  5 18  3  7 31.9996148  0  9                     
G 1  20399381.402 1 107199533.341 1      2072.333          32.750                                                                  
G 7  20336787.135 1 106870449.25811      1083.450          26.500                                                                  
G 8  21977939.189 1                     -2169.842          20.250    21977926.598 1  86246194.66611     -1623.843          25.250  
G21  20531531.417 1                      -566.610          22.750                                                                  
G30  22736842.511 1                      2947.850          22.750                                                                  
J 2  38020212.255 1                      1254.404          20.000                                                                  
J 3                                                                  38978243.723 1                      -529.824          23.000  
R 9  20450975.684 1 109207183.009 1     -1202.917          25.750  
R10  19969213.701 1                      1946.113          25.000  
> 2021  5 18  3  7 32.9996148  0  9                     
G 1  20398988.374 1 107197462.203 1      2071.138          32.500                                                                  
G 7  20336585.974 1 106869367.009 1      1082.250          26.250                                                                  
G 8  21978346.607 1                     -2171.758          20.750    21978339.412 1                     -1624.909          25.000  
G21  20531640.241 1                      -568.007          23.500                                                                  
G30  22736277.702 1                      2952.531          21.250                                                                  
J 2  38019990.708 1                      1248.590          20.500    38019995.505 1 149198565.67511       933.545          23.250  
J 3  38978360.642 1                      -709.631          16.000    38978378.330 1 152959370.71211      -529.256          22.750  
R 9  20451190.336 1                     -1203.050          25.250  
R10  19968849.453 1                      1946.164          26.000  
> 2021  5 18  3  7 33.9996148  0  9                     
G 1  20398594.747 1 107195391.951 1      2070.252          31.250                                                                  
G 7  20336379.417 1 106868285.580 1      1081.428          25.000                                                                  
G 8  21978765.118 1                     -2176.989          19.250    21978754.025 1  86249443.57311     -1624.581          25.000  
G21  20531738.873 1                      -569.351          23.750                                                                  
G30  22735734.778 1                      2950.701          20.500                                                                  
J 2  38019750.874 1                      1252.278          20.000    38019759.268 1 149197632.289 1       933.386          23.000  
J 3  38978501.245 1                      -712.583          16.000    38978514.736 1 152959900.318 1      -529.606          23.500  
R 9  20451418.478 1                     -1206.831          24.750  
R10  19968475.612 1                      1947.669          25.750  
> 2021  5 18  3  7 34.9996149  0  9                     
G 1  20398230.499 1 107193478.988 1      2070.506          30.500                                                                  
G 7  20336207.936 1                      1084.717          22.500                                                                  
G 8  21979204.313 1                     -2177.400          18.250    21979199.217 1  86251185.233 1     -1624.015          25.000  
G21  20531875.279 1                      -569.953          24.250                                                                  
G30  22735193.953 1                      2954.267          20.250                                                                  
J 2  38019539.520 1                      1251.932          19.500    38019550.313 1                       933.776          23.750  
J 3  38978678.422 1                      -710.935          16.250    38978681.420 1                      -529.212          23.500  
R 9  20451688.291 1                     -1206.249          23.250  
R10  19968150.937 1                      1946.384          25.250  
> 2021  5 18  3  7 35.9996149  0  9                     
G 1  20397834.473 1 107191409.018 1      2069.969          29.750                                                                  
G 7  20335994.484 1                      1080.723          22.000                                                                  
G 8  21979624.023 1                     -2172.596          18.250    21979612.331 1                     -1624.260          25.500  
G21  20531987.701 1                      -570.152          24.500                                                                  
G30  22734620.750 1                      2948.516          20.750                                                                  
J 2  38019309.879 1                      1251.547          19.500    38019310.179 1                       934.079          23.000  
J 3                                                                  38978817.226 1                      -527.644          24.000  
R 9  20451905.640 1                     -1206.190          22.750  
R10  19967789.387 1                      1946.987          25.000  
> 2021  5 18  3  7 36.9996150  0  9                     
G 1  20397468.426 1 107189497.424 1      2069.136          29.500                                                                  
G 7  20335817.007 1 106865358.04611      1080.188          23.750                                                                  
G 8                                                                  21980056.923 1  86254551.08111     -1624.190          25.250  
G21  20532130.702 1                      -571.359          24.250                                                                  
G30  22734096.113 1                      2951.139          20.250                                                                  
J 2                                                                  38019106.021 1                       934.260          23.250  
J 3                                                                  38978979.114 1 152961722.39211      -529.058          24.500  
R 9  20452154.168 1                     -1202.796          23.000  
R10  19967445.825 1                      1946.871          26.000  
> 2021  5 18  3  7 37.9996150  0 10                     
G 1  20397075.698 1 107187428.610 1      2068.813          30.000                                                                  
G 7  20335611.949 1                      1078.950          24.250                                                                  
G 8  21980471.836 1                     -2181.596          19.500    21980471.236 1                     -1624.455          24.750  
G21  20532237.728 1 107897660.55511      -571.302          26.000                                                                  
G30  22733537.899 1                      2951.964          22.500                                                                  
J 2  38018870.084 1                      1250.190          19.500    38018865.587 1                       934.209          23.500  
J 3                                                                  38979115.820 1                      -528.664          23.500  
R 9  20452400.298 1                     -1206.981          25.250  
R10  19967076.181 1 106510713.47311      1946.051          29.250  
R21  20185809.255 1                      2086.466          14.750  
> 2021  5 18  3  7 38.9996151  0 10                     
G 1  20396712.050 1 107185517.849 1      2068.303          29.750    20396734.235 1                      1545.877          20.000  
G 7  20335440.767 1 106863356.45911      1079.422          25.000                                                                  
G 8  21980925.122 1                     -2178.421          19.500    21980914.330 1  86257916.75311     -1623.953          25.250  
G21  20532376.232 1 107898389.782 1      -571.685          25.500                                                                  
G30  22733006.367 1                      2952.757          21.750                                                                  
J 2  38018659.030 1                      1253.043          20.000    38018658.131 1 149193314.97611       934.128          23.500  
J 3  38979262.718 1                      -707.500          16.250    38979278.307 1                      -527.041          23.250  
R 9  20452677.606 1                     -1206.752          25.250  
R10  19966742.812 1 106508927.410 1      1945.981          29.250  
R21  20185408.433 1                      2086.497          18.500  
> 2021  5 18  3  7 39.9996151  0  9                     
G 1  20396318.123 1 107183449.910 1      2067.939          28.500    20396335.211 1                      1543.405          20.750  
G 7  20335231.812 1                      1078.580          25.500                                                                  
G 8  21981331.641 1                     -2177.739          20.000    21981327.743 1                     -1623.858          25.000  
G21  20532478.461 1                      -573.600          24.500                                                                  
J 2  38018430.888 1                      1253.591          19.250    38018419.196 1 149192380.700 1       934.276          24.750  
J 3  38979402.421 1                      -715.470          17.750    38979414.113 1 152963425.95611      -528.782          24.000  
R 9  20452897.953 1                     -1209.242          24.250  
R10  19966372.868 1 106506981.912 1      1945.499          29.000  
R21  20185025.897 1                      2097.177          16.250  
> 2021  5 18  3  7 40.9996152  0  8                     
G 1  20395955.674 1 107181540.804 1      2066.648          28.250    20395976.060 1                      1539.171          20.250  
G 7  20335054.635 1                      1077.271          24.750                                                                  
G 8  21981757.646 1                     -2176.122          19.750    21981769.638 1  86261282.80611     -1624.434          24.250  
G21  20532615.466 1 107899693.73211      -573.421          23.750                                                                  
J 2  38018227.928 1                      1254.187          19.000    38018212.039 1                       934.058          25.250  
J 3  38979563.710 1                      -706.565          16.750    38979578.399 1                      -529.168          23.750  
R 9  20453139.586 1                     -1210.427          23.500  
R10  19966037.100 1 106505197.256 1      1944.575          28.750  
> 2021  5 18  3  7 41.9996152  0  8                     
G 1  20395559.948 1 107179474.928 1      2065.876          27.500    20395582.132 1                      1538.632          20.750  
G 7  20334853.474 1                      1075.537          24.500                                                                  
G 8  21982180.353 1                     -2178.158          18.750    21982185.150 1                     -1624.985          24.750  
G21  20532723.991 1                      -574.397          24.250                                                                  
J 2  38017976.403 1                      1252.570          17.250    38017974.604 1 149190630.68811       933.701          25.250  
J 3  38979689.622 1                      -712.026          16.000    38979712.407 1                      -529.138          25.250  
R 9  20453370.426 1                     -1209.202          23.000  
R10  19965685.743 1 106503253.260 1      1943.996          28.250  
> 2021  5 18  3  7 42.9996153  0  8                     
G 1  20395195.700 1 107177566.926 1      2065.544          27.750    20395216.685 1                      1543.660          19.250  
G 7  20334679.294 1                      1075.983          25.750                                                                  
G 8  21982642.633 1                     -2175.842          18.750    21982628.843 1  86264649.57511     -1624.445          24.250  
G21  20532869.990 1 107900999.90311      -574.324          23.750                                                                  
J 2  38017777.340 1                      1249.539          19.750    38017766.548 1 149189814.350 1       933.984          25.750  
J 3  38979867.100 1                      -715.223          14.250    38979877.292 1                      -528.812          25.250  
R 9  20453602.765 1                     -1213.254          22.750  
R10  19965346.978 1 106501469.306 1      1943.873          28.000  
> 2021  5 18  3  7 43.9996153  0 10                     
G 1  20394807.169 1 107175502.093 1      2064.833          27.750    20394823.957 1                      1544.526          20.750  
G 7  20334476.335 1 106858286.12711      1075.792          26.750                                                                  
G 8  21983055.447 1                     -2176.153          16.250    21983040.158 1                     -1624.510          23.500  
G 9  23946892.411 1                     -2198.304          10.250                                                                  
G21  20532983.611 1                      -575.130          23.000                                                                  
J 2  38017542.603 1                      1247.767          19.250    38017528.812 1 149188880.467 1       933.883          25.500  
J 3  38980011.300 1                      -714.897          14.500    38980014.597 1 152965776.96811      -528.880          25.500  
R 9  20453837.803 1                     -1211.404          24.250  
R10  19964977.334 1 106499525.964 1      1943.342          28.250  
R21  20183551.218 1                      2080.924          19.000  
> 2021  5 18  3  7 44.9996154  0 10                     
G 1  20394448.617 1 107173595.939 1      2063.696          28.000    20394460.609 1                      1537.787          18.250  
G 7  20334296.759 1 106857368.785 1      1074.884          26.750                                                                  
G 8                                                                  21983486.549 1  86268016.15811     -1624.517          21.250  
G 9  23947350.494 1                     -2203.468          12.750                                                                  
G21  20533121.216 1                      -578.269          20.750                                                                  
J 2  38017310.863 1                      1252.131          21.500    38017322.555 1                       933.576          22.750  
J 3                                                                  38980179.483 1 152966423.778 1      -529.166          24.250  
R 9  20454106.417 1 109223830.30211     -1211.691          26.500  
R10  19964638.568 1                      1940.337          26.000  
R21  20183153.693 1                      2081.857          19.750  
> 2021  5 18  3  7 45.9996154  0 10                     
G 1  20394056.488 1 107171533.119 1      2062.820          27.250                                                                  
G 7  20334091.701 1 106856293.898 1      1074.887          26.250                                                                  
G 8  21983916.751 1                     -2182.423          14.250    21983901.462 1                     -1624.608          17.000  
G 9  23947774.701 1                     -2192.500          11.750                                                                  
G21  20533238.435 1                      -579.750          19.000                                                                  
J 2  38017087.518 1                      1252.565          21.000    38017088.118 1                       933.871          22.500  
J 3                                                                  38980312.591 1                      -506.273          19.250  
R 9  20454323.766 1                     -1210.381          23.500  
R10  19964289.010 1                      1942.648          28.000  
R21  20182774.156 1                      2075.943          15.750  
> 2021  5 18  3  7 46.9996155  0 11                     
G 1  20393686.844 1 107169628.842 1      2061.819          25.500                                                                  
G 7  20333928.314 1                      1075.996          25.750                                                                  
G 8  21984347.553 1                     -2170.331          22.000                                                                  
G 9  23948215.395 1                     -2199.847          12.000                                                                  
G21  20533369.144 1                      -577.590          18.500                                                                  
G30  22728602.116 1                      2951.821          18.500                                                                  
J 2  38016881.860 1                      1252.154          21.000    38016880.661 1                       934.326          22.000  
J 3                                                                  38980451.695 1                      -530.118          19.250  
R 9  20454592.980 1                     -1211.094          22.250  
R10  19963942.150 1                      1946.851          25.750  
R21  20182420.701 1                      2069.117          15.000  
> 2021  5 18  3  7 47.9996155  0  9                     
G 1  20393296.515 1 107167568.603 1      2060.240          26.500    20393297.114 1  80027761.26511      1538.462          28.250  
G 7  20333710.965 1 106854299.87111      1074.269          27.250                                                                  
G 8  21984760.367 1                     -2169.220          23.500                                                                  
G 9  23948646.797 1                     -2198.474          12.250                                                                  
G21  20533487.263 1                      -576.962          21.250                                                                  
J 2  38016631.234 1                      1246.734          20.250    38016634.232 1 149185380.86211       933.304          21.750  
R 9  20454816.925 1                     -1218.350          24.750  
R10  19963590.494 1                      1941.697          24.500  
R21  20182049.858 1                      2078.633          16.250  
> 2021  5 18  3  7 48.9996156  0  9                     
G 1  20392935.265 1 107165667.379 1      2058.765          26.250    20392934.665 1  80026341.503 1      1537.407          28.250  
G 7  20333540.982 1 106853383.328 1      1074.085          28.500                                                                  
G 8  21985203.161 1 115532980.41411     -2172.581          23.500    21985199.563 1                     -1621.121          22.250  
G21  20533614.674 1                      -585.999          21.000                                                                  
J 2  38016438.168 1                      1242.639          20.000                                                                  
J 3  38980768.575 1                      -709.466          21.500                                                                  
R 9  20455057.658 1                     -1214.195          23.500  
R10  19963266.118 1                      1942.158          24.250  
R21  20181680.513 1                      2089.168          21.250  
> 2021  5 18  3  7 49.9996156  0  9                     
G 1  20392546.134 1                      2057.471          25.000    20392541.937 1  80024804.316 1      1537.186          28.250  
G 7  20333337.124 1 106852310.530 1      1072.798          30.500                                                                  
G 8  21985615.675 1                     -2175.175          22.500    21985618.373 1  86276316.66311     -1620.829          21.000  
G21  20533726.797 1                      -578.473          21.500                                                                  
J 2  38016191.438 1                      1244.684          19.250    38016185.742 1                       934.215          18.750  
J 3  38980903.182 1                      -707.850          21.750                                                                  
R 9  20455266.614 1                     -1213.163          21.000  
R10  19962907.567 1                      1945.922          21.500  
R21  20181278.192 1                      2093.897          19.250  
> 2021  5 18  3  7 50.9996157  0  9                     
G 1  20392180.087 1                      2059.809          24.750    20392182.486 1  80023384.882 1      1537.080          27.750  
G 7  20333162.045 1 106851395.620 1      1072.452          29.500                                                                  
G 8                                                                  21986061.766 1                     -1620.224          21.750  
G21  20533861.703 1                      -574.397          21.750                                                                  
J 2  38015968.693 1                      1250.186          18.000                                                                  
J 3  38981065.370 1                      -707.229          22.750    38981068.967 1                      -527.461          24.250  
R 9  20455551.416 1                     -1214.146          23.750  
R10  19962557.109 1                      1943.923          24.000  
R21  20180909.447 1                      2087.316          17.250  
> 2021  5 18  3  7 51.9996157  0  9                     
G 1  20391791.856 1                      2058.337          25.000    20391787.359 1  80021848.164 1      1536.718          27.000  
G 7  20332956.987 1 106850323.781 1      1071.839          32.250                                                                  
G 8  21986471.882 1 115539656.11711     -2172.800          27.500    21986470.383 1                     -1622.720          22.500  
G21  20533970.228 1                      -580.380          20.250                                                                  
J 2  38015750.743 1                      1249.470          20.250                                                                  
J 3  38981204.474 1                      -708.522          21.500    38981208.371 1                      -528.059          24.750  
R 9  20455796.946 1                     -1216.420          22.500  
R10  19962192.861 1                      1940.412          23.750  
R21  20180538.304 1                      2080.022          14.750  
> 2021  5 18  3  7 52.9996158  0 10                     
G 1  20391428.808 1                      2055.488          27.000    20391425.510 1  80020429.948 1      1535.861          25.000  
G 7  20332782.508 1 106849410.839 1      1070.484          31.750                                                                  
G 8  21986912.577 1                     -2171.172          25.250    21986911.978 1                     -1621.298          20.250  
G21  20534129.718 1                      -584.463          21.500                                                                  
G30  22725353.865 1                      2949.795          19.500                                                                  
J 2  38015542.388 1                      1252.303          21.750    38015535.792 1 149181062.46311       935.241          21.750  
J 3  38981370.859 1                      -706.501          20.500                                                                  
R 9  20456037.380 1                     -1214.236          22.750  
R10  19961861.291 1                      1940.109          23.750  
R21  20180163.863 1                      2076.353          15.750  
> 2021  5 18  3  7 53.9996158  0 10                     
G 1  20391039.977 1                      2058.756          26.000    20391035.480 1  80018894.213 1      1535.735          22.250  
G 7  20332580.747 1 106848341.274 1      1069.564          30.250                                                                  
G 8  21987324.792 1                     -2175.499          26.500    21987328.090 1                     -1625.979          23.000  
G21  20534237.044 1                      -582.262          20.000                                                                  
G30  22724775.265 1                      2942.153          18.500                                                                  
J 2  38015295.658 1                      1253.229          18.250    38015293.260 1                       932.340          18.750  
J 3  38981506.664 1                      -708.967          20.500    38981504.266 1                      -525.136          18.750  
R 9  20456285.308 1                     -1216.156          22.750  
R10  19961487.150 1                      1941.556          25.000  
R21  20179782.227 1                      2068.584          14.250  
> 2021  5 18  3  7 54.9996159  0 10                     
G 1  20390679.027 1 107153794.58911      2057.359          26.500    20390675.129 1                      1535.523          22.000  
G 7  20332409.266 1 106847431.308 1      1067.508          29.500                                                                  
G 8  21987771.183 1 115546499.56611     -2177.034          26.500                                                                  
G21  20534386.640 1                      -584.041          20.750                                                                  
G30  22724242.234 1                      2930.280          16.000                                                                  
J 2  38015068.116 1                      1252.880          16.250    38015091.200 1                       915.825          18.750  
J 3  38981664.056 1                      -711.891          22.000                                                                  
R 9  20456534.436 1                     -1216.978          23.500  
R10  19961158.577 1                      1937.141          23.750  
R21  20179388.000 1                      2070.103          13.750  
> 2021  5 18  3  7 55.9996159  0 10                     
G 1  20390289.896 1 107151737.530 1      2057.059          25.750                                                                  
G 7  20332209.005 1 106846363.613 1      1067.695          30.250                                                                  
G 8  21988185.196 1 115548676.561 1     -2176.995          26.000                                                                  
G21  20534493.066 1                      -584.108          19.750                                                                  
G30  22723666.333 1                      2926.955          12.500                                                                  
J 2  38014834.877 1                      1251.969          14.000    38014856.163 1                       933.644          19.250  
J 3  38981807.956 1                      -709.208          22.000                                                                  
R 9  20456763.477 1                     -1216.256          22.000  
R10  19960780.239 1                      1936.714          22.500  
R21  20179004.266 1                      2071.024          13.000  
> 2021  5 18  3  7 56.9996159  0  8                     
G 1  20389898.067 1                      2055.014          24.000                                                                  
G 7  20332003.347 1                      1065.527          27.000                                                                  
G 8  21988607.604 1                     -2176.700          22.750                                                                  
G21  20534590.799 1                      -587.049          17.250                                                                  
J 2                                                                  38014619.626 1                       935.208          19.750  
J 3  38981956.053 1                      -703.341          19.000                                                                  
R 9  20456985.923 1                     -1217.577          22.750  
R10  19960413.593 1                      1941.996          22.750  
> 2021  5 18  3  7 57.9996160  0  7                     
G 1  20389521.828 1                      2052.963          21.500                                                                  
G 7  20331832.465 1                      1065.129          22.250                                                                  
G 8  21989053.095 1                     -2177.476          19.250                                                                  
G21  20534724.206 1                      -583.690          15.750                                                                  
J 3  38982112.545 1                      -699.765          16.000                                                                  
R 9  20457254.837 1                     -1221.967          24.000  
R10  19960079.325 1                      1946.353          19.750  
> 2021  5 18  3  7 58.9996160  0  8                     
G 1  20389145.588 1                      2055.489          22.500                                                                  
G 7  20331631.604 1                      1064.533          22.250                                                                  
G 8  21989466.209 1                     -2175.544          18.500                                                                  
G21  20534825.836 1                      -585.927          17.500                                                                  
J 2  38014169.038 1                      1254.003          18.750                                                                  
J 3  38982239.057 1                      -708.546          19.250                                                                  
R 9  20457490.474 1                     -1222.471          23.000  
R10  19959733.064 1                      1945.884          21.250  
> 2021  5 18  3  7 59.9996161  0  8                     
G 1  20388782.839 1                      2056.157          23.500    20388778.642 1                      1533.718          21.250  
G 7  20331450.530 1                      1065.863          24.500                                                                  
G 8  21989911.701 1                     -2170.538          20.750                                                                  
G21  20534979.929 1                      -588.120          18.750                                                                  
G30                                                                  22721510.526 1                      2196.872          21.750  
J 2  38013932.802 1                      1258.950          18.250                                                                  
J 3  38982405.442 1                      -718.088          19.750                                                                  
R 9  20457748.296 1                     -1222.409          22.000  
> 2021  5 18  3  8  0.9996161  0  9                     
G 1  20388393.109 1                      2052.652          24.500    20388391.310 1  80008504.60111      1533.216          22.000  
G 7  20331257.463 1                      1067.812          25.000                                                                  
G 8  21990318.819 1 115559866.58411     -2175.331          24.750                                                                  
G21  20535103.743 1                      -582.996          20.750                                                                  
G30                                                                  22720954.411 1                      2197.618          18.500  
J 2  38013707.658 1                      1255.914          17.000    38013722.647 1 149173965.07911       933.568          21.250  
J 3  38982541.848 1                      -713.962          20.000                                                                  
R 9  20457988.429 1                     -1227.862          21.000  
R10  19959022.856 1                      1937.001          27.000  
> 2021  5 18  3  8  1.9996162  0  8                     
G 1  20388036.956 1                      2053.238          22.250    20388033.658 1                      1530.791          19.000  
G 7  20331078.487 1                      1062.864          25.750                                                                  
G 8  21990768.508 1                     -2175.276          22.000                                                                  
G21  20535237.451 1                      -584.783          20.500                                                                  
J 2  38013501.401 1                      1247.459          20.000    38013510.994 1                       935.070          18.750  
J 3  38982705.535 1                      -703.185          21.250    38982705.235 1                      -522.671          20.000  
R 9  20458246.251 1                     -1224.551          22.000  
R10  19958688.887 1 106466024.13411      1936.436          28.250  
> 2021  5 18  3  8  2.9996162  0  9                     
G 1  20387644.228 1                      2057.283          20.750    20387637.932 1                      1527.676          21.250  
G 7  20330880.924 1                      1065.652          22.750                                                                  
G 8  21991178.924 1                     -2172.166          21.250                                                                  
G21  20535354.970 1                      -587.655          19.500                                                                  
J 2  38013258.868 1                      1242.684          20.000    38013268.762 1                       928.318          19.500  
J 3  38982835.045 1                      -697.501          19.750    38982831.447 1                      -518.862          20.500  
R 9  20458452.208 1                     -1219.616          23.750  
R10  19958326.138 1 106464087.029 1      1937.105          31.250  
R20  19863717.934 1                     -2309.671          20.750  
> 2021  5 18  3  8  3.9996163  0 10                     
G 1  20387285.076 1                      2055.808          19.000    20387279.380 1                      1532.200          23.000  
G 7  20330707.644 1                      1068.897          20.750                                                                  
G 8  21991610.625 1                     -2167.689          20.750    21991618.419 1                     -1625.320          18.500  
G21  20535497.071 1                      -592.783          18.000                                                                  
G30                                                                  22719337.030 1                      2195.239          17.500  
J 2  38013066.102 1                      1244.308          19.250                                                                  
J 3  38982997.233 1                      -697.955          20.750    38982997.532 1                      -521.861          19.500  
R 9  20458703.434 1                     -1222.606          22.750  
R10  19958002.362 1 106462307.143 1      1939.805          35.500  
R20  19864187.709 1                     -2305.236          21.250  
> 2021  5 18  3  8  4.9996163  0 10                     
G 1  20386888.751 1                      2051.363          19.500    20386897.145 1                      1531.906          20.000  
G 7  20330505.884 1                      1063.577          21.750                                                                  
G 8  21992021.640 1                     -2169.365          20.250    21992032.433 1                     -1617.585          22.750  
G21  20535608.894 1                      -592.393          16.500                                                                  
G30                                                                  22718776.718 1                      2201.805          17.500  
J 2  38012833.163 1                      1248.543          20.500    38012828.966 1                       942.127          21.000  
J 3  38983137.535 1                      -705.501          20.250    38983133.938 1                      -524.566          21.250  
R 9  20458930.677 1                     -1225.018          21.250  
R10  19957631.219 1 106460366.460 1      1940.683          35.000  
R20  19864573.842 1                     -2302.305          22.500  
> 2021  5 18  3  8  5.9996164  0 11                     
G 1  20386543.989 1                      2048.449          21.250                                                                  
G 7  20330338.000 1                      1056.878          19.250                                                                  
G 8  21992485.719 1                     -2174.393          19.500    21992478.824 1                     -1620.434          22.250  
G21  20535745.899 1                      -591.974          17.750                                                                  
G30                                                                  22718248.784 1                      2208.327          19.000  
J 2  38012620.011 1                      1248.133          19.750    38012616.113 1                       935.290          23.250  
J 3  38983300.323 1                      -708.394          21.500    38983286.832 1                      -526.275          24.500  
R 9  20459202.889 1                     -1225.972          20.500  
R10  19957302.347 1 106458586.837 1      1939.541          35.750  
R20  19865077.193 1                     -2307.368          22.500  
R21  20175336.905 1                      2075.400          13.750  
> 2021  5 18  3  8  6.9996164  0  9                     
G 7  20330135.940 1                      1056.216          17.500                                                                  
G 8  21992882.344 1                     -2172.432          20.000    21992879.047 1                     -1617.699          22.250  
G21  20535853.524 1                      -593.476          19.250                                                                  
G30                                                                  22717686.073 1                      2209.089          17.750  
J 3  38983428.634 1                      -703.732          25.750    38983421.739 1 152979354.56711      -526.266          30.750  
R 9  20459430.731 1                     -1228.984          20.000  
R10  19956942.896 1 106456645.320 1      1941.518          35.750  
R20  19865495.104 1                     -2307.393          23.500  
R21  20174927.388 1                      2068.692          21.000  
> 2021  5 18  3  8  7.9996165  0 10                     
G 1  20385784.915 1                      2040.201          26.500    20385782.816 1                      1522.172          26.500  
G 7  20329944.372 1                      1067.088          18.750                                                                  
G 8  21993327.236 1                     -2164.557          20.750    21993327.536 1                     -1614.215          21.500  
G21  20535993.827 1                      -595.366          26.250                                                                  
J 2  38012160.429 1 199755442.69311      1250.066          30.000    38012164.626 1 149167881.87911       933.248          34.750  
J 3  38983592.620 1                      -705.191          24.500    38983586.325 1                      -529.933          30.500  
R 9  20459682.257 1                     -1222.745          20.500  
R10  19956592.139 1 106454862.129 1      1943.110          36.500  
R20  19865951.988 1                     -2302.604          24.000  
R21  20174584.126 1                      2060.122          19.000  
> 2021  5 18  3  8  8.9996165  0  9                     
G 1  20385393.686 1 107126009.30111      2038.951          27.500    20385395.185 1  79996742.25411      1522.601          27.750  
G 7  20329753.105 1                      1065.827          20.500                                                                  
G 8  21993749.644 1                     -2163.739          21.500    21993738.851 1                     -1616.212          22.750  
G21  20536102.652 1 107918076.52811      -594.284          30.250                                                                  
J 2  38011922.694 1 199754194.108 1      1248.585          29.250    38011925.092 1 149166949.488 1       932.392          34.500  
J 3  38983729.925 1                      -709.990          21.750    38983720.932 1                      -523.052          26.500  
R10  19956237.184 1 106452921.222 1      1940.907          37.250  
R20  19866386.387 1                     -2304.984          25.250  
R21  20174194.696 1                      2061.303          19.750  
> 2021  5 18  3  8  9.9996166  0 11                     
G 1  20385033.935 1 107124128.176 1      2038.667          28.500    20385037.832 1                      1522.649          27.500  
G 7  20329578.925 1                      1058.675          20.750                                                                  
G 8  21994183.743 1                     -2170.512          22.750    21994183.444 1                     -1617.805          21.500  
G21  20536245.353 1 107918828.842 1      -594.772          29.750                                                                  
G30  22716066.295 1                      2945.889          23.750    22716056.102 1                      2202.227          24.250  
J 2  38011717.036 1 199753103.046 1      1248.603          30.750    38011717.336 1 149166134.703 1       932.430          34.250  
J 3  38983884.918 1                      -709.731          22.750    38983888.516 1                      -528.406          24.000  
R 9  20460197.000 1                     -1231.779          24.750  
R10  19955901.117 1 106451141.330 1      1939.811          36.750  
R20  19866843.870 1                     -2308.802          25.000  
R21  20173865.524 1                      2062.555          26.000  
> 2021  5 18  3  8 10.9996166  0 11                     
G 1  20384649.601 1 107122089.211 1      2038.965          28.750    20384649.601 1  79993814.82411      1522.645          26.500  
G 7  20329398.750 1                      1063.365          18.750                                                                  
G 8  21994600.755 1                     -2178.273          20.250                                                                  
G21  20536358.075 1 107919423.892 1      -595.049          28.250                                                                  
G30  22715499.687 1                      2949.795          23.500    22715495.490 1                      2199.875          23.750  
J 2  38011480.799 1                      1241.245          28.250    38011481.099 1 149165202.110 1       932.593          32.000  
J 3  38984022.523 1                      -712.102          21.750                                                                  
R 9  20460430.838 1                     -1231.855          26.000  
R10  19955532.372 1 106449202.394 1      1938.936          36.000  
R20  19867259.982 1 106239108.93511     -2307.674          24.000  
R21  20173468.299 1                      2058.978          27.250  
> 2021  5 18  3  8 11.9996166  0 11                     
G 1  20384261.969 1 107120049.130 1      2040.081          28.000    20384260.470 1  79992291.224 1      1523.600          26.750  
G 7  20329196.690 1                      1064.597          17.750                                                                  
G 8  21995021.364 1                     -2178.459          21.000    21995006.674 1                     -1623.258          22.000  
G21  20536476.493 1                      -597.941          24.750                                                                  
G30  22714930.681 1                      2942.831          24.000    22714932.479 1  89138291.80611      2198.373          27.250  
J 2  38011240.965 1                      1250.530          24.500    38011250.559 1                       937.900          27.000  
J 3  38984166.123 1                      -717.399          18.500    38984153.532 1                      -528.905          23.750  
R 9  20460672.771 1                     -1231.145          24.750  
R10  19955175.320 1 106447264.856 1      1937.538          35.250  
R20  19867696.780 1                     -2307.675          24.000  
R21  20173078.269 1                      2058.954          24.750  
> 2021  5 18  3  8 12.9996167  0 10                     
G 1  20383903.717 1 107118164.998 1      2041.673          28.500    20383904.616 1  79990884.213 1      1524.656          27.000  
G 8  21995456.662 1                     -2173.282          20.000    21995446.469 1  86314877.13711     -1622.731          23.750  
G21  20536625.790 1                      -599.320          23.000                                                                  
G30  22714404.545 1                      2936.523          24.250    22714406.643 1  89136213.821 1      2195.631          28.500  
J 2  38011035.907 1                      1247.010          24.000                                                                  
J 3  38984332.208 1                      -715.184          17.500    38984321.116 1 152982872.99011      -527.473          22.500  
R 9  20460914.404 1                     -1231.673          24.500  
R10  19954847.347 1 106445490.423 1      1934.351          34.750  
R20  19868168.353 1                     -2314.222          23.750  
R21  20172746.398 1                      2066.442          22.250  
> 2021  5 18  3  8 13.9996167  0 11                     
G 1  20383513.387 1 107116122.581 1      2042.418          29.000    20383513.987 1                      1525.318          25.750  
G 7  20328807.559 1                      1054.416          21.250                                                                  
G 8  21995867.678 1                     -2170.828          19.000    21995872.175 1  86316504.878 1     -1627.742          21.250  
G21  20536733.715 1                      -597.894          24.000                                                                  
G30  22713845.132 1                      2934.127          23.750    22713844.533 1  89134020.065 1      2193.755          26.750  
J 2  38010804.468 1                      1248.149          23.000                                                                  
J 3  38984491.398 1                      -706.759          19.500    38984456.622 1                      -522.659          20.000  
R 9  20461155.437 1                     -1231.070          25.750  
R10  19954482.799 1 106443558.121 1      1932.301          33.000  
R20  19868602.153 1                     -2315.784          24.250  
R21  20172324.590 1                      2064.421          20.750  
> 2021  5 18  3  8 14.9996168  0 11                     
G 1  20383153.337 1 107114240.452 1      2039.671          29.500    20383158.433 1  79987953.55411      1523.192          26.500  
G 7  20328632.181 1                      1056.641          22.750                                                                  
G 8                                                                  21996305.674 1                     -1618.442          25.750  
G21  20536869.821 1                      -594.897          21.750                                                                  
G30  22713318.397 1                      2934.664          24.000    22713316.598 1                      2193.274          23.250  
J 2  38010593.714 1                      1250.381          20.000                                                                  
J 3  38984634.699 1                      -705.144          20.000    38984621.508 1                      -524.749          19.500  
R 9  20461414.458 1                     -1229.128          25.750  
R10  19954153.627 1 106441784.277 1      1933.763          34.000  
R20  19869080.322 1                     -2315.131          24.500  
R21  20171990.921 1                      2056.244          21.750  
> 2021  5 18  3  8 15.9996168  0 11                     
G 1  20382774.099 1                      2036.859          27.750    20382768.103 1                      1519.121          25.750  
G 7  20328439.114 1                      1065.796          21.000                                                                  
G 8  21996716.990 1                     -2169.717          25.250    21996721.487 1  86319863.42511     -1617.826          24.750  
G21  20536979.845 1                      -594.779          22.000                                                                  
G30  22712757.785 1                      2943.234          23.250    22712757.485 1                      2199.199          24.500  
J 2  38010357.477 1                      1254.059          19.000                                                                  
J 3  38984751.918 1                      -705.289          21.500    38984752.218 1                      -526.177          24.750  
R 9  20461634.805 1                     -1233.606          27.000  
R10  19953786.981 1 106439846.947 1      1937.329          33.000  
R20  19869509.625 1                     -2310.534          22.750  
R21  20171615.281 1                      2054.295          19.750  
> 2021  5 18  3  8 16.9996168  0 11                     
G 1  20382385.268 1 107110171.52711      2032.678          27.250    20382381.071 1                      1517.182          26.750  
G 7  20328232.258 1                      1068.260          20.000                                                                  
G 8  21997131.902 1                     -2165.022          23.750    21997129.204 1                     -1616.945          23.000  
G21  20537101.261 1                      -589.515          19.500                                                                  
G30  22712199.272 1                      2948.661          23.000    22712201.370 1                      2199.909          22.750  
J 2  38010120.641 1                      1251.816          18.250                                                                  
J 3  38984888.323 1                      -704.013          23.500                                                                  
R 9  20461872.540 1                     -1232.010          23.750  
R10  19953418.236 1                      1936.003          30.750  
R20  19869943.125 1                     -2305.938          20.750  
R21  20171288.807 1                      2065.611          17.750  
> 2021  5 18  3  8 17.9996169  0 11                     
G 1  20382027.616 1 107108299.225 1      2029.844          28.750    20382026.417 1  79983517.13811      1515.652          28.250  
G 7  20328049.084 1                      1056.972          18.750                                                                  
G 8  21997571.698 1                     -2163.918          22.000    21997569.300 1                     -1620.045          22.750  
G21  20537253.255 1                      -592.636          18.500                                                                  
G30  22711665.941 1                      2953.382          20.750    22711665.341 1                      2205.003          23.000  
J 2  38009917.981 1                      1247.581          18.500    38009910.487 1                       937.771          19.500  
J 3  38985057.706 1                      -703.057          20.500    38985052.909 1                      -525.281          22.750  
R 9  20462126.165 1                     -1238.070          24.250  
R10  19953082.169 1 106436125.81911      1941.671          34.750  
R20  19870396.711 1                     -2303.218          22.250  
R21  20170911.069 1                      2076.022          15.750  
> 2021  5 18  3  8 18.9996169  0 11                     
G 1  20381639.984 1 107106271.460 1      2027.766          28.250    20381637.586 1  79982002.903 1      1514.234          28.000  
G 7  20327856.018 1                      1068.826          21.000                                                                  
G 8  21997981.814 1                     -2159.469          22.500                                                                  
G21  20537368.975 1                      -602.948          21.000                                                                  
G30  22711101.132 1                      2959.646          23.500    22711099.033 1                      2208.571          23.750  
J 2  38009688.041 1                      1244.618          19.500    38009675.149 1                       935.470          22.250  
J 3  38985192.013 1                      -700.663          20.000    38985182.420 1                      -521.386          23.250  
R 9  20462368.397 1                     -1245.715          22.000  
R10  19952726.015 1 106434182.153 1      1943.667          34.750  
R20  19870806.527 1                     -2304.963          23.250  
R21  20170514.144 1                      2074.082          17.250  
> 2021  5 18  3  8 19.9996170  0 11                     
G 1  20381282.632 1 107104398.941 1      2030.060          28.500    20381284.430 1  79980604.479 1      1516.070          28.750  
G 7  20327687.535 1                      1063.808          22.000                                                                  
G 8  21998419.811 1                     -2157.134          24.750                                                                  
G21  20537510.777 1                      -608.168          18.750                                                                  
G30  22710566.902 1                      2953.702          25.500    22710571.399 1                      2203.480          25.750  
J 2  38009467.693 1                      1247.269          19.000    38009464.395 1                       932.797          21.500  
J 3  38985355.100 1                      -702.966          21.000    38985345.207 1                      -519.341          24.250  
R 9  20462652.600 1                     -1251.992          17.750  
R10  19952396.244 1 106432398.186 1      1943.886          35.250  
R20  19871270.606 1                     -2305.866          24.250  
R21  20170135.806 1                      2063.548          20.500  
> 2021  5 18  3  8 20.9996170  0  9                     
G 1  20380892.302 1 107102364.192 1      2034.750          28.000    20380896.199 1  79979085.149 1      1519.329          28.500  
G 7  20327485.475 1                      1052.370          22.250                                                                  
G 8  21998832.925 1                     -2166.510          24.250    21998828.128 1                     -1606.963          22.000  
G21  20537614.505 1                      -601.198          20.500                                                                  
G30  22710003.292 1                      2944.337          24.250    22710001.193 1                      2200.017          27.000  
J 2  38009224.561 1                      1256.685          21.250    38009224.861 1                       932.729          22.000  
J 3  38985481.613 1                      -700.226          23.500    38985475.917 1 152987418.86911      -523.769          25.750  
R10  19952027.799 1                      1935.234          35.250  
R20  19871699.908 1                     -2309.546          24.500  
> 2021  5 18  3  8 21.9996171  0 10                     
G 1  20380538.247 1 107100482.199 1      2039.535          28.500    20380537.947 1  79977679.859 1      1522.935          28.500  
G 7  20327322.687 1                      1052.385          21.000                                                                  
G 8  21999282.014 1                     -2176.742          22.250    21999273.320 1                     -1610.279          24.250  
G21  20537767.699 1                      -594.126          21.500                                                                  
G30  22709464.865 1                      2933.875          30.750    22709469.661 1  89116884.88711      2194.116          35.750  
J 3  38985650.096 1                      -704.738          21.750    38985643.201 1 152988062.652 1      -526.138          25.000  
R 9  20463165.845 1                     -1227.914          16.500  
R10  19951696.228 1 106428687.08311      1931.904          33.500  
R20  19872174.780 1                     -2320.275          24.000  
R21  20169386.924 1                      2051.547          22.500  
> 2021  5 18  3  8 22.9996171  0 10                     
G 1  20380145.519 1 107098440.001 1      2042.198          28.250    20380147.917 1  79976154.884 1      1524.975          27.250  
G 7  20327121.527 1                      1048.747          22.500                                                                  
G 8  21999704.122 1 115609158.14311     -2177.054          23.750                                                                  
G21  20537874.425 1                      -597.706          17.000                                                                  
G30  22708912.347 1 119336255.28211      2932.632          34.000    22708910.548 1  89114694.953 1      2189.934          38.750  
J 3  38985780.506 1                      -710.575          26.250    38985772.112 1                      -527.589          23.250  
R 9  20463394.287 1                     -1226.614          20.250  
R10  19951321.488 1 106426759.688 1      1927.395          32.500  
R20  19872610.378 1                     -2325.676          24.500  
R21  20169001.691 1                      2053.460          18.000  
> 2021  5 18  3  8 23.9996172  0 11                     
G 1  20379790.864 1 107096556.372 1      2041.171          27.750    20379792.363 1                      1523.356          26.500  
G 7  20326945.249 1                      1050.806          24.750                                                                  
G 8  22000147.215 1                     -2178.000          24.250    22000129.527 1  86333278.85211     -1626.066          28.500  
G21  20538015.328 1                      -605.146          12.500                                                                  
G30  22708382.914 1 119333480.995 1      2931.830          33.500    22708383.813 1  89112623.232 1      2189.367          39.250  
J 2  38008558.423 1                      1247.509          22.750                                                                  
J 3  38985943.293 1 204872768.64511      -706.505          27.000    38985937.297 1                      -529.503          22.750  
R 9  20463614.934 1                     -1229.508          20.250  
R10  19950991.716 1 106424992.985 1      1926.621          32.500  
R20  19873063.365 1 106270122.89011     -2322.049          24.750  
R21  20168677.915 1                      2056.767          15.250  
> 2021  5 18  3  8 24.9996172  0 11                     
G 1  20379405.031 1 107094516.232 1      2040.140          28.000    20379404.132 1  79973224.69311      1523.617          26.000  
G 7  20326739.591 1 106817676.46911      1050.209          24.750                                                                  
G 8  22000561.828 1 115613671.29311     -2178.007          24.250    22000545.339 1  86334905.317 1     -1626.466          28.500  
G21  20538175.117 1                      -605.006          11.500                                                                  
G30  22707824.400 1 119330549.480 1      2931.514          33.500    22707825.899 1  89110434.491 1      2188.740          39.500  
J 2  38008322.486 1                      1249.218          21.500                                                                  
J 3  38986077.600 1 204873475.668 1      -707.023          26.750    38986073.103 1 152989763.15411      -527.783          23.000  
R 9  20463865.261 1                     -1239.012          21.250  
R10  19950625.070 1 106423067.254 1      1925.731          32.500  
R20  19873502.860 1                     -2319.777          25.000  
R21  20168304.673 1                      2055.811          17.000  
> 2021  5 18  3  8 25.9996173  0  9                     
G 1  20379048.578 1 107092634.212 1      2039.562          27.750    20379046.480 1                      1522.574          25.750  
G 7  20326570.508 1                      1048.555          24.750                                                                  
G 8  22000999.225 1 115616007.073 1     -2178.238          24.250    22000990.231 1  86336649.539 1     -1626.577          28.750  
G30  22707296.166 1 119327776.359 1      2930.663          33.000    22707298.265 1  89108363.657 1      2188.480          39.250  
J 2  38008112.331 1                      1248.820          20.500                                                                  
J 3  38986240.687 1 204874340.061 1      -706.851          26.500    38986235.291 1 152990408.791 1      -527.992          23.000  
R 9  20464118.586 1                     -1237.598          21.250  
R10  19950312.986 1 106421301.911 1      1925.261          32.750  
R20  19873974.734 1 106274930.03911     -2323.801          25.500  
> 2021  5 18  3  8 26.9996173  0  9                     
G 1  20378656.150 1 107090595.139 1      2039.073          27.500    20378659.747 1                      1522.669          26.000  
G 7  20326375.043 1 106815735.44611      1049.164          25.750                                                                  
G 8  22001412.639 1                     -2179.234          23.750    22001404.545 1  86338275.992 1     -1626.453          28.750  
G30  22706738.552 1 119324845.834 1      2930.526          33.250    22706740.651 1  89106175.280 1      2188.377          39.250  
J 2  38007873.996 1                      1253.226          21.250                                                                  
J 3  38986369.898 1                      -706.969          26.500    38986370.797 1 152990936.309 1      -527.518          23.250  
R 9  20464323.044 1                     -1229.277          21.000  
R10  19949950.836 1 106419376.859 1      1925.052          33.250  
R20  19874396.242 1 106277254.147 1     -2324.107          25.500  
> 2021  5 18  3  8 27.9996174  0 10                     
G 1  20378299.097 1 107088714.429 1      2038.251          28.250    20378299.697 1  79968892.25811      1522.039          24.750  
G 7  20326205.361 1 106814844.749 1      1048.238          26.250                                                                  
G 8  22001859.929 1 115620520.93111     -2178.196          24.000    22001849.437 1  86340020.351 1     -1626.714          28.250  
G30  22706210.617 1 119322073.434 1      2929.941          33.750    22706212.716 1  89104104.980 1      2187.945          39.500  
J 2  38007674.035 1                      1249.415          21.250                                                                  
J 3  38986548.574 1 204875620.32611      -706.913          26.500    38986534.784 1                      -525.770          22.500  
R 9  20464599.153 1                     -1237.021          20.750  
R10  19949600.379 1 106417612.378 1      1924.400          33.500  
R20  19874891.499 1                     -2325.558          25.500  
R21  20167320.155 1                      2050.401          15.250  
> 2021  5 18  3  8 28.9996174  0  9                     
G 1  20377912.964 1 107086677.195 1      2037.234          29.000    20377911.166 1                      1520.482          25.250  
G 7  20326006.898 1 106813797.569 1      1047.180          25.750                                                                  
G 8  22002267.047 1                     -2176.767          24.250    22002266.148 1  86341647.318 1     -1626.967          28.500  
G30  22705654.802 1 119319144.245 1      2929.189          33.500    22705655.702 1  89101917.560 1      2187.420          39.500  
J 2  38007430.903 1                      1242.755          20.750    38007453.987 1                       933.018          21.000  
J 3  38986682.581 1                      -708.006          26.250    38986668.791 1                      -528.960          22.000  
R 9  20464825.496 1                     -1244.034          21.000  
R10  19949252.020 1 106415688.837 1      1923.541          33.000  
R20  19875307.311 1                     -2328.099          25.000  
> 2021  5 18  3  8 29.9996175  0  9                     
G 1  20377557.411 1 107084798.316 1      2036.421          29.000    20377555.312 1                      1520.979          24.500  
G 7  20325834.518 1 106812908.719 1      1046.392          25.500                                                                  
G 8  22002714.038 1 115625036.37111     -2179.075          24.000    22002708.342 1  86343392.152 1     -1627.189          28.250  
G30  22705127.168 1 119316373.156 1      2928.632          33.500    22705128.667 1  89099848.250 1      2186.955          39.750  
J 2  38007237.237 1                      1247.852          19.500    38007240.835 1 149148469.22611       933.545          22.250  
J 3  38986847.467 1 204877192.72811      -707.510          26.500    38986833.077 1 152992756.24911      -528.306          22.250  
R 9  20465101.305 1                     -1237.259          21.000  
R10  19948917.452 1 106413925.910 1      1922.846          33.250  
R20  19875780.983 1 106284552.76611     -2326.901          25.500  
> 2021  5 18  3  8 30.9996175  0  9                     
G 1  20377172.777 1 107082761.755 1      2036.561          28.750    20377167.680 1  79964447.14211      1520.736          23.750  
G 7  20325635.755 1                      1046.806          24.500                                                                  
G 8  22003133.148 1                     -2177.924          24.000    22003123.555 1  86345018.895 1     -1626.742          28.500  
G30  22704566.256 1 119313444.156 1      2929.000          33.750    22704571.053 1  89097660.986 1      2187.264          39.500  
J 2  38007003.699 1                      1252.244          20.750    38007000.101 1                       934.713          22.250  
J 3  38986973.980 1 204877899.457 1      -706.729          27.000    38986968.883 1 152993283.965 1      -527.716          22.750  
R 9  20465348.334 1                     -1227.649          19.000  
R10  19948564.296 1 106412002.768 1      1923.142          33.500  
R20  19876206.688 1                     -2327.186          25.000  
> 2021  5 18  3  8 31.9996176  0  9                     
G 1  20376813.326 1 107080883.040 1      2036.257          28.750    20376809.728 1                      1519.639          23.750  
G 7  20325473.567 1                      1045.280          24.000                                                                  
G 8  22003576.541 1                     -2179.056          24.250    22003569.046 1  86346763.040 1     -1626.501          28.000  
G30  22704043.718 1 119310672.533 1      2929.165          33.750    22704043.718 1  89095591.306 1      2187.325          39.250  
J 2  38006778.855 1                      1252.076          19.750                                                                  
J 3  38987143.062 1 204878763.336 1      -706.337          26.250    38987133.169 1                      -528.391          22.000  
R 9  20465540.201 1                     -1225.493          17.500  
R10  19948249.514 1 106410239.470 1      1923.217          33.500  
R20  19876670.467 1                     -2327.094          24.500  
> 2021  5 18  3  8 32.9996176  0 10                     
G 1  20376423.595 1 107078847.851 1      2035.190          28.500    20376419.998 1  79961524.35111      1519.782          22.750  
G 7  20325263.113 1                      1045.000          23.750                                                                  
G 8  22003993.852 1 115631729.08511     -2178.740          24.250    22003981.860 1  86348389.987 1     -1626.947          28.500  
G21  20539173.426 1                      -606.254          11.250                                                                  
G30  22703483.405 1 119307744.431 1      2928.101          33.750    22703486.403 1  89093404.707 1      2186.600          39.500  
J 2  38006530.327 1                      1249.018          20.000                                                                  
J 3  38987274.372 1 204879470.151 1      -706.815          26.500    38987269.875 1 152994456.93211      -527.763          22.500  
R 9  20465756.951 1                     -1224.804          14.500  
R10  19947874.174 1 106408317.436 1      1922.034          34.000  
R20  19877111.762 1                     -2331.234          24.750  
> 2021  5 18  3  8 33.9996177  0 10                     
G 1  20376062.046 1 107076970.643 1      2034.750          27.750    20376064.444 1                      1519.969          23.500  
G 7  20325094.030 1 106809041.54011      1044.651          24.500                                                                  
G 8  22004442.042 1 115634065.078 1     -2178.451          24.500    22004426.752 1  86350134.399 1     -1626.768          28.500  
G21  20539317.027 1                      -608.633          10.750                                                                  
G30  22702958.769 1 119304973.868 1      2928.105          33.250    22702959.068 1  89091335.790 1      2186.561          39.250  
J 2  38006337.860 1                      1249.801          19.500                                                                  
J 3  38987440.756 1 204880334.297 1      -706.605          26.250    38987432.062 1                      -527.526          22.250  
R 9  20466090.620 1                     -1232.713          14.750  
R10  19947542.903 1 106406555.392 1      1921.963          34.250  
R20  19877575.841 1                     -2330.748          24.750  
> 2021  5 18  3  8 34.9996177  0  9                     
G 1  20375673.815 1 107074936.314 1      2034.328          28.000    20375681.309 1  79958603.48011      1518.986          22.750  
G 7  20324898.566 1                      1043.357          23.000                                                                  
G 8  22004848.261 1                     -2179.254          23.000    22004841.365 1  86351761.142 1     -1626.742          28.500  
G30  22702402.953 1 119302045.957 1      2927.911          32.750    22702402.054 1  89089149.387 1      2186.404          39.250  
J 2  38006095.028 1                      1251.025          19.500    38006110.317 1                       934.483          23.000  
J 3  38987569.667 1 204881040.840 1      -706.543          26.250    38987566.669 1                      -527.563          21.000  
R 9  20466379.021 1                     -1237.167          16.000  
R10  19947173.559 1 106404633.804 1      1921.588          33.500  
R20  19878026.129 1                     -2328.771          24.250  
> 2021  5 18  3  8 35.9996178  0  9                     
G 1  20375318.261 1 107073060.551 1      2033.305          28.500    20375321.259 1  79957202.651 1      1518.474          24.000  
G 7  20324727.384 1                      1044.614          22.500                                                                  
G 8  22005293.752 1                     -2178.680          23.250    22005287.157 1  86353505.865 1     -1627.078          28.500  
G30  22701875.319 1 119299276.324 1      2927.175          32.750    22701875.019 1  89087081.146 1      2185.886          38.750  
J 2  38005898.064 1                      1253.409          20.250                                                                  
J 3  38987738.151 1 204881905.095 1      -706.712          27.250    38987732.155 1                      -528.144          21.500  
R 9  20466607.163 1                     -1246.827          15.250  
R10  19946847.685 1 106402872.792 1      1920.931          33.250  
R20  19878459.629 1                     -2325.997          24.000  
> 2021  5 18  3  8 36.9996178  0 10                     
G 1  20374933.627 1 107071027.825 1      2032.726          29.500    20374934.826 1                      1515.878          23.500  
G 7  20324525.923 1                      1041.319          23.750                                                                  
G 8  22005707.166 1 115640757.75811     -2178.348          23.750    22005700.570 1  86355132.992 1     -1627.127          28.000  
G30  22701312.908 1 119296349.520 1      2926.804          34.000    22701317.105 1  89084895.520 1      2185.626          39.000  
J 2                                                                  38005665.126 1                       933.210          23.250  
J 3  38987875.755 1 204882611.796 1      -706.702          27.500    38987864.963 1 152996802.99311      -527.703          22.000  
R 9  20466796.931 1                     -1240.502          16.250  
R10  19946492.431 1 106400952.344 1      1920.448          35.750  
R20  19878900.024 1 106301333.35411     -2330.450          25.500  
R21  20163830.571 1                      2049.611          19.000  
> 2021  5 18  3  8 37.9996179  0 10                     
G 1  20374576.874 1 107069153.422 1      2031.945          30.000    20374576.574 1                      1517.340          23.000  
G 7  20324361.937 1                      1041.437          23.250                                                                  
G 8  22006155.356 1                     -2178.892          24.000    22006144.563 1  86356877.941 1     -1627.305          28.250  
G30  22700789.770 1 119293580.671 1      2926.391          33.750    22700790.670 1  89082827.909 1      2185.255          39.000  
J 2  38005450.474 1                      1247.096          21.500                                                                  
J 3  38988031.647 1 204883476.248 1      -706.910          27.500    38988029.849 1                      -527.037          22.250  
R 9  20467008.285 1                     -1237.441          17.000  
R10  19946164.158 1 106399192.432 1      1919.831          36.250  
R20  19879381.491 1 106303824.963 1     -2331.297          25.750  
R21  20163431.847 1                      2044.755          20.000  
> 2021  5 18  3  8 38.9996179  0 10                     
G 1  20374188.942 1 107067121.585 1      2031.837          30.750                                                                  
G 7  20324155.680 1 106804136.59311      1041.576          24.250                                                                  
G 8  22006566.371 1 115645273.73711     -2178.804          23.500    22006559.776 1  86358504.865 1     -1626.924          28.000  
G30  22700230.657 1 119290654.249 1      2926.422          33.750    22700233.955 1  89080642.584 1      2185.325          39.000  
J 2  38005205.544 1                      1246.334          21.250                                                                  
J 3  38988171.351 1 204884182.536 1      -706.288          28.250    38988163.256 1                      -526.940          21.750  
R 9  20467260.710 1                     -1239.676          19.750  
R10  19945804.407 1 106397272.563 1      1919.869          36.000  
R20  19879828.481 1                     -2331.169          25.750  
R21  20163077.792 1                      2045.667          20.250  
> 2021  5 18  3  8 39.9996180  0 10                     
G 1  20373830.990 1 107065247.770 1      2031.357          30.500    20373832.789 1  79951368.41011      1517.016          22.750  
G 7  20323995.291 1                      1040.770          23.500                                                                  
G 8  22007011.863 1                     -2178.970          24.250    22007002.869 1  86360249.423 1     -1626.913          28.000  
G30  22699699.725 1 119287885.430 1      2926.361          33.750    22699707.220 1  89078574.987 1      2185.242          39.250  
J 2  38004999.886 1                      1249.581          21.500                                                                  
J 3  38988336.236 1 204885046.300 1      -706.222          28.000    38988326.943 1                      -533.577          22.000  
R 9  20467547.312 1                     -1247.106          20.000  
R10  19945473.436 1 106395512.810 1      1919.671          35.500  
R20  19880302.753 1                     -2330.084          25.250  
R21  20162789.391 1                      2042.235          18.750  
> 2021  5 18  3  8 40.9996180  0 10                     
G 1  20373444.558 1 107063216.953 1      2030.816          29.750    20373448.155 1  79949851.880 1      1516.529          22.750  
G 7  20323802.824 1                      1041.201          23.500                                                                  
G 8  22007423.478 1 115649788.40611     -2178.580          24.000    22007419.580 1  86361876.251 1     -1626.827          27.500  
G30  22699148.706 1 119284959.416 1      2926.014          33.500    22699150.505 1  89076389.915 1      2185.072          39.000  
J 2  38004767.847 1                      1247.243          21.250                                                                  
J 3  38988469.944 1 204885752.305 1      -706.005          27.500    38988461.550 1                      -528.523          21.250  
R 9  20467788.045 1                     -1247.526          21.500  
R10  19945113.385 1 106393593.591 1      1919.219          36.000  
R20  19880727.858 1                     -2331.169          25.000  
R21  20162399.961 1                      2043.797          19.000  
> 2021  5 18  3  8 41.9996181  0 10                     
G 1  20373088.704 1                      2029.097          29.000    20373088.704 1  79948453.772 1      1515.753          23.000  
G 7  20323623.848 1 106801330.45511      1039.450          23.000                                                                  
G 8  22007874.965 1                     -2179.567          23.250    22007864.772 1  86363621.200 1     -1627.305          27.750  
G30  22698620.772 1 119282191.691 1      2925.267          32.000    22698623.170 1  89074323.150 1      2184.410          39.000  
J 2  38004556.793 1                      1248.877          20.000                                                                  
J 3  38988631.232 1 204886616.421 1      -706.574          27.250    38988627.335 1 152999795.41111      -527.736          20.750  
R 9  20468097.431 1                     -1243.634          21.250  
R10  19944791.708 1 106391835.170 1      1918.341          35.250  
R20  19881179.346 1                     -2331.593          25.000  
R21  20162037.212 1                      2050.930          17.000  
> 2021  5 18  3  8 42.9996181  0 10                     
G 1  20372708.567 1 107059315.29811      2029.428          29.500    20372703.771 1  79946938.366 1      1515.406          21.500  
G 7  20323434.679 1                      1037.547          21.500                                                                  
G 8  22008283.582 1 115654303.64611     -2178.494          24.000    22008278.186 1  86365248.327 1     -1627.126          27.750  
G30  22698062.858 1 119279266.617 1      2925.075          33.250    22698066.755 1  89072138.825 1      2184.325          39.000  
J 2  38004317.858 1                      1253.108          19.750                                                                  
J 3  38988769.736 1 204887322.667 1      -706.246          28.000    38988761.642 1 153000322.891 1      -527.480          22.500  
R 9  20468309.384 1                     -1244.779          21.500  
R10  19944427.160 1 106389917.052 1      1918.118          36.250  
R20  19881623.039 1 106315808.54311     -2333.959          26.000  
R21  20161622.599 1                      2044.591          18.500  
> 2021  5 18  3  8 43.9996182  0 10                     
G 1  20372347.617 1 107057443.614 1      2029.226          29.500    20372346.418 1                      1514.471          21.750  
G 7  20323247.009 1                      1041.988          22.000                                                                  
G 8  22008733.571 1                     -2178.403          24.250    22008722.778 1  86366992.822 1     -1626.850          27.750  
G30  22697532.525 1 119276498.862 1      2925.297          33.000    22697540.320 1  89070072.008 1      2184.462          39.000  
J 2  38004103.806 1                      1252.991          20.500                                                                  
J 3  38988935.821 1 204888185.960 1      -705.751          27.250    38988927.727 1                      -527.457          23.000  
R 9  20468554.615 1                     -1245.008          21.750  
R10  19944097.389 1 106388158.848 1      1918.122          35.750  
R20  19882096.711 1 106318302.816 1     -2333.961          25.250  
R21  20161326.104 1                      2042.858          20.500  
> 2021  5 18  3  8 44.9996182  0 10                     
G 1  20371962.983 1 107055415.850 1      2027.764          29.000    20371959.986 1                      1513.313          22.500  
G 7  20323054.242 1                      1037.152          22.250                                                                  
G 8  22009140.989 1 115658819.68111     -2179.585          24.750    22009136.792 1  86368620.332 1     -1627.510          27.000  
G30  22696979.108 1 119273574.831 1      2924.030          32.750    22696983.605 1  89067888.460 1      2183.548          39.000  
J 2  38003869.668 1                      1247.842          22.500                                                                  
J 3  38989070.128 1 204888892.488 1      -706.529          27.750    38989061.135 1                      -528.052          22.750  
R 9  20468793.249 1                     -1245.866          22.500  
R10  19943730.743 1 106386241.943 1      1916.906          35.500  
R20  19882528.712 1                     -2334.569          26.000  
R21  20160932.777 1                      2043.223          20.250  
> 2021  5 18  3  8 45.9996182  0 10                     
G 1  20371571.455 1 107053389.018 1      2026.831          28.500    20371575.052 1                      1514.122          23.000  
G 7  20322860.576 1                      1037.390          23.000                                                                  
G 8  22009562.797 1                     -2179.975          24.500    22009550.205 1  86370248.156 1     -1627.824          27.000  
G30  22696422.094 1 119270651.427 1      2923.405          33.000    22696427.190 1  89065705.412 1      2183.048          39.000  
J 2  38003627.136 1                      1248.935          22.500                                                                  
J 3  38989205.335 1 204889599.361 1      -706.873          27.250    38989193.343 1                      -527.807          21.750  
R 9  20469024.689 1                     -1250.574          23.000  
R10  19943373.390 1 106384325.859 1      1916.084          35.250  
R20  19882956.815 1 106322974.66311     -2336.414          25.500  
R21  20160535.252 1                      2043.176          21.000  
> 2021  5 18  3  8 46.9996183  0 10                     
G 1  20371216.200 1 107051519.548 1      2027.012          28.000    20371217.100 1                      1513.749          22.000  
G 7  20322693.892 1 106796457.04111      1036.540          23.500                                                                  
G 8  22010006.190 1 115663336.30911     -2179.189          23.250    22009996.297 1  86371993.144 1     -1627.343          26.500  
G30  22695898.057 1 119267885.154 1      2923.815          32.750    22695900.755 1  89063639.713 1      2183.344          38.250  
J 2  38003423.278 1                      1250.411          21.500                                                                  
J 3  38989368.722 1                      -705.447          26.750    38989359.428 1                      -526.999          20.750  
R 9  20469289.706 1                     -1249.590          22.250  
R10  19943040.920 1 106382569.342 1      1916.436          35.250  
R20  19883425.991 1                     -2339.615          24.750  
R21  20160169.805 1                      2044.155          19.750  
> 2021  5 18  3  8 47.9996183  0 10                     
G 1  20370827.969 1                      2025.405          27.500    20370833.965 1  79939603.94311      1512.844          21.250  
G 7  20322504.423 1                      1035.801          23.000                                                                  
G 8  22010425.899 1 115665515.759 1     -2179.450          23.000    22010410.910 1                     -1627.796          26.750  
G30  22695340.743 1 119264961.949 1      2923.205          32.000    22695344.640 1  89061456.795 1      2182.918          38.250  
J 2  38003178.947 1                      1252.511          21.250                                                                  
J 3  38989503.029 1 204891169.41211      -706.452          27.250    38989493.435 1                      -527.441          20.750  
R 9  20469492.365 1                     -1251.797          21.000  
R10  19942691.962 1 106380653.589 1      1915.753          35.250  
R20  19883863.688 1                     -2333.669          24.250  
R21  20159805.557 1                      2040.011          19.250  
> 2021  5 18  3  8 48.9996184  0 10                     
G 1  20370474.214 1                      2024.791          27.250    20370477.212 1  79938209.285 1      1512.303          21.250  
G 7  20322338.638 1                      1034.108          23.500                                                                  
G 8  22010870.192 1                     -2180.275          23.750    22010854.902 1  86375366.30011     -1627.979          26.750  
G30  22694815.206 1 119262197.091 1      2922.400          32.500    22694818.504 1  89059392.140 1      2182.300          38.250  
J 2  38002971.490 1                      1252.945          21.000                                                                  
J 3  38989668.214 1 204892033.613 1      -706.658          26.750    38989660.720 1 153003840.83411      -527.863          20.000  
R 9  20469784.363 1                     -1253.530          21.250  
R10  19942352.297 1 106378898.600 1      1914.908          35.500  
R20  19884338.259 1                     -2338.567          24.750  
R21  20159448.804 1                      2034.210          19.500  
> 2021  5 18  3  8 49.9996184  0 10                     
G 1  20370088.081 1 107045601.71511      2024.224          26.500    20370092.578 1  79936697.588 1      1511.696          20.500  
G 7  20322142.573 1                      1033.297          24.250                                                                  
G 8  22011284.205 1                     -2179.248          22.750    22011269.515 1  86376994.340 1     -1628.040          26.750  
G30  22694258.192 1 119259275.219 1      2921.872          32.250    22694262.089 1  89057210.221 1      2181.918          38.250  
J 2  38002748.744 1                      1247.534          20.750                                                                  
J 3  38989799.523 1 204892740.586 1      -706.973          27.000    38989794.427 1                      -531.841          19.750  
R 9  20470021.799 1                     -1253.297          20.750  
R10  19942006.636 1 106376984.423 1      1914.177          35.750  
R20  19884783.151 1                     -2339.636          24.000  
R21  20159071.066 1                      2034.027          20.250  
> 2021  5 18  3  8 50.9996185  0 10                     
G 1  20369736.425 1 107043735.877 1      2023.379          27.000    20369734.626 1                      1514.185          18.500  
G 7  20321970.493 1 106792634.94911      1032.941          24.250                                                                  
G 8  22011735.093 1                     -2182.185          23.000    22011715.307 1  86378740.393 1     -1628.408          26.250  
G30  22693736.553 1 119256511.482 1      2921.279          32.250    22693737.752 1  89055146.399 1      2181.468          38.250  
J 2  38002535.892 1                      1244.662          20.250                                                                  
J 3  38989965.608 1 204893605.254 1      -707.126          27.250    38989956.015 1 153005014.40211      -528.000          20.250  
R 9  20470292.511 1                     -1254.091          21.250  
R10  19941679.563 1 106375230.756 1      1913.586          35.500  
R20  19885244.532 1                     -2341.422          23.500  
R21  20158722.707 1                      2034.727          21.000  
> 2021  5 18  3  8 51.9996185  0 10                     
G 1  20369347.594 1 107041712.923 1      2022.955          26.750    20369348.793 1                      1510.640          18.750  
G 7  20321779.525 1 106791602.571 1      1032.378          25.500                                                                  
G 8  22012147.008 1 115674552.28911     -2180.471          23.250    22012129.320 1                     -1627.907          26.000  
G30  22693178.939 1 119253590.384 1      2921.097          32.750    22693180.438 1  89052965.054 1      2181.345          38.000  
J 2  38002281.068 1                      1247.674          21.000                                                                  
J 3  38990100.215 1 204894312.162 1      -706.907          27.250    38990089.723 1                      -533.659          19.000  
R 9  20470534.744 1                     -1254.878          20.750  
R10  19941311.118 1 106373317.530 1      1913.226          35.750  
R20  19885669.338 1                     -2340.759          24.500  
R21  20158375.247 1                      2036.606          22.500  
> 2021  5 18  3  8 52.9996186  0 10                     
G 1  20368991.141 1 107039848.298 1      2022.167          26.000    20368993.239 1                      1509.080          19.750  
G 7  20321617.637 1 106790728.324 1      1031.789          25.500                                                                  
G 8  22012583.805 1                     -2181.497          22.750    22012574.212 1                     -1628.317          26.000  
G30  22692652.803 1 119250827.141 1      2920.786          32.500    22692655.202 1  89050901.581 1      2181.118          38.500  
J 2  38002096.396 1                      1253.223          21.000                                                                  
J 3  38990263.602 1 204895176.665 1      -706.962          27.750    38990256.107 1                      -533.451          19.500  
R 9  20470785.070 1                     -1251.781          20.500  
R10  19940987.642 1 106371564.556 1      1912.894          35.750  
R20  19886139.112 1                     -2340.892          25.000  
R21  20158014.897 1                      2036.567          22.750  
> 2021  5 18  3  8 53.9996186  0 10                     
G 1  20368608.606 1 107037827.084 1      2021.213          26.250                                                                  
G 7  20321423.072 1 106789696.382 1      1031.942          25.750                                                                  
G 8  22013003.815 1                     -2181.629          21.750    22012988.225 1                     -1624.360          24.000  
G30  22692098.487 1 119247904.271 1      2922.869          33.500    22692099.686 1  89048718.905 1      2182.676          38.750  
J 2  38001846.669 1                      1252.401          23.000    38001848.168 1 149127345.08311       933.918          21.000  
J 3  38990394.611 1 204895882.777 1      -706.112          26.000    38990392.813 1 153006715.09311      -527.183          21.750  
R 9  20471000.321 1                     -1248.687          17.500  
R10  19940626.092 1 106369650.407 1      1914.149          35.750  
R20  19886572.312 1 106342326.85111     -2339.739          25.500  
R21  20157555.315 1                      2035.458          19.500  
> 2021  5 18  3  8 54.9996187  0 11                     
G 1  20368257.249 1                      2014.913          26.500                                                                  
G 7  20321251.590 1                      1031.940          24.500                                                                  
G 8  22013444.809 1                     -2178.319          19.750    22013444.509 1                     -1631.742          20.000  
G21  20542071.820 1                      -622.164          25.000                                                                  
G30  22691569.953 1                      2931.727          33.500    22691571.752 1  89046649.565 1      2186.984          37.500  
J 2  38001639.512 1                      1247.262          21.500    38001640.712 1                       932.545          20.000  
J 3  38990557.699 1 204896744.528 1      -704.209          27.250    38990556.200 1 153007358.806 1      -526.068          29.750  
R 9  20471264.139 1                     -1251.977          16.250  
R10  19940289.725 1 106367892.130 1      1918.196          35.750  
R20  19887050.481 1                     -2337.824          25.000  
R21  20157244.130 1                      2030.206          23.000  
> 2021  5 18  3  8 55.9996187  0 11                     
G 1  20367879.510 1                      2008.576          26.750    20367877.112 1                      1501.491          24.250  
G 7  20321057.625 1                      1035.468          23.750                                                                  
G 8  22013848.930 1                     -2173.567          19.750    22013858.223 1                     -1631.278          17.750  
G21  20542195.034 1                      -621.136          24.500                                                                  
G30  22691007.243 1 119242200.26111      2933.271          32.000    22691013.538 1  89044459.023 1      2190.543          38.000  
J 2  38001395.182 1                      1248.743          20.250    38001402.676 1                       938.193          19.500  
J 3  38990686.609 1 204897447.224 1      -702.696          28.500    38990690.806 1 153007883.490 1      -524.684          34.500  
R 9  20471494.679 1                     -1246.496          19.000  
R10  19939939.867 1 106365970.772 1      1921.358          36.000  
R20  19887495.973 1                     -2333.216          25.000  
R21  20156878.084 1                      2031.862          23.750  
> 2021  5 18  3  8 56.9996188  0 11                     
G 1  20367525.156 1 107032097.77611      2008.654          26.750    20367524.556 1  79926620.48611      1499.987          25.750  
G 7  20320890.940 1                      1033.341          24.000                                                                  
G 8  22014305.513 1                     -2170.233          17.000                                                                  
G21  20542334.138 1 107950752.26211      -623.299          27.250                                                                  
G30  22690480.507 1                      2939.363          30.500                                                                  
J 2  38001186.226 1 199697784.12411      1250.334          28.750    38001192.222 1                       932.616          31.500  
J 3  38990848.797 1                      -702.903          27.750    38990854.193 1 153008525.277 1      -524.142          33.750  
R 9  20471786.377 1                     -1245.817          23.250  
R10  19939605.598 1 106364206.616 1      1924.074          35.750  
R20  19887960.052 1 106349646.50311     -2330.369          25.000  
R21  20156512.337 1                      2029.824          22.000  
> 2021  5 18  3  8 57.9996188  0 11                     
G 1  20367138.723 1                      2003.912          26.750    20367144.419 1  79925122.864 1      1497.622          25.750  
G 7  20320696.075 1                      1033.311          23.000                                                                  
G 8  22014731.818 1                     -2178.202          14.000                                                                  
G21  20542452.256 1 107951377.181 1      -624.919          27.250                                                                  
G30  22689931.287 1                      2941.618          26.000                                                                  
J 2  38000950.589 1                      1249.169          27.250    38000955.386 1 149123848.78411       932.587          31.750  
J 3  38990983.704 1                      -704.944          23.250    38990988.500 1                      -523.616          29.000  
R 9  20472037.603 1                     -1258.052          22.250  
R10  19939244.648 1 106362281.339 1      1925.277          36.500  
R20  19888403.445 1                     -2329.072          25.500  
R21  20156132.500 1                      2034.822          23.000  
> 2021  5 18  3  8 58.9996189  0 11                     
G 1  20366791.564 1 107028246.52111      2003.346          26.500    20366793.063 1                      1495.405          25.250  
G 7  20320525.493 1                      1034.979          21.750                                                                  
G 8  22015169.215 1                     -2175.808          14.500                                                                  
G21  20542604.551 1 107952160.279 1      -625.556          25.000                                                                  
G30  22689406.051 1                      2938.808          24.500                                                                  
J 2  38000751.527 1                      1241.917          22.750    38000747.930 1                       935.442          27.000  
J 3  38991150.388 1                      -698.523          21.500                                                                  
R 9  20472285.532 1                     -1269.178          20.000  
R10  19938918.474 1 106360514.975 1      1926.283          36.250  
R20  19888849.536 1                     -2327.907          25.250  
R21  20155792.235 1                      2017.296          30.500  
> 2021  5 18  3  8 59.9996189  0 10                     
G 1  20366413.525 1 107026244.552 1      2001.969          27.500    20366412.626 1  79922249.56111      1495.013          27.000  
G 7  20320335.125 1                      1030.729          22.750                                                                  
G21  20542730.164 1                      -625.209          25.000                                                                  
G30  22688841.242 1                      2943.848          27.500                                                                  
J 2  38000507.496 1                      1234.790          18.750    38000508.395 1                       935.144          23.500  
J 3  38991274.502 1                      -693.749          21.250                                                                  
R 9  20472500.483 1                     -1263.886          18.000  
R10  19938540.436 1 106358586.965 1      1928.011          35.000  
R20  19889276.141 1                     -2327.448          24.000  
R21  20155417.495 1                      2012.366          30.750  
> 2021  5 18  3  9  0.9996189  0  9                     
G 1  20366032.789 1 107024244.141 1      2000.412          26.500    20366031.590 1                      1493.179          27.500  
G 7  20320129.167 1                      1032.320          23.500                                                                  
G21  20542843.785 1                      -629.056          23.250                                                                  
G30  22688280.031 1                      2948.575          27.500                                                                  
J 2  38000274.557 1                      1233.890          19.250    38000275.457 1 149121170.80211       934.012          21.750  
J 3  38991415.105 1                      -693.993          20.250                                                                  
R10  19938183.982 1 106356657.033 1      1929.931          36.000  
R20  19889710.540 1                     -2324.184          25.000  
R21  20155043.953 1                      2017.648          30.250  
> 2021  5 18  3  9  1.9996190  0 10                     
G 1  20365686.828 1                      1996.469          26.500    20365680.533 1  79919381.67311      1492.035          26.500  
G 7  20319960.384 1                      1036.001          24.500                                                                  
G21  20542994.581 1                      -629.265          23.500                                                                  
G30  22687744.901 1 119225028.94411      2947.281          35.250                                                                  
J 2  38000070.998 1                      1245.208          19.000    38000067.401 1                       933.353          20.000  
J 3  38991573.695 1                      -697.142          17.500                                                                  
R 9  20473024.220 1                     -1274.025          25.500  
R10  19937864.104 1 106354886.007 1      1930.945          34.250  
R20  19890173.120 1                     -2324.113          24.000  
R21  20154693.496 1                      2021.559          26.250  
> 2021  5 18  3  9  2.9996190  0  9                     
G 1  20365302.794 1 107020407.18911      1996.896          26.500    20365299.796 1                      1489.585          25.500  
G 7  20319762.521 1                      1035.845          24.250                                                                  
G21  20543119.294 1                      -626.299          23.000                                                                  
G30  22687181.591 1 119222079.895 1      2949.049          35.000    22687182.490 1  89029428.60611      2202.172          36.000  
J 2  37999821.871 1                      1255.308          17.500    37999828.466 1                       931.912          20.000  
J 3  38991703.505 1                      -699.965          17.000    38991713.698 1                      -522.675          23.500  
R 9  20473255.660 1                     -1275.971          26.000  
R20  19890625.506 1                     -2329.056          18.750  
R21  20154313.659 1                      2020.502          23.250  
> 2021  5 18  3  9  3.9996191  0  8                     
G 1  20364951.437 1 107018570.090 1      1994.641          27.250    20364950.238 1                      1488.571          24.000  
G 7  20319594.338 1                      1035.151          22.750                                                                  
G21  20543264.694 1                      -627.573          21.750                                                                  
G30  22686650.958 1 119219287.438 1      2949.999          33.500    22686651.258 1  89027343.312 1      2202.939          37.000  
J 2  37999629.404 1                      1263.339          17.250    37999618.312 1                       936.226          19.000  
J 3  38991857.599 1                      -693.095          22.750    38991874.387 1                      -519.951          32.000  
R 9  20473538.664 1                     -1273.887          21.500  
R21  20153965.600 1                      2030.500          26.500  
> 2021  5 18  3  9  4.9996191  0  9                     
G 1  20364564.405 1                      1993.534          26.250    20364571.600 1                      1487.432          22.500  
G 7  20319401.271 1                      1032.082          24.000                                                                  
G21  20543386.110 1                      -627.713          25.750                                                                  
G30  22686082.552 1 119216336.541 1      2950.897          35.000    22686090.346 1  89025139.697 1      2203.615          37.750  
J 2                                                                  37999380.276 1 149117671.18611       933.722          31.000  
J 3  38992001.199 1 204904360.50511      -695.943          27.000    38992007.795 1 153013066.93711      -519.804          35.000  
R 9  20473781.196 1                     -1275.821          22.250  
R10  19936798.941 1                      1916.425          20.500  
R21  20153584.564 1                      2030.500          30.750  
> 2021  5 18  3  9  5.9996192  0  8                     
G 1  20364222.342 1 107014740.35311      1993.378          26.000    20364222.342 1                      1488.701          23.750  
G 7  20319231.589 1 106778253.32611      1033.079          24.500                                                                  
G21  20543535.706 1 107957038.84811      -629.080          26.250                                                                  
G30  22685551.619 1 119213542.968 1      2951.115          34.000    22685557.315 1  89023053.570 1      2203.772          37.250  
J 2  37999163.526 1                      1250.189          27.000    37999170.722 1 149116854.841 1       933.989          32.000  
J 3  38992167.884 1                      -696.917          25.250    38992168.783 1 153013705.464 1      -520.882          33.250  
R 9  20474034.821 1 109330156.89611     -1274.906          28.250  
R10  19936462.574 1                      1909.671          19.000  
> 2021  5 18  3  9  6.9996192  0  9                     
G 1  20363838.908 1 107012747.248 1      1993.104          26.500    20363841.906 1  79912170.79211      1487.823          24.500  
G 7  20319034.625 1 106777220.895 1      1032.430          25.250                                                                  
G21  20543654.724 1                      -630.960          26.000                                                                  
G30  22684998.502 1 119210593.006 1      2949.963          35.000    22684997.603 1  89020850.718 1      2202.852          37.500  
J 2  37998921.294 1 199685679.01311      1248.523          26.000    37998932.387 1 149115921.932 1       932.910          30.000  
J 3  38992305.489 1                      -697.779          20.000    38992301.292 1 153014233.541 1      -528.077          27.500  
R 9  20474288.145 1                     -1272.443          24.500  
R10  19936097.727 1                      1930.522          30.750  
R21  20152867.760 1                      2016.232          32.750  
> 2021  5 18  3  9  7.9996193  0  8                     
G 1  20363489.649 1 107010912.013 1      1992.778          26.750    20363493.847 1  79910800.271 1      1488.167          25.000  
G 7  20318872.138 1                      1032.312          25.250                                                                  
G 8  22018947.800 1                     -2152.415          29.750                                                                  
G17  23865462.784 1 125413916.94611      2005.164          26.750                                                                  
G30  22684460.375 1 119207800.224 1      2950.324          34.250    22684465.172 1  89018765.271 1      2203.092          37.250  
R 9  20474620.615 1                     -1276.473          21.000  
R10  19935770.953 1 106343831.34611      1930.760          37.000  
R21  20152523.298 1                      2007.615          33.750  
> 2021  5 18  3  9  8.9996193  0 10                     
G 1  20363106.515 1 107008920.444 1      1991.568          26.000    20363116.108 1                      1487.718          24.250  
G 7  20318675.773 1                      1030.021          23.500                                                                  
G 8  22019357.316 1                     -2151.799          35.250    22019355.517 1                     -1609.526          33.000  
G17  23865085.045 1                      2008.940          23.750                                                                  
G30  22683898.564 1 119204850.590 1      2949.634          33.500    22683905.459 1  89016562.549 1      2202.722          38.000  
J 3                                                                  38992596.887 1                      -518.945          28.500  
R 9  20474842.761 1                     -1279.873          17.250  
R10  19935402.508 1 106341901.392 1      1929.954          35.500  
R20  19893307.450 1                     -2327.438          24.500  
R21  20152142.562 1                      2008.769          32.750  
> 2021  5 18  3  9  9.9996194  0 10                     
G 1  20362758.755 1 107007087.064 1      1990.923          26.250    20362764.452 1                      1485.206          22.250  
G 7  20318503.093 1                      1031.033          22.750                                                                  
G 8  22019795.013 1 115715043.94011     -2152.895          35.250    22019794.713 1  86410406.79911     -1607.640          33.500  
G17  23864757.972 1                      2023.826          21.500                                                                  
G30  22683369.430 1 119202059.717 1      2948.415          34.000    22683372.428 1  89014478.432 1      2201.762          37.500  
J 3  38992764.171 1                      -703.175          25.000    38992759.674 1 153016052.91711      -520.622          31.750  
R 9  20475114.373 1                     -1281.936          13.250  
R10  19935077.833 1 106340132.634 1      1928.677          36.750  
R20  19893785.619 1                     -2328.295          26.000  
R21  20151804.096 1 107836372.77711      2008.599          33.250  
> 2021  5 18  3  9 10.9996194  0 12                     
G 1  20362385.514 1 107005095.738 1      1991.326          26.250    20362388.212 1  79906457.04911      1487.001          23.750  
G 7  20318316.622 1                      1030.008          23.250                                                                  
G 8  22020208.427 1 115717197.005 1     -2153.065          35.750    22020205.729 1  86412014.598 1     -1607.799          33.750  
G17  23864338.262 1                      2020.685          23.750                                                                  
G21  20544193.151 1 107960539.49811      -632.981          27.000                                                                  
G30  22682810.617 1 119199111.720 1      2947.997          34.750    22682812.116 1  89012277.020 1      2201.412          38.000  
J 2  37998041.403 1                      1246.919          28.750    37998041.104 1                       935.855          33.000  
J 3  38992890.983 1 204909025.35511      -696.836          25.750    38992892.782 1 153016573.348 1      -520.431          32.250  
R 9  20475251.978 1                     -1276.137          24.500  
R10  19934716.583 1 106338204.551 1      1928.083          36.750  
R20  19894226.314 1                     -2329.312          25.750  
R21  20151426.358 1 107834363.897 1      2008.880          33.250  
> 2021  5 18  3  9 11.9996195  0 12                     
G 1  20362032.358 1                      1993.141          25.250    20362037.755 1                      1491.006          21.750  
G 7  20318146.040 1 106772543.41411      1028.885          23.250                                                                  
G 8  22020644.025 1 115719508.319 1     -2153.772          35.000    22020646.124 1  86413740.642 1     -1608.398          33.750  
G17  23863997.099 1                      2025.554          20.000                                                                  
G21  20544343.347 1 107961329.828 1      -632.788          27.000                                                                  
G30  22682277.586 1 119196322.813 1      2946.450          34.750    22682280.884 1  89010194.387 1      2200.278          38.500  
J 2  37997831.249 1 199679873.70811      1250.647          28.500    37997834.846 1 149111590.16311       933.857          33.500  
J 3  38993050.773 1 204909879.539 1      -696.642          27.250    38993054.070 1 153017211.177 1      -520.183          33.500  
R 9  20475551.171 1                     -1269.724          23.500  
R10  19934393.407 1 106336437.092 1      1927.378          37.250  
R20  19894690.392 1                     -2331.880          25.500  
R21  20151076.200 1 107832515.455 1      2008.867          33.750  
> 2021  5 18  3  9 12.9996195  0 12                     
G 1  20361662.115 1                      1991.076          26.500    20361657.318 1  79903599.44611      1487.549          23.000  
G 7  20317953.274 1 106771516.872 1      1026.542          24.000                                                                  
G 8  22021058.339 1 115721665.066 1     -2156.747          37.250    22021054.441 1  86415351.155 1     -1610.513          33.750  
G17  23863616.362 1                      2034.946          18.000                                                                  
G21  20544464.763 1 107961963.564 1      -633.735          29.250                                                                  
G30  22681719.073 1 119193380.166 1      2942.647          35.750    22681720.272 1  89007996.981 1      2197.406          38.500  
J 2  37997592.614 1 199678624.038 1      1249.670          29.250    37997595.612 1 149110656.958 1       933.205          32.000  
J 3  38993184.180 1 204910577.677 1      -698.138          29.000    38993187.478 1 153017732.572 1      -521.395          34.250  
R 9  20475796.701 1                     -1270.722          25.500  
R10  19934027.960 1 106334512.817 1      1924.275          38.000  
R20  19895125.391 1 106388035.01311     -2332.543          26.750  
R21  20150710.154 1 107830507.311 1      2008.144          34.250  
> 2021  5 18  3  9 13.9996196  0 12                     
G 1  20361309.559 1                      1992.065          26.750    20361309.259 1                      1486.633          23.750  
G 7  20317787.488 1 106770650.744 1      1023.670          24.000                                                                  
G 8  22021493.937 1 115723983.401 1     -2160.793          37.250    22021497.534 1  86417082.439 1     -1613.639          34.250  
G17  23863276.098 1                      2022.973          17.500                                                                  
G21  20544616.158 1 107962757.177 1      -636.071          29.000                                                                  
G30  22681189.639 1 119190599.997 1      2937.711          35.250    22681190.539 1  89005920.830 1      2193.795          38.250  
J 2  37997386.657 1 199677533.235 1      1248.345          27.500    37997387.856 1 149109842.368 1       932.235          31.000  
J 3  38993348.467 1 204911435.677 1      -700.457          28.000    38993350.865 1 153018373.191 1      -522.975          34.250  
R 9  20476061.118 1                     -1279.826          26.750  
R10  19933694.590 1 106332752.588 1      1920.148          38.000  
R20  19895590.369 1 106390532.051 1     -2336.725          27.000  
R21  20150368.690 1 107828660.596 1      2007.140          33.750  
> 2021  5 18  3  9 14.9996196  0 11                     
G 1  20360930.621 1 106997439.03411      1994.169          27.000    20360929.722 1  79900740.47511      1489.230          23.750  
G 7  20317595.321 1                      1021.288          23.250                                                                  
G 8  22021908.850 1 115726147.647 1     -2164.246          37.500    22021906.451 1  86418698.565 1     -1616.126          33.250  
G21  20544737.874 1 107963393.403 1      -636.226          28.750                                                                  
G30  22680630.526 1 119187666.320 1      2933.676          35.750    22680632.625 1  89003730.100 1      2190.730          37.750  
J 2  37997149.221 1                      1247.282          24.750    37997152.219 1 149108910.097 1       932.271          28.500  
J 3  38993480.675 1 204912136.874 1      -701.198          28.250    38993484.572 1 153018896.887 1      -523.696          33.750  
R 9  20476293.457 1                     -1279.404          26.000  
R10  19933339.336 1 106330835.428 1      1917.159          38.000  
R20  19896026.867 1 106392871.938 1     -2339.887          26.500  
R21  20149993.350 1 107826652.200 1      2008.397          33.250  
> 2021  5 18  3  9 15.9996197  0 12                     
G 1  20360578.365 1                      1998.620          27.500    20360581.063 1  79899366.664 1      1491.457          22.250  
G 7  20317433.134 1                      1018.055          22.250                                                                  
G 8  22022349.545 1 115728472.808 1     -2167.619          37.000    22022350.744 1  86420434.823 1     -1618.613          33.750  
G17  23862544.604 1                      2004.160          21.250                                                                  
G21  20544882.973 1 107964186.933 1      -635.988          28.500                                                                  
G30  22680106.489 1 119184894.567 1      2929.295          35.250    22680105.290 1  89001660.249 1      2187.496          39.500  
J 2  37996951.058 1                      1247.091          21.500    37996945.362 1 149108093.856 1       933.886          24.250  
J 3  38993646.460 1 204912996.276 1      -701.860          27.750    38993647.659 1 153019538.670 1      -524.138          34.500  
R 9  20476584.855 1                     -1273.230          26.750  
R10  19933013.162 1 106329081.279 1      1914.068          38.000  
R20  19896493.644 1 106395375.304 1     -2343.053          26.500  
R21  20149647.090 1 107824802.117 1      2010.508          34.500  
> 2021  5 18  3  9 16.9996197  0 13                     
G 1  20360195.830 1 106993599.94611      1999.378          27.000    20360198.228 1  79897873.692 1      1492.972          23.000  
G 7  20317237.069 1                      1022.699          21.250                                                                  
G 8  22022765.057 1 115730643.882 1     -2171.075          37.000    22022763.558 1  86422056.153 1     -1621.330          34.500  
G 9                                                                  23987254.969 1                     -1642.397          18.250  
G17  23862164.767 1                      2002.768          20.750                                                                  
G21  20545005.589 1 107964822.935 1      -636.002          28.750                                                                  
G30  22679545.877 1 119181969.686 1      2924.881          35.750    22679548.875 1  88999476.156 1      2184.093          37.750  
J 2  37996696.534 1 199673942.82211      1249.856          24.250    37996705.528 1 149107160.271 1       933.585          26.250  
J 3  38993779.868 1 204913699.015 1      -702.739          27.500    38993781.067 1 153020063.411 1      -524.741          34.750  
R 9  20476803.404 1                     -1266.355          22.500  
R10  19932648.914 1 106327170.400 1      1910.880          38.250  
R20  19896936.438 1 106397721.682 1     -2346.378          27.000  
R21  20149275.047 1 107822790.720 1      2011.397          34.500  
> 2021  5 18  3  9 17.9996197  0 13                     
G 1  20359812.695 1 106991598.987 1      2000.958          27.000    20359821.389 1  79896379.305 1      1494.387          24.000  
G 7  20317037.707 1                      1013.992          21.250                                                                  
G 8  22023177.871 1 115732818.204 1     -2174.321          38.000    22023177.871 1  86423679.821 1     -1623.667          34.000  
G 9  23987683.972 1                     -2200.813          19.750    23987679.775 1                     -1637.588          19.750  
G17  23861783.431 1                      2004.574          18.500                                                                  
G21  20545127.604 1 107965459.638 1      -636.704          29.250                                                                  
G30  22678993.060 1 119179048.912 1      2920.775          32.500    22678992.460 1  88997294.995 1      2181.161          32.750  
J 2  37996458.199 1                      1249.698          21.750    37996469.891 1 149106226.771 1       933.500          24.000  
J 3  38993911.777 1 204914402.858 1      -703.843          27.000    38993915.074 1 153020589.043 1      -525.631          34.750  
R 9  20477021.953 1                     -1258.991          19.250  
R10  19932291.562 1 106325262.487 1      1907.913          37.750  
R20  19897375.633 1 106400071.227 1     -2349.545          26.750  
R21  20148894.611 1 107820778.504 1      2012.216          34.250  
> 2021  5 18  3  9 18.9996198  0 13                     
G 1  20359461.638 1                      2003.226          26.750    20359469.133 1  79895001.648 1      1495.302          23.000  
G 7  20316877.319 1                      1013.969          21.750                                                                  
G 8  22023622.164 1 115735152.717 1     -2176.971          35.500    22023622.763 1  86425423.066 1     -1625.600          33.250  
G 9  23988129.763 1                     -2200.901          20.750    23988117.772 1                     -1641.775          22.250  
G17  23861431.775 1                      2015.135          19.250                                                                  
G21  20545280.798 1 107966254.319 1      -637.138          29.750                                                                  
G30                                                                  22678469.322 1  88995234.135 1      2178.505          29.500  
J 2  37996259.437 1                      1250.878          20.750    37996257.938 1                       931.817          21.250  
J 3  38994076.363 1 204915264.942 1      -704.542          27.750    38994079.960 1 153021232.839 1      -526.151          34.500  
R 9  20477314.550 1                     -1256.021          16.500  
R10  19931960.891 1 106323517.033 1      1905.373          37.750  
R20  19897853.503 1 106402583.855 1     -2352.315          26.750  
R21  20148531.262 1 107818925.947 1      2012.982          34.750  
> 2021  5 18  3  9 19.9996198  0 11                     
G 1  20359086.598 1                      2008.247          26.250    20359087.797 1                      1498.173          22.250  
G 7  20316680.055 1                      1017.326          23.000                                                                  
G 8  22024040.074 1 115737330.645 1     -2177.928          37.250                                                                  
G 9  23988573.156 1                     -2200.133          23.000    23988542.877 1                     -1638.893          22.750  
G21  20545398.317 1 107966890.758 1      -636.439          30.250                                                                  
G30  22677917.105 1 119173372.81811      2915.989          26.500                                                                  
J 2  37996023.500 1                      1250.889          23.250    37996022.001 1                       934.204          21.750  
J 3  38994214.267 1 204915969.273 1      -704.331          27.250    38994213.668 1 153021758.740 1      -525.901          34.500  
R10  19931608.335 1 106321612.697 1      1904.336          36.250  
R20  19898271.413 1                     -2353.903          25.750  
R21  20148173.310 1 107816911.661 1      2014.285          34.500  
> 2021  5 18  3  9 20.9996199  0 12                     
G 1  20358732.843 1 106985902.86411      2004.781          27.500    20358737.339 1  79892125.80411      1496.955          24.250  
G 7  20316518.767 1                      1015.212          25.250                                                                  
G 8  22024477.172 1 115739668.173 1     -2179.986          37.500    22024479.870 1  86428795.09711     -1628.058          31.750  
G 9  23989025.243 1                     -2195.682          23.250    23988990.168 1                     -1633.459          19.750  
G17  23860705.977 1                      2009.559          21.250                                                                  
G21  20545551.511 1 107967685.699 1      -637.400          30.500                                                                  
G30  22677393.367 1 119170616.920 1      2913.440          27.250                                                                  
J 2  37995813.046 1 199669247.22411      1250.827          25.750    37995813.945 1                       936.634          21.500  
J 3  38994374.656 1 204916831.717 1      -704.902          27.500    38994378.254 1 153022402.887 1      -526.502          34.750  
R10  19931281.861 1 106319870.343 1      1902.273          38.000  
R20  19898740.289 1                     -2356.497          25.500  
R21  20147815.657 1 107815057.948 1      2014.138          33.500  
> 2021  5 18  3  9 21.9996199  0 13                     
G 1  20358351.806 1 106983898.133 1      2004.731          27.000    20358356.903 1  79890628.611 1      1497.192          27.000  
G 7  20316320.604 1                      1012.148          23.500                                                                  
G 8  22024897.481 1 115741849.952 1     -2181.779          38.250    22024893.883 1  86430424.419 1     -1629.321          29.500  
G 9  23989403.881 1 126065175.04211     -2196.496          25.000                                                                  
G17  23860330.037 1                      2003.032          17.500                                                                  
G21  20545671.727 1 107968323.827 1      -638.128          30.000                                                                  
G30  22676838.751 1 119167705.697 1      2911.224          26.250                                                                  
J 2  37995579.807 1                      1248.038          23.000    37995574.411 1 149102726.66711       933.991          23.000  
J 3  38994508.663 1                      -705.447          27.250    38994512.561 1 153022929.887 1      -527.000          34.500  
R 9  20478145.275 1                     -1268.203          17.000  
R10  19930926.307 1 106317969.921 1      1900.422          37.250  
R20  19899185.481 1 106409811.03411     -2357.764          25.250  
R21  20147434.022 1 107813044.061 1      2013.888          31.500  
> 2021  5 18  3  9 22.9996200  0 13                     
G 1  20357992.655 1 106982051.336 1      2004.338          25.000    20358002.848 1  79889249.574 1      1496.682          26.250  
G 7  20316158.716 1                      1009.035          24.500                                                                  
G 8  22025339.974 1 115744189.639 1     -2182.145          38.000    22025339.974 1  86432171.531 1     -1629.467          29.750  
G 9  23989838.880 1                     -2197.162          22.750    23989845.775 1                     -1643.375          17.750  
G21  20545825.221 1 107969120.336 1      -638.966          30.000                                                                  
G22  24153211.679 1                      1946.054          18.250                                                                  
G30  22676311.116 1 119164952.642 1      2910.597          25.750    22676313.815 1  88986768.43511      2173.437          23.500  
J 2  37995367.255 1                      1248.324          21.500    37995365.456 1                       934.032          24.000  
J 3  38994671.750 1 204918400.74911      -705.772          27.750    38994676.847 1 153023574.642 1      -527.110          35.000  
R 9  20478368.620 1                     -1269.065          17.000  
R10  19930604.630 1 106316230.105 1      1899.735          37.750  
R20  19899675.042 1 106412329.906 1     -2358.559          26.250  
R21  20147094.956 1 107811191.347 1      2013.139          29.750  
> 2021  5 18  3  9 23.9996200  0 13                     
G 1  20357614.017 1                      2004.249          24.500    20357620.912 1  79887753.204 1      1496.370          26.250  
G 7  20315965.350 1 106761112.80611      1012.603          25.500                                                                  
G 8  22025756.686 1 115746371.596 1     -2181.958          38.750    22025755.187 1  86433800.915 1     -1629.384          29.500  
G 9  23990266.984 1                     -2196.684          23.750    23990263.386 1                     -1641.696          18.250  
G21  20545948.136 1 107969759.534 1      -639.199          30.000                                                                  
G22  24152834.541 1                      1948.646          20.000                                                                  
G30  22675761.297 1 119162042.097 1      2910.545          26.500    22675760.997 1                      2173.230          23.250  
J 2  37995130.419 1                      1251.782          22.250    37995127.720 1 149100976.42411       934.026          24.500  
J 3  38994810.255 1 204919106.348 1      -705.599          28.250    38994811.454 1 153024101.473 1      -526.831          35.000  
R 9  20478625.543 1                     -1274.856          15.250  
R10  19930246.378 1 106314330.522 1      1899.582          37.500  
R20  19900117.236 1 106414688.774 1     -2358.869          26.000  
R21  20146723.813 1 107809178.694 1      2012.653          29.500  
> 2021  5 18  3  9 24.9996201  0 14                     
G 1  20357257.864 1                      2004.594          23.500    20357272.553 1                      1495.790          26.500  
G 7  20315808.858 1                      1012.472          23.750                                                                  
G 8  22026202.178 1 115748710.956 1     -2181.818          38.000    22026200.379 1  86435547.780 1     -1629.220          30.500  
G 9  23990714.874 1 126072079.02611     -2195.932          24.750    23990711.276 1                     -1637.384          18.500  
G17  23859249.885 1                      2011.008          11.750                                                                  
G21  20546098.032 1 107970556.781 1      -639.705          29.750                                                                  
G22  24152521.257 1                      1948.848          22.000                                                                  
G30  22675231.264 1 119159289.311 1      2910.328          26.250    22675236.660 1                      2173.135          24.250  
J 2  37994913.369 1                      1251.761          21.250    37994920.864 1 149100159.855 1       934.214          24.500  
J 3  38994972.742 1 204919969.282 1      -705.392          27.500    38994975.740 1                      -529.524          35.000  
R 9  20478957.113 1                     -1283.396          13.000  
R10  19929917.805 1 106312591.067 1      1899.374          36.500  
R20  19900577.417 1                     -2358.985          25.750  
R21  20146368.559 1 107807327.015 1      2012.104          30.000  
> 2021  5 18  3  9 25.9996201  0 13                     
G 1  20356877.727 1 106976198.88711      2002.664          23.750    20356888.819 1                      1495.076          26.250  
G 7  20315617.291 1 106759246.08511      1011.468          24.750                                                                  
G 8  22026617.690 1 115750892.937 1     -2181.981          37.500    22026615.292 1  86437177.228 1     -1629.449          30.750  
G 9  23991148.973 1 126074275.248 1     -2196.222          25.000    23991130.686 1                     -1637.191          20.000  
G21  20546221.247 1 107971197.227 1      -640.446          29.250                                                                  
G22  24152150.414 1                      1945.882          22.250                                                                  
G30  22674677.547 1 119156379.376 1      2909.935          26.500    22674681.445 1  88980366.30211      2173.016          24.000  
J 2  37994666.040 1                      1250.346          19.500    37994684.028 1 149099225.847 1       934.008          24.750  
J 3  38995107.349 1 204920674.635 1      -705.353          26.500    38995110.347 1 153025272.59511      -526.756          35.500  
R 9  20479150.179 1                     -1284.889          12.750  
R10  19929561.652 1 106310692.275 1      1898.792          36.500  
R20  19901012.716 1 106419568.48111     -2360.069          26.250  
R21  20145996.817 1 107805315.748 1      2011.267          30.000  
> 2021  5 18  3  9 26.9996202  0 12                     
G 1  20356526.970 1                      2002.070          23.750    20356537.762 1  79883501.81611      1495.004          26.750  
G 7  20315457.801 1 106758392.984 1      1010.644          23.500                                                                  
G 8  22027061.982 1 115753232.678 1     -2182.199          37.500    22027060.483 1  86438924.424 1     -1629.551          30.750  
G 9  23991598.362 1 126076629.105 1     -2196.315          24.500    23991578.876 1                     -1643.504          18.250  
G21  20546371.143 1 107971996.021 1      -641.253          29.000                                                                  
G22  24151788.864 1                      1949.137          22.750                                                                  
G30  22674153.810 1 119153627.556 1      2909.362          27.000    22674159.206 1  88978311.358 1      2172.589          24.500  
J 2  37994461.881 1                      1247.707          19.750    37994474.173 1                       933.596          24.500  
J 3  38995262.641 1 204921537.742 1      -705.565          26.500    38995274.034 1 153025917.124 1      -526.883          35.250  
R10  19929229.182 1 106308954.097 1      1898.096          36.500  
R20  19901489.386 1                     -2360.275          26.500  
R21  20145656.852 1 107803465.692 1      2010.480          30.000  
> 2021  5 18  3  9 27.9996202  0 12                     
G 1  20356142.336 1                      2000.905          23.500    20356156.426 1                      1494.178          26.250  
G 7  20315270.131 1                      1009.343          24.500                                                                  
G 8  22027479.893 1 115755414.803 1     -2182.125          37.500    22027475.696 1  86440553.918 1     -1629.494          30.250  
G 9  23992015.074 1                     -2196.273          24.750    23991997.086 1                     -1646.387          18.750  
G21  20546491.960 1 107972637.750 1      -641.729          29.250                                                                  
G22  24151422.218 1                      1948.286          23.000                                                                  
G30  22673603.991 1 119150718.329 1      2909.227          27.000    22673605.490 1                      2172.283          25.000  
J 2  37994241.534 1                      1249.441          18.750    37994237.337 1 149097475.34311       934.171          24.750  
J 3  38995405.043 1 204922243.097 1      -705.355          26.500    38995408.341 1 153026443.848 1      -526.724          35.500  
R10  19928881.722 1 106307056.161 1      1897.935          35.750  
R20  19901939.974 1 106424450.78311     -2361.283          26.750  
R21  20145275.216 1                      2009.690          29.000  
> 2021  5 18  3  9 28.9996203  0 13                     
G 1  20355796.076 1                      2003.362          24.250    20355806.568 1  79880630.79711      1494.057          25.500  
G 7  20315103.746 1                      1008.407          24.500                                                                  
G 8  22027925.385 1 115757754.661 1     -2182.317          37.250    22027921.187 1  86442301.207 1     -1629.644          30.500  
G 9                                                                  23992448.873 1                     -1646.353          19.000  
G17  23857780.602 1                      2002.952          14.500                                                                  
G21  20546648.451 1 107973437.751 1      -642.458          28.500                                                                  
G22  24151084.052 1                      1942.851          23.000                                                                  
G30  22673082.052 1 119147967.067 1      2908.805          27.000    22673080.253 1  88974084.42011      2172.120          24.500  
J 2  37994021.186 1                      1250.162          19.750    37994029.281 1                       933.904          25.500  
J 3  38995569.629 1 204923106.044 1      -705.405          25.750    38995572.627 1 153027088.258 1      -526.765          35.500  
R10  19928545.355 1 106305318.741 1      1897.339          35.750  
R20  19902404.652 1 106426972.977 1     -2361.882          26.500  
R21  20144925.358 1 107799607.24311      2009.008          28.000  
> 2021  5 18  3  9 29.9996203  0 14                     
G 1  20355412.641 1                      1998.922          24.500    20355424.933 1  79879137.296 1      1493.501          26.000  
G 7  20314918.475 1 106755522.61611      1008.689          24.750                                                                  
G 8  22028339.098 1 115759937.250 1     -2182.589          37.250    22028336.700 1  86443931.135 1     -1629.929          31.000  
G 9                                                                  23992865.585 1                     -1642.925          18.750  
G17  23857345.004 1                      2005.742          18.000                                                                  
G21  20546768.068 1 107974081.139 1      -643.388          28.250                                                                  
G22  24150719.505 1                      1941.635          23.000                                                                  
G30  22672528.335 1 119145058.941 1      2908.126          27.250    22672528.935 1                      2171.038          24.500  
J 2  37993779.254 1                      1249.535          19.750    37993791.246 1 149095725.13611       933.813          25.000  
J 3  38995703.936 1 204923811.793 1      -705.749          26.750    38995706.634 1 153027615.221 1      -526.963          35.500  
R 9  20480109.515 1                     -1274.269          12.750  
R10  19928191.900 1 106303422.073 1      1896.669          36.000  
R20  19902859.737 1 106429335.764 1     -2362.786          26.250  
R21  20144539.825 1 107797599.222 1      2008.021          27.000  
> 2021  5 18  3  9 30.9996204  0 12                     
G 1  20355069.678 1 106966655.54911      1999.637          24.750    20355076.274 1                      1492.895          26.000  
G 7  20314756.287 1 106754671.993 1      1008.165          24.500                                                                  
G 8  22028783.690 1 115762277.654 1     -2182.862          37.000    22028782.191 1  86445678.776 1     -1629.995          31.000  
G 9  23993323.368 1 126085729.64211     -2196.597          26.000    23993309.577 1                     -1631.374          19.250  
G21  20546919.464 1 107974882.804 1      -644.123          27.750                                                                  
G30  22672007.296 1 119142308.927 1      2907.556          27.250    22672003.399 1  88969859.13211      2171.296          24.500  
J 2  37993574.795 1                      1252.418          19.250    37993581.991 1                       933.665          25.000  
J 3  38995867.623 1 204924675.096 1      -705.761          27.250    38995870.621 1 153028260.235 1      -527.370          35.500  
R 9  20480384.125 1                     -1271.117          13.000  
R10  19927872.621 1 106301686.067 1      1895.925          35.750  
R20  19903308.826 1 106431859.665 1     -2363.589          26.500  
R21  20144177.976 1                      2007.865          26.000  
> 2021  5 18  3  9 31.9996204  0 11                     
G 1  20354696.137 1 106964656.803 1      1998.747          26.000    20354693.439 1  79876269.54811      1492.492          26.500  
G 7  20314556.026 1 106753664.669 1      1007.324          24.500                                                                  
G 8  22029197.704 1 115764460.352 1     -2182.698          36.750    22029197.404 1  86447308.723 1     -1629.947          31.000  
G 9  23993743.077 1 126087926.166 1     -2196.524          26.000    23993722.991 1                     -1636.340          17.750  
G21  20547043.878 1 107975527.486 1      -644.682          28.250                                                                  
G30  22671449.082 1 119139401.422 1      2907.505          27.250    22671452.680 1  88967687.976 1      2171.156          25.000  
J 2  37993354.748 1                      1247.776          20.500    37993345.154 1 149093975.20111       933.924          25.250  
J 3  38995995.934 1 204925380.772 1      -705.676          27.000    38996005.227 1 153028786.855 1      -526.620          35.250  
R10  19927512.870 1 106299790.288 1      1895.779          35.750  
R20  19903763.311 1 106434223.644 1     -2363.979          26.750  
R21  20143788.845 1                      2004.544          25.000  
> 2021  5 18  3  9 32.9996204  0 11                     
G 1  20354316.000 1 106962658.793 1      1998.009          26.500    20354315.700 1  79874777.411 1      1492.137          26.250  
G 7  20314359.661 1 106752657.820 1      1006.849          25.000                                                                  
G 8  22029612.017 1 115766643.073 1     -2182.721          36.750    22029612.617 1  86448938.674 1     -1629.951          30.750  
G 9  23994151.994 1                     -2196.114          25.000    23994145.399 1                     -1644.638          17.250  
G21  20547169.491 1 107976172.756 1      -645.269          28.250                                                                  
G30  22670892.668 1 119136494.267 1      2907.155          27.500    22670897.464 1  88965517.036 1      2170.940          25.250  
J 2  37993102.323 1                      1253.021          18.250    37993108.019 1 149093041.346 1       933.855          25.250  
J 3  38996129.941 1 204926086.320 1      -705.548          26.750    38996139.235 1 153029313.704 1      -526.849          35.750  
R10  19927162.413 1 106297894.915 1      1895.372          36.500  
R20  19904218.097 1 106436588.198 1     -2364.554          26.750  
R21  20143420.100 1                      2004.032          24.250  
> 2021  5 18  3  9 33.9996205  0 12                     
G 1  20353960.446 1 106960818.891 1      1997.445          26.000    20353965.843 1  79873403.494 1      1491.563          26.000  
G 7  20314202.570 1                      1005.201          25.250                                                                  
G 8  22030055.710 1 115768983.510 1     -2182.895          36.500    22030057.808 1  86450686.382 1     -1630.063          30.500  
G 9  23994592.689 1 126092476.49911     -2196.552          25.750    23994595.387 1                     -1642.810          17.000  
G17  23855926.985 1                      2006.396          20.250                                                                  
G21  20547321.785 1 107976976.267 1      -645.969          28.250                                                                  
G30  22670374.626 1 119133745.106 1      2906.703          27.500    22670374.926 1  88963464.102 1      2170.579          24.500  
J 2  37992899.963 1                      1253.644          18.250    37992898.164 1                       933.636          24.750  
J 3  38996291.829 1 204926949.429 1      -705.567          27.500    38996305.020 1 153029958.263 1      -526.914          35.500  
R10  19926832.041 1 106296159.993 1      1894.841          36.750  
R20  19904677.079 1 106439113.764 1     -2365.253          26.250  
R21  20143074.140 1 107789895.71411      2005.038          25.500  
> 2021  5 18  3  9 34.9996205  0 12                     
G 1  20353582.408 1                      1997.021          25.500    20353583.607 1  79871912.437 1      1491.057          26.250  
G 7  20314013.101 1 106750804.59911      1005.337          25.250                                                                  
G 8  22030472.122 1 115771166.546 1     -2183.036          36.500    22030473.321 1  86452316.585 1     -1630.203          30.750  
G 9  23995008.501 1 126094673.030 1     -2196.531          25.500                                                                  
G17  23855542.052 1                      2005.577          21.000                                                                  
G21  20547442.302 1 107977622.951 1      -646.684          27.750                                                                  
G30  22669822.409 1 119130838.788 1      2906.317          27.000                                                                  
J 2  37992661.927 1                      1252.837          17.500    37992659.229 1 149091291.41511       933.817          24.250  
J 3  38996433.931 1 204927655.107 1      -705.678          27.500    38996438.128 1                      -528.545          35.500  
R10  19926478.586 1 106294265.768 1      1894.226          36.750  
R20  19905122.870 1 106441479.683 1     -2365.918          26.750  
R21  20142732.377 1                      2006.209          26.000  
> 2021  5 18  3  9 35.9996206  0 12                     
G 1  20353239.446 1 106956984.15411      1995.992          25.250    20353234.049 1  79870539.496 1      1490.586          26.000  
G 7  20313857.809 1 106749957.424 1      1004.718          25.250                                                                  
G 8  22030915.814 1 115773243.134 1     -2183.046          36.500    22030920.611 1  86454064.418 1     -1630.188          30.750  
G17  23855191.295 1                      2000.168          22.750                                                                  
G21  20547598.793 1 107978427.778 1      -647.285          28.000                                                                  
G22  24148568.794 1                      1946.840          23.500                                                                  
G30  22669296.273 1 119128090.416 1      2905.914          27.750    22669298.971 1  88959241.39311      2170.021          25.250  
J 2  37992435.884 1                      1252.812          20.000    37992453.871 1 149090475.384 1       933.676          24.750  
J 3  38996601.215 1 204928518.320 1      -705.671          28.000    38996602.714 1 153031129.80411      -526.903          35.500  
R10  19926150.013 1 106292531.752 1      1893.934          36.750  
R20  19905585.150 1 106444006.535 1     -2366.540          26.750  
R21  20142400.506 1                      2002.115          25.500  
> 2021  5 18  3  9 36.9996206  0 12                     
G 1  20352849.715 1 106954987.727 1      1996.426          25.500    20352855.112 1  79869049.058 1      1490.438          25.750  
G 7  20313665.042 1 106748952.480 1      1004.943          24.750                                                                  
G 8  22031330.427 1 115775425.959 1     -2182.825          36.500    22031334.624 1  86455694.451 1     -1630.033          30.750  
G17  23854820.751 1 125357696.61311      2004.256          23.250                                                                  
G21  20547717.211 1 107979075.367 1      -647.590          28.000                                                                  
G22  24148200.049 1                      1947.765          23.000                                                                  
G30  22668743.455 1 119125184.410 1      2906.006          27.000    22668747.353 1                      2169.808          24.750  
J 2  37992206.843 1                      1250.657          20.250    37992214.937 1 149089541.384 1       934.000          25.250  
J 3  38996733.423 1 204929223.411 1      -705.091          27.500    38996736.121 1 153031656.435 1      -526.631          35.500  
R10  19925802.854 1 106290638.005 1      1893.748          36.750  
R20  19906029.143 1 106446373.189 1     -2366.654          27.000  
R21  20142015.573 1                      1997.709          24.750  
> 2021  5 18  3  9 37.9996207  0 12                     
G 1  20352503.155 1 106953150.168 1      1995.101          25.750    20352503.755 1  79867676.888 1      1489.815          26.000  
G 7  20313501.955 1 106748106.483 1      1003.539          25.000                                                                  
G 8  22031776.219 1 115777766.491 1     -2182.990          36.000    22031779.816 1  86457442.277 1     -1630.181          30.750  
G17  23854460.401 1                      2002.727          21.000                                                                  
G21  20547869.806 1 107979881.252 1      -648.343          28.000                                                                  
G22  24147866.980 1                      1945.112          22.250                                                                  
G30  22668221.217 1 119122436.469 1      2905.482          27.000    22668226.313 1                      2169.527          24.500  
J 2  37992007.481 1                      1252.731          20.000    37992007.481 1 149088725.115 1       933.914          25.250  
J 3  38996891.114 1 204930086.403 1      -705.450          26.750    38996900.408 1 153032300.832 1      -526.752          35.000  
R10  19925476.979 1 106288904.728 1      1893.196          36.750  
R20  19906513.008 1 106448900.906 1     -2367.404          27.000  
R21  20141656.721 1                      2001.612          25.500  
> 2021  5 18  3  9 38.9996207  0 13                     
G 1  20352125.117 1                      1994.672          25.750    20352124.517 1  79866187.619 1      1489.270          25.500  
G 7  20313311.587 1 106747103.644 1      1002.839          24.500                                                                  
G 8  22032194.429 1 115779949.710 1     -2183.219          35.750    22032197.127 1  86459072.567 1     -1630.290          31.000  
G 9  23996739.803 1                     -2196.647          21.750                                                                  
G17  23854086.560 1                      2000.564          19.750                                                                  
G21  20547996.618 1 107980530.504 1      -649.252          28.000                                                                  
G22  24147492.539 1                      1949.052          22.000                                                                  
G30  22667669.299 1 119119531.598 1      2904.871          27.000                                                                  
J 2  37991760.452 1                      1252.310          20.500    37991768.846 1 149087791.306 1       933.809          24.750  
J 3  38997023.922 1                      -705.482          26.500    38997035.014 1 153032827.651 1      -526.819          35.250  
R10  19925122.025 1 106287012.105 1      1892.623          37.000  
R20  19906952.204 1 106451269.247 1     -2368.342          27.000  
R21  20141274.786 1 107780202.10511      2001.383          26.250  
> 2021  5 18  3  9 39.9996208  0 13                     
G 1  20351762.668 1                      1994.588          24.750    20351775.259 1                      1489.016          26.000  
G 7  20313152.397 1 106746258.780 1      1002.406          24.500                                                                  
G 8  22032634.824 1 115782290.303 1     -2183.051          35.500    22032641.120 1  86460820.422 1     -1630.210          31.250  
G 9  23997190.391 1                     -2196.014          20.250                                                                  
G17  23853730.106 1                      2005.703          19.000                                                                  
G21  20548146.814 1 107981337.622 1      -649.576          27.500                                                                  
G22  24147159.170 1                      1951.402          22.750                                                                  
G30  22667143.163 1 119116784.286 1      2904.854          26.750    22667150.059 1                      2168.855          24.250  
J 2  37991550.297 1                      1249.772          18.250    37991561.689 1 149086975.006 1       933.945          25.000  
J 3  38997195.104 1                      -705.461          27.000    38997198.701 1 153033471.938 1      -526.641          35.250  
R10  19924798.549 1 106285279.729 1      1892.295          37.000  
R20  19907418.981 1 106453798.164 1     -2368.604          26.750  
R21  20140911.437 1                      2001.061          25.750  
> 2021  5 18  3  9 40.9996208  0 12                     
G 1  20351376.835 1                      1992.902          23.500    20351395.722 1  79863327.75311      1488.571          26.250  
G 7  20312963.528 1 106745256.857 1      1001.924          25.000                                                                  
G 8  22033051.836 1 115784473.317 1     -2183.013          36.000    22033058.431 1  86462450.583 1     -1630.161          31.250  
G 9  23997605.004 1                     -2195.590          20.250                                                                  
G17  23853349.370 1                      2004.667          20.250                                                                  
G21  20548271.228 1 107981987.743 1      -650.121          27.750                                                                  
G30  22666587.648 1                      2903.861          26.500    22666595.742 1                      2168.561          24.250  
J 2  37991316.159 1                      1246.487          18.750    37991323.054 1 149086040.985 1       934.021          24.500  
J 3  38997323.115 1 204932359.82711      -705.088          27.500    38997333.308 1                      -524.860          35.500  
R10  19924443.895 1 106283387.662 1      1892.067          37.250  
R20  19907863.573 1 106456167.270 1     -2369.106          26.500  
R21  20140560.080 1                      1999.531          26.250  
> 2021  5 18  3  9 41.9996209  0 13                     
G 1  20351033.573 1                      1992.913          24.750    20351046.164 1  79861957.491 1      1487.907          26.500  
G 7  20312796.843 1 106744413.448 1      1000.950          25.250                                                                  
G 8  22033500.625 1 115786814.151 1     -2183.293          37.500    22033502.124 1  86464198.609 1     -1630.381          30.250  
G 9  23998054.393 1                     -2203.375          21.500                                                                  
G17  23852994.116 1                      2007.336          22.000                                                                  
G21  20548429.518 1 107982796.366 1      -651.081          28.500                                                                  
G22  24146442.066 1 126890626.44911      1946.885          23.750                                                                  
G30  22666059.114 1 119111133.22611      2904.039          26.750    22666072.005 1                      2167.702          24.500  
J 2  37991110.501 1                      1240.300          18.750    37991115.598 1 149085224.798 1       933.832          23.750  
J 3  38997492.498 1 204933222.734 1      -705.365          29.250    38997497.294 1 153034642.86711      -526.746          35.000  
R10  19924115.622 1 106281656.256 1      1891.324          37.000  
R20  19908336.046 1 106458697.554 1     -2369.971          26.500  
R21  20140232.407 1                      2001.782          24.000  
> 2021  5 18  3  9 42.9996209  0 13                     
G 1  20350659.731 1 106943500.33511      1991.822          25.500    20350668.126 1  79860470.047 1      1487.444          26.250  
G 7  20312609.173 1 106743413.123 1      1000.325          25.500                                                                  
G 8  22033915.538 1 115788997.591 1     -2183.439          37.500    22033917.936 1  86465829.142 1     -1630.534          30.250  
G 9  23998470.505 1                     -2197.730          21.750                                                                  
G17  23852613.080 1                      2006.001          21.000                                                                  
G21  20548553.632 1 107983447.982 1      -651.616          28.250                                                                  
G22  24146072.722 1                      1945.719          23.750                                                                  
G30  22665506.896 1 119108229.724 1      2903.502          26.250    22665519.787 1                      2167.895          24.750  
J 2  37990884.758 1                      1247.015          17.750    37990877.563 1 149084290.930 1       933.868          24.250  
J 3  38997622.907 1 204933928.065 1      -705.331          28.750    38997631.302 1 153035169.581 1      -526.714          35.250  
R10  19923756.770 1 106279765.525 1      1890.731          36.500  
R20  19908779.739 1 106461068.186 1     -2370.633          27.000  
R21  20139863.663 1 107772247.41411      1998.350          25.750  
> 2021  5 18  3  9 43.9996210  0 13                     
G 1  20350313.471 1 106941666.574 1      1991.303          26.000    20350317.968 1  79859100.595 1      1487.097          25.750  
G 7  20312455.979 1 106742570.848 1       999.817          25.250                                                                  
G 8  22034362.828 1 115791338.451 1     -2183.318          37.000    22034365.226 1  86467577.136 1     -1630.348          30.750  
G 9  23998915.097 1                     -2192.754          21.750                                                                  
G17  23852259.025 1                      1997.787          21.000                                                                  
G21  20548704.428 1 107984257.748 1      -652.224          29.000                                                                  
G22  24145727.361 1                      1946.942          23.000                                                                  
G30  22664989.454 1 119105483.879 1      2903.387          26.000    22664996.350 1                      2167.970          25.000  
J 2  37990660.513 1                      1255.474          19.250    37990669.207 1 149083474.631 1       933.944          24.750  
J 3  38997791.691 1 204934790.837 1      -705.229          27.500    38997797.087 1 153035813.807 1      -526.581          36.000  
R10  19923432.994 1 106278034.901 1      1890.543          36.750  
R20  19909248.014 1 106463599.626 1     -2371.128          27.750  
R21  20139525.197 1 107770409.996 1      1997.843          28.500  
> 2021  5 18  3  9 44.9996210  0 13                     
G 1  20349937.232 1 106939675.730 1      1990.844          25.500    20349942.028 1  79857613.921 1      1486.674          25.500  
G 7  20312263.213 1                       995.202          23.750                                                                  
G 8  22034777.441 1 115793521.733 1     -2183.283          37.000    22034779.240 1  86469207.559 1     -1630.423          31.000  
G 9  23999328.511 1                     -2192.956          21.500                                                                  
G17  23851877.988 1                      1998.932          20.750                                                                  
G21  20548830.641 1 107984910.451 1      -652.704          29.250                                                                  
G30  22664440.834 1 119102580.664 1      2903.215          25.750    22664445.631 1                      2168.040          25.000  
J 2  37990416.182 1                      1258.748          20.000    37990432.371 1 149082540.613 1       934.018          24.750  
J 3  38997925.698 1 204935495.752 1      -704.915          28.000    38997929.595 1 153036340.330 1      -526.523          35.750  
R 9  20483934.567 1                     -1282.517          18.500  
R10  19923074.143 1 106276144.719 1      1890.182          36.750  
R20  19909695.305 1 106465971.186 1     -2371.559          27.500  
R21  20139160.949 1 107768717.717 1      1997.279          28.250  
> 2021  5 18  3  9 45.9996211  0 13                     
G 1  20349577.181 1 106937843.212 1      1990.060          25.000    20349591.871 1  79856245.516 1      1486.051          25.250  
G 7  20312098.327 1                       999.656          22.750                                                                  
G 8  22035222.333 1 115795862.815 1     -2183.540          37.250    22035225.031 1  86470955.742 1     -1630.539          31.250  
G 9  23999791.090 1                     -2195.680          21.750                                                                  
G17  23851523.334 1                      2003.442          19.750                                                                  
G21  20548985.633 1 107985721.563 1      -653.569          28.500                                                                  
G30  22663910.201 1                      2901.988          25.750    22663923.392 1  88938142.19211      2167.398          25.500  
J 2  37990223.715 1                      1254.793          20.250    37990222.216 1 149081724.515 1       933.743          25.000  
J 3  38998089.984 1 204936358.569 1      -705.275          27.250    38998094.181 1 153036984.603 1      -526.629          36.000  
R 9  20484218.171 1                     -1283.473          19.500  
R10  19922765.656 1 106274415.034 1      1889.604          36.750  
R20  19910182.467 1 106468503.886 1     -2372.388          27.750  
R21  20138830.578 1 107766881.851 1      1996.291          27.750  
> 2021  5 18  3  9 46.9996211  0 12                     
G 1  20349210.834 1                      1988.964          25.750    20349214.432 1                      1485.655          26.000  
G 7  20311907.359 1 106739733.39111       997.784          23.250                                                                  
G 8  22035639.644 1 115798046.545 1     -2183.730          37.750    22035640.244 1  86472586.453 1     -1630.711          31.250  
G17  23851133.604 1                      2000.809          18.500                                                                  
G21  20549110.047 1 107986375.818 1      -654.255          29.000                                                                  
G30  22663365.179 1 119096933.54611      2902.115          26.250    22663371.774 1                      2167.050          25.500  
J 2  37989994.074 1                      1246.364          20.750    37989983.881 1 149080790.662 1       933.853          25.000  
J 3  38998223.692 1 204937063.881 1      -705.313          27.500    38998228.488 1 153037511.481 1      -526.878          36.000  
R 9  20484495.179 1                     -1285.040          20.250  
R10  19922401.708 1 106272526.086 1      1888.948          37.750  
R20  19910612.670 1 106470876.926 1     -2373.040          27.500  
R21  20138451.940 1 107764886.327 1      1995.524          28.000  
> 2021  5 18  3  9 47.9996211  0 13                     
G 1  20348836.094 1                      1988.165          25.500    20348834.295 1  79853274.89811      1485.036          26.000  
G 7  20311725.385 1 106738736.308 1       997.083          24.500                                                                  
G 8  22036056.955 1 115800230.316 1     -2183.770          38.000    22036055.756 1  86474217.168 1     -1630.715          30.750  
G 9  24000622.115 1                     -2203.060          21.500                                                                  
G17  23850755.266 1                      1998.376          18.250                                                                  
G21  20549229.664 1 107987030.818 1      -655.000          29.000                                                                  
G30  22662809.963 1 119094031.659 1      2901.886          26.750    22662817.758 1  88933808.01911      2166.895          25.250  
J 2  37989751.842 1                      1245.893          20.500    37989747.945 1 149079856.815 1       933.847          24.750  
J 3  38998356.799 1 204937769.230 1      -705.349          27.000    38998362.795 1 153038037.928 1      -526.447          35.750  
R 9  20484715.227 1                     -1291.067          21.250  
R10  19922051.850 1 106270637.521 1      1888.565          37.750  
R20  19911056.962 1 106473250.587 1     -2373.660          27.250  
R21  20138057.413 1                      1993.431          27.250  
> 2021  5 18  3  9 48.9996212  0 12                     
G 1  20348484.737 1                      1988.049          26.000    20348484.737 1  79851907.625 1      1484.918          25.500  
G 7  20311563.497 1 106737896.559 1       997.291          24.750                                                                  
G 8  22036502.747 1 115802571.371 1     -2183.514          38.250    22036501.248 1  86475965.347 1     -1630.534          30.500  
G17  23850420.697 1                      1991.313          18.500                                                                  
G21  20549384.057 1 107987843.604 1      -655.244          29.250                                                                  
G30  22662293.121 1 119091287.474 1      2901.727          27.000    22662294.620 1  88931758.741 1      2166.924          26.000  
J 2  37989541.388 1                      1251.701          22.000    37989538.390 1 149079040.451 1       934.009          25.000  
J 3  38998523.784 1 204938631.664 1      -704.892          28.000    38998527.081 1 153038681.990 1      -526.417          36.500  
R 9  20484987.438 1                     -1289.547          21.750  
R10  19921729.574 1 106268908.983 1      1888.457          37.250  
R20  19911542.626 1 106475784.733 1     -2373.833          27.250  
R21  20137713.851 1 107761057.75311      1994.295          26.250  
> 2021  5 18  3  9 49.9996212  0 12                     
G 1  20348107.598 1 106930046.47411      1987.745          26.500    20348107.598 1  79850423.305 1      1484.320          25.250  
G 7  20311368.632 1                       996.525          23.750                                                                  
G 8  22036916.460 1 115804755.073 1     -2183.702          38.250    22036918.559 1  86477596.027 1     -1630.681          30.750  
G 9  24001491.813 1                     -2192.275          23.000                                                                  
G21  20549510.870 1 107988499.562 1      -655.958          29.000                                                                  
G30  22661738.805 1 119088386.174 1      2901.300          27.250    22661745.400 1  88929592.234 1      2166.507          25.750  
J 2  37989296.457 1                      1254.637          21.000    37989299.755 1 149078106.570 1       933.881          25.250  
J 3  38998652.695 1 204939336.691 1      -705.027          28.000    38998660.789 1 153039208.472 1      -526.482          36.250  
R 9  20485255.453 1                     -1286.028          21.500  
R10  19921368.024 1 106267021.150 1      1887.833          37.250  
R20  19911964.134 1                     -2374.684          27.000  
R21  20137355.899 1 107759064.308 1      1993.445          27.000  
> 2021  5 18  3  9 50.9996213  0 12                     
G 1  20347761.638 1 106928217.193 1      1986.822          27.250    20347758.340 1  79849057.264 1      1483.686          25.250  
G 7  20311207.044 1                       995.243          24.250                                                                  
G 8  22037359.853 1 115807096.533 1     -2183.918          37.750    22037362.252 1  86479344.536 1     -1630.864          30.750  
G 9  24001948.397 1                     -2199.658          23.000                                                                  
G21  20549667.961 1 107989313.958 1      -656.854          29.750                                                                  
G30  22661215.667 1 119085642.945 1      2900.771          27.500    22661222.862 1  88927543.723 1      2166.155          26.000  
J 2  37989088.401 1                      1251.916          21.000    37989092.299 1 149077290.373 1       933.842          25.000  
J 3  38998820.878 1 204940199.356 1      -705.123          28.000    38998825.075 1 153039852.702 1      -526.585          36.500  
R 9  20485525.266 1                     -1286.507          22.000  
R10  19921051.443 1 106265293.800 1      1887.269          37.250  
R20  19912439.905 1 106480695.09111     -2375.380          27.000  
R21  20137030.624 1 107757232.160 1      1992.573          26.750  
> 2021  5 18  3  9 51.9996213  0 13                     
G 1  20347385.698 1 106926230.969 1      1986.225          27.250    20347383.300 1  79847573.907 1      1483.357          25.500  
G 7  20311020.573 1 106735068.63611       994.657          24.500                                                                  
G 8  22037777.464 1 115809280.494 1     -2183.961          37.750    22037778.364 1  86480975.421 1     -1630.885          30.750  
G 9  24002364.509 1                     -2196.657          22.250                                                                  
G17  23849290.480 1                      2006.547          16.500                                                                  
G21  20549793.274 1 107989971.411 1      -657.454          29.250                                                                  
G30  22660666.447 1 119082742.505 1      2900.440          27.750    22660669.145 1                      2165.625          25.750  
J 2  37988855.463 1                      1250.888          21.250    37988853.364 1 149076356.545 1       933.828          24.750  
J 3  38998957.883 1 204940904.471 1      -705.115          28.250    38998959.382 1 153040379.230 1      -526.528          36.500  
R 9  20485747.712 1                     -1285.380          21.250  
R10  19920691.392 1 106263407.014 1      1886.786          36.750  
R20  19912893.191 1 106483071.044 1     -2375.953          26.750  
R21  20136651.986 1 107755240.312 1      1991.849          26.750  
> 2021  5 18  3  9 52.9996214  0 13                     
G 1  20347038.538 1 106924402.467 1      1986.044          26.500    20347033.142 1                      1482.796          25.750  
G 7  20310861.383 1 106734231.920 1       994.258          24.000                                                                  
G 8  22038220.857 1 115811621.796 1     -2183.760          37.250    22038223.555 1  86482723.800 1     -1630.734          31.000  
G 9  24002818.994 1                     -2190.740          22.500                                                                  
G21  20549950.965 1 107990786.687 1      -657.734          29.000                                                                  
G22  24142495.898 1                      1945.726          21.750                                                                  
G30  22660142.110 1 119079999.638 1      2900.409          27.250    22660147.207 1  88923329.50511      2165.898          26.000  
J 2  37988637.513 1                      1251.704          22.000    37988648.306 1 149075540.173 1       934.018          25.000  
J 3  38999119.172 1 204941766.772 1      -704.759          28.500    38999123.668 1 153041023.178 1      -526.304          36.250  
R 9  20486015.427 1                     -1282.493          19.750  
R10  19920364.019 1 106261680.261 1      1886.672          36.750  
R20  19913362.066 1 106485607.695 1     -2376.338          26.750  
R21  20136309.023 1 107753409.314 1      1991.423          28.000  
> 2021  5 18  3  9 53.9996214  0 13                     
G 1  20346659.301 1 106922417.053 1      1985.414          26.000    20346656.603 1  79844726.05311      1482.527          26.250  
G 7  20310670.715 1 106733238.213 1       993.707          23.500                                                                  
G 8  22038636.070 1 115813805.557 1     -2183.761          37.250    22038640.567 1  86484354.496 1     -1630.696          30.750  
G 9  24003242.301 1                     -2196.997          22.500                                                                  
G17  23848567.980 1                      1994.909          16.750                                                                  
G21  20550076.878 1 107991445.072 1      -658.385          28.750                                                                  
G30  22659582.098 1 119077099.529 1      2900.109          26.500    22659595.888 1  88921163.882 1      2165.623          26.000  
J 2  37988400.977 1                      1251.830          21.500    37988408.472 1 149074606.081 1       934.092          25.000  
J 3  38999254.978 1 204942471.529 1      -704.757          27.750    38999257.376 1                      -526.097          35.750  
R 9  20486230.378 1                     -1286.725          18.250  
R10  19920017.759 1 106259793.985 1      1886.276          36.750  
R20  19913806.659 1 106487984.529 1     -2376.835          27.000  
R21  20135945.975 1 107751418.661 1      1990.653          28.750  
> 2021  5 18  3  9 54.9996215  0 13                     
G 1  20346300.449 1 106920590.114 1      1984.481          25.500    20346309.143 1                      1481.092          26.000  
G 7  20310498.634 1                       991.542          21.500                                                                  
G 8  22039081.861 1 115816147.157 1     -2184.059          37.500    22039085.758 1  86486103.126 1     -1630.985          30.750  
G 9  24003687.493 1                     -2200.148          20.750                                                                  
G17  23848226.516 1                      1985.095          14.250                                                                  
G21  20550230.072 1 107992261.930 1      -659.316          29.000                                                                  
G30  22659064.356 1 119074357.635 1      2899.436          27.500    22659071.851 1                      2165.183          25.500  
J 2  37988192.921 1                      1252.950          21.500    37988203.714 1 149073789.882 1       933.844          24.750  
J 3  38999416.866 1 204943334.042 1      -704.971          27.000    38999421.362 1 153042193.52511      -526.440          35.750  
R 9  20486545.759 1                     -1291.890          15.000  
R10  19919690.985 1 106258068.407 1      1885.496          37.000  
R20  19914284.827 1 106490522.586 1     -2377.744          27.250  
R21  20135606.310 1 107749589.229 1      1989.857          29.250  
> 2021  5 18  3  9 55.9996215  0 13                     
G 1  20345922.711 1                      1983.338          24.750    20345931.105 1                      1481.328          25.500  
G 7  20310300.771 1                       990.589          20.000                                                                  
G 8  22039496.174 1 115818331.380 1     -2184.223          37.000    22039500.971 1  86487734.203 1     -1631.077          31.250  
G 9  24004097.609 1                     -2198.140          17.500                                                                  
G17  23847836.786 1                      1987.255          13.500                                                                  
G21  20550353.286 1                      -660.465          29.000                                                                  
G30  22658517.835 1 119071458.611 1      2899.024          27.500    22658522.631 1                      2165.197          25.250  
J 2  37987958.484 1                      1251.545          22.000    37987963.280 1 149072856.024 1       933.858          25.250  
J 3  38999552.971 1 204944039.106 1      -705.065          27.500    38999555.969 1 153042719.992 1      -526.467          35.750  
R 9  20486783.495 1                     -1302.940          12.250  
R10  19919329.435 1 106256183.370 1      1885.037          37.000  
R20  19914738.413 1 106492901.071 1     -2378.485          27.500  
R21  20135230.070 1 107747600.375 1      1988.854          29.000  
> 2021  5 18  3  9 56.9996216  0 11                     
G 1  20345574.052 1 106916780.28911      1983.635          23.750    20345582.746 1  79840516.75411      1481.164          25.000  
G 7  20310161.967 1                       990.538          20.250                                                                  
G 8  22039940.467 1 115820672.897 1     -2183.975          36.750    22039946.463 1  86489482.698 1     -1630.850          30.750  
G 9  24004532.308 1                     -2192.558          17.500                                                                  
G21  20550507.680 1 107993740.25911      -660.252          29.000                                                                  
G30  22657993.498 1 119068717.154 1      2898.999          27.000    22658001.592 1  88914904.33911      2164.767          25.750  
J 2  37987748.629 1                      1251.599          21.500    37987755.524 1                       933.717          24.250  
J 3  38999718.757 1 204944901.335 1      -704.687          27.500    38999719.956 1 153043363.879 1      -526.242          35.500  
R10  19919021.548 1 106254458.442 1      1884.847          36.750  
R20  19915196.197 1 106495440.026 1     -2378.643          27.500  
R21  20134879.913 1 107745772.264 1      1988.536          29.250  
> 2021  5 18  3  9 57.9996216  0 10                     
G 1  20345186.720 1 106914797.511 1      1982.779          24.250    20345205.607 1  79839036.023 1      1480.731          25.250  
G 7  20309953.012 1                       991.915          20.750                                                                  
G 8  22040358.078 1 115822856.969 1     -2184.072          37.000    22040361.675 1  86491113.711 1     -1631.013          30.750  
G21  20550633.293 1 107994401.358 1      -661.099          29.250                                                                  
G30  22657441.879 1 119065818.591 1      2898.563          26.750    22657448.775 1  88912739.762 1      2164.577          25.500  
J 2  37987500.401 1                      1252.762          19.500    37987516.889 1 149071105.64011       934.060          25.000  
J 3  38999846.768 1 204945606.055 1      -704.720          27.750    38999853.963 1 153043890.124 1      -526.246          35.500  
R10  19918658.799 1 106252574.043 1      1884.399          36.750  
R20  19915649.783 1 106497819.339 1     -2379.314          27.500  
R21  20134499.476 1 107743784.446 1      1987.818          29.500  
> 2021  5 18  3  9 58.9996217  0 11                     
G 1  20344852.452 1 106912973.343 1      1981.709          28.500    20344861.146 1  79837673.774 1      1479.894          25.750  
G 7  20309786.627 1                       992.867          21.000                                                                  
G 8  22040801.770 1 115825198.689 1     -2184.179          36.000    22040807.467 1  86492862.369 1     -1631.013          30.250  
G 9  24005397.809 1                     -2194.897          18.250                                                                  
G21  20550793.082 1 107995220.814 1      -661.914          28.000                                                                  
G30  22656916.343 1                      2899.269          27.500    22656927.436 1  88910693.142 1      2164.265          25.750  
J 2  37987292.345 1                      1250.084          20.250    37987309.433 1 149070289.478 1       933.808          24.250  
J 3  39000012.553 1 204946468.458 1      -704.861          28.500    39000017.350 1 153044534.112 1      -526.343          34.750  
R10  19918342.219 1 106250850.070 1      1883.892          37.750  
R20  19916123.155 1 106500359.584 1     -2379.933          26.750  
R21  20134167.606 1 107741958.425 1      1986.446          29.500  
> 2021  5 18  3  9 59.9996217  0 10                     
G 1  20344481.908 1                      1977.695          27.250    20344483.407 1                      1477.438          24.500  
G 7  20309617.844 1                       990.713          22.000                                                                  
G 8  22041220.880 1 115827381.365 1     -2182.676          34.500    22041222.379 1  86494492.298 1     -1629.929          32.000  
G21  20550920.494 1 107995883.876 1      -663.062          28.500                                                                  
G30  22656368.922 1 119060178.29211      2899.480          27.750    22656375.218 1  88908527.824 1      2165.318          24.250  
J 2  37987067.800 1 199623266.60611      1250.308          25.500    37987070.498 1                       933.590          24.750  
J 3  39000148.359 1                      -703.066          26.500    39000151.657 1 153045060.028 1      -525.916          34.250  
R10  19917986.965 1 106248965.376 1      1884.694          39.250  
R20  19916568.646 1 106502739.021 1     -2379.437          27.500  
R21  20133790.767 1 107739973.298 1      1985.128          32.000  
> 2021  5 18  3 10  0.9996217  0 11                     
G 1  20344111.065 1                      1974.734          26.250    20344105.369 1  79834720.33011      1475.922          24.250  
G 7  20309429.275 1                       991.902          22.000                                                                  
G 8  22041641.189 1 115829559.980 1     -2178.615          35.250    22041637.292 1  86496119.179 1     -1626.881          31.250  
G21  20551040.711 1 107996547.272 1      -663.397          29.500                                                                  
G30  22655825.998 1                      2903.844          25.000    22655821.501 1                      2166.710          21.250  
J 2  37986830.664 1 199622016.312 1      1250.294          27.000    37986834.262 1 149068422.08111       933.598          29.000  
J 3  39000279.069 1 204947875.82811      -703.103          27.000    39000285.964 1 153045584.956 1      -524.929          33.500  
R 9  20487979.367 1                     -1289.443          18.000  
R10  19917632.910 1 106247077.772 1      1887.604          39.750  
R20  19917008.142 1                     -2375.521          27.250  
R21  20133424.420 1 107737990.711 1      1982.587          33.500  
> 2021  5 18  3 10  1.9996218  0 12                     
G 1  20343760.907 1                      1971.980          26.000    20343762.107 1                      1471.913          26.250  
G 7  20309276.381 1                       988.682          22.000                                                                  
G 8  22042083.983 1 115831892.442 1     -2174.920          32.000    22042082.784 1  86497860.818 1     -1623.994          28.750  
G 9                                                                  24006698.608 1                     -1646.807          21.250  
G21  20551202.598 1 107997369.031 1      -664.217          29.000                                                                  
G30  22655303.760 1                      2909.773          21.500    22655300.462 1                      2172.778          21.750  
J 2  37986622.908 1 199620923.324 1      1250.531          27.750    37986625.606 1 149067605.873 1       933.852          28.750  
J 3  39000440.957 1 204948734.763 1      -701.394          27.250    39000448.451 1 153046226.456 1      -523.855          34.250  
R 9  20488331.623 1                     -1287.745          18.250  
R10  19917308.534 1 106245347.433 1      1890.258          39.000  
R20  19917472.521 1 106507649.58011     -2373.688          26.000  
R21  20133073.663 1 107736171.554 1      1979.581          33.000  
> 2021  5 18  3 10  2.9996218  0 12                     
G 1  20343387.366 1 106905230.59911      1969.921          26.000    20343388.565 1  79831893.44011      1471.100          27.750  
G 7  20309096.205 1                       988.363          20.500                                                                  
G 8  22042505.491 1                     -2173.760          27.500                                                                  
G 9  24007136.905 1                     -2189.860          22.750    24007121.316 1                     -1637.379          20.500  
G21  20551327.312 1 107998033.593 1      -664.562          29.500                                                                  
G30  22654751.842 1                      2913.496          18.750    22654746.745 1                      2165.506          18.500  
J 2  37986382.175 1 199619672.686 1      1250.637          29.000    37986387.571 1 149066671.963 1       933.910          30.000  
J 3  39000577.962 1 204949434.589 1      -699.826          28.500    39000581.559 1 153046748.725 1      -522.269          35.000  
R 9  20488645.206 1                     -1287.716          17.500  
R10  19916957.777 1 106243454.099 1      1893.333          37.750  
R20  19917916.214 1                     -2370.628          25.750  
R21  20132719.009 1 107734194.287 1      1977.267          33.250  
> 2021  5 18  3 10  3.9996219  0 14                     
G 1  20343043.504 1 106903420.048 1      1968.093          25.750    20343041.405 1  79830541.438 1      1469.648          30.250  
G 7  20308941.812 1                       986.680          18.000                                                                  
G 8  22042937.792 1                     -2168.895          23.250                                                                  
G 9                                                                  24007571.304 1                     -1632.661          19.500  
G17  23844898.220 1                      1991.518          28.000                                                                  
G21  20551484.703 1 107998856.322 1      -665.186          28.500                                                                  
G22  24138555.426 1                      1966.393          24.250                                                                  
G30  22654238.897 1                      2917.776          18.750    22654223.607 1                      2186.754          17.500  
J 2  37986176.517 1 199618579.454 1      1250.775          28.250    37986181.913 1 149065855.664 1       933.944          28.750  
J 3  39000738.051 1                      -698.492          27.250    39000744.347 1                      -521.391          35.250  
R 9  20488849.665 1                     -1278.766          14.500  
R10  19916622.909 1 106241719.240 1      1894.778          37.500  
R20  19918408.473 1 106512550.11211     -2369.464          26.750  
R21  20132378.444 1                      1978.321          31.250  
> 2021  5 18  3 10  4.9996219  0 12                     
G 1  20342665.766 1                      1972.885          24.000    20342668.164 1  79829072.791 1      1468.646          29.500  
G 7  20308739.152 1                       991.421          20.500                                                                  
G17  23844518.084 1                      1986.595          32.750                                                                  
G21  20551609.417 1 107999522.270 1      -665.949          29.000                                                                  
G22  24138184.283 1                      1964.522          21.750                                                                  
G30                                                                  22653663.295 1                      2178.114          23.750  
J 2  37985940.281 1 199617328.818 1      1250.635          28.500    37985941.780 1 149064921.733 1       933.931          29.500  
J 3  39000872.058 1 204950989.59111      -698.541          26.750    39000877.454 1 153047910.29211      -521.736          35.000  
R 9  20489126.673 1                     -1280.697          12.750  
R10  19916277.848 1 106239824.249 1      1894.992          38.250  
R20  19918844.971 1                     -2369.556          27.250  
R21  20132004.004 1 107730404.02611      1974.805          31.500  
> 2021  5 18  3 10  5.9996220  0 14                     
G 1  20342318.606 1 106899645.53011      1965.359          26.750    20342324.602 1  79827722.693 1      1467.743          27.750  
G 7  20308581.761 1                       992.972          25.000                                                                  
G 8  22043820.081 1                     -2166.980          22.250                                                                  
G 9  24008440.103 1                     -2203.484          23.750                                                                  
G17  23844165.528 1                      1991.957          33.750                                                                  
G21  20551767.108 1 108000347.048 1      -667.236          30.500                                                                  
G22  24137845.817 1                      1953.113          18.500                                                                  
G30  22653141.956 1                      2910.610          22.000    22653141.656 1  88895822.94011      2176.001          21.500  
J 2  37985732.525 1 199616236.543 1      1249.817          30.750    37985734.323 1 149064106.032 1       933.346          32.000  
J 3  39001036.644 1                      -696.220          24.000    39001042.640 1 153048550.294 1      -522.356          32.750  
R 9  20489412.375 1                     -1289.042          14.250  
R10  19915946.577 1 106238090.559 1      1893.609          38.000  
R20  19919326.437 1 106517450.63111     -2370.851          26.500  
R21  20131661.641 1 107728591.112 1      1973.338          31.750  
> 2021  5 18  3 10  6.9996220  0 14                     
G 1  20341953.159 1 106897680.155 1      1965.375          28.500    20341950.161 1                      1467.617          26.500  
G 7  20308394.991 1 106721323.14311       989.022          25.000                                                                  
G 8  22044229.897 1                     -2169.314          20.500    22044228.698 1                     -1616.518          19.250  
G 9                                                                  24008853.217 1                     -1657.470          29.250  
G17  23843791.986 1 125299934.33211      1989.444          35.250                                                                  
G21  20551895.719 1 108001015.241 1      -668.193          32.250                                                                  
G22  24137498.358 1                      1954.476          21.000                                                                  
G30  22652601.430 1                      2908.490          22.500    22652591.537 1                      2173.834          22.000  
J 2  37985487.294 1 199614987.002 1      1249.541          31.750    37985495.988 1 149063172.872 1       933.160          32.000  
J 3  39001166.155 1                      -703.365          20.500                                                                  
R 9  20489588.353 1                     -1293.308          16.750  
R10  19915600.017 1 106236197.910 1      1892.648          38.250  
R20  19919765.333 1                     -2373.177          26.750  
R21  20131300.391 1                      1975.557          34.000  
> 2021  5 18  3 10  7.9996221  0 13                     
G 1  20341605.699 1 106895871.885 1      1965.811          29.000    20341608.697 1                      1467.107          26.750  
G 7  20308243.296 1                       987.061          25.000                                                                  
G 8  22044675.089 1                     -2177.597          19.500                                                                  
G 9                                                                  24009305.304 1                     -1653.419          28.250  
G17  23843439.131 1                      1990.622          31.750                                                                  
G21  20552054.009 1                      -671.672          27.750                                                                  
G30  22652074.695 1                      2910.784          21.000    22652070.798 1                      2180.440          19.000  
J 2  37985287.033 1                      1246.206          26.250    37985290.630 1                       931.384          26.750  
J 3  39001330.141 1                      -709.644          17.000    39001347.529 1                      -529.845          22.250  
R 9  20489847.674 1                     -1291.582          18.500  
R10  19915266.948 1 106234466.890 1      1890.939          36.750  
R20  19920222.217 1                     -2372.183          25.500  
R21  20130948.135 1                      1977.587          32.000  
> 2021  5 18  3 10  8.9996221  0 13                     
G 1  20341233.057 1 106893904.031 1      1967.855          29.750    20341231.858 1  79823435.55111      1469.666          28.000  
G 7  20308052.028 1                       986.710          26.500                                                                  
G 8  22045083.406 1                     -2180.470          20.250    22045061.222 1                     -1626.839          19.750  
G 9                                                                  24009725.613 1                     -1656.792          27.000  
G21  20552194.312 1                      -664.388          23.750                                                                  
G22  24136775.558 1                      1948.762          24.000                                                                  
G30  22651529.373 1                      2907.415          18.000                                                                  
J 2  37985059.191 1                      1261.951          21.500                                                                  
J 3                                                                  39001482.735 1                      -532.942          19.250  
R 9  20490148.665 1                     -1295.353          18.250  
R10  19914913.792 1 106232578.798 1      1888.092          36.250  
R20  19920678.801 1                     -2378.477          25.000  
R21  20130576.692 1                      1976.842          31.000  
> 2021  5 18  3 10  9.9996222  0 13                     
G 1  20340887.097 1                      1976.073          29.500    20340887.397 1  79822081.118 1      1472.078          28.000  
G 7  20307891.040 1 106718677.43211       985.408          26.250                                                                  
G 8  22045519.305 1                     -2182.971          20.750    22045507.613 1                     -1629.352          23.500  
G 9                                                                  24010179.798 1                     -1640.139          27.500  
G17  23842721.727 1                      1993.325          25.750                                                                  
G22  24136430.197 1                      1936.690          22.250                                                                  
G30  22651017.027 1                      2897.968          18.500                                                                  
J 2  37984849.336 1                      1267.871          18.250                                                                  
J 3  39001643.124 1                      -699.034          21.250                                                                  
R 9  20490378.306 1                     -1291.103          20.000  
R10  19914602.008 1 106230855.414 1      1883.303          37.000  
R20  19921146.777 1 106527275.93111     -2381.923          26.250  
R21  20130240.025 1                      1979.191          33.000  
> 2021  5 18  3 10 10.9996222  0 13                     
G 1  20340509.059 1                      1976.354          26.750    20340511.457 1  79820607.779 1      1473.339          27.750  
G 7  20307710.565 1 106717694.082 1       983.349          27.500                                                                  
G 8  22045940.813 1                     -2184.436          21.500    22045926.423 1                     -1630.455          23.750  
G 9  24010603.405 1                     -2202.555          26.750                                                                  
G17  23842341.291 1                      1992.251          26.000                                                                  
G21  20552477.016 1                      -668.070          22.000                                                                  
G22  24136064.150 1                      1938.691          20.250                                                                  
G30  22650470.805 1                      2892.826          19.250                                                                  
J 3  39001784.926 1                      -700.797          21.250                                                                  
R 9  20490656.214 1                     -1299.237          18.000  
R10  19914243.156 1 106228975.164 1      1880.250          36.250  
R20  19921588.971 1 106529661.220 1     -2385.289          26.250  
R21  20129876.676 1                      1985.496          32.750  
> 2021  5 18  3 10 11.9996222  0 13                     
G 1  20340135.217 1 106888142.68011      1972.793          30.500    20340137.316 1  79819134.497 1      1473.282          30.250  
G 7  20307518.697 1 106716711.826 1       982.256          26.750                                                                  
G 8  22046357.824 1                     -2185.847          21.500    22046343.434 1                     -1631.619          22.000  
G 9  24011018.618 1                     -2194.862          25.750    24011012.922 1  94224329.98111     -1640.596          27.750  
G17  23841956.057 1                      1993.275          22.250                                                                  
G21  20552620.017 1                      -670.999          19.750                                                                  
G22  24135693.907 1                      1943.461          20.500                                                                  
G30  22649899.701 1                      2892.827          20.000                                                                  
J 3  39001914.736 1                      -704.208          21.500                                                                  
R 9  20490912.836 1                     -1308.094          18.250  
R10  19913889.101 1 106227095.676 1      1879.488          35.000  
R20  19922058.146 1                     -2389.501          24.250  
R21  20129508.831 1                      1979.338          31.000  
> 2021  5 18  3 10 12.9996223  0 13                     
G 1  20339789.856 1 106886326.396 1      1973.826          31.250    20339791.056 1  79817778.552 1      1473.590          31.000  
G 7  20307367.302 1                       981.956          25.500                                                                  
G 8  22046797.919 1                     -2189.300          22.250    22046791.024 1  86516288.17911     -1631.466          20.500  
G 9  24011465.009 1 126180890.77911     -2195.282          24.000    24011462.311 1  94226086.931 1     -1639.305          25.750  
G17  23841616.392 1                      1992.233          25.000                                                                  
G21  20552777.108 1                      -673.031          17.000                                                                  
G22  24135344.948 1                      1947.056          16.500                                                                  
G30  22649389.754 1                      2889.609          17.000                                                                  
J 3  39002085.018 1 204957261.46211      -704.292          25.000                                                                  
R 9  20491166.760 1                     -1312.203          15.750  
R10  19913573.720 1 106225377.847 1      1877.748          35.250  
R20  19922516.529 1                     -2388.138          24.000  
R21  20129164.070 1                      1971.480          26.250  
> 2021  5 18  3 10 13.9996223  0 11                     
G 1  20339417.514 1 106884353.422 1      1972.974          31.750    20339414.816 1  79816305.106 1      1473.446          31.000  
G 7  20307176.634 1                       980.169          25.500                                                                  
G 8  22047211.633 1                     -2185.916          21.500    22047205.038 1                     -1646.474          18.000  
G 9  24011879.622 1                     -2195.385          23.750    24011878.422 1  94227726.329 1     -1639.399          25.000  
G17  23841241.952 1 125286466.32711      1992.418          25.750                                                                  
G21  20552921.309 1                      -676.318          14.250                                                                  
G22  24134957.017 1                      1946.623          15.500                                                                  
G30  22648860.620 1                      2889.659          15.250                                                                  
J 3  39002221.124 1                      -704.433          25.750    39002199.839 1 153053141.33811      -525.271          24.500  
R10  19913217.267 1 106223500.533 1      1877.314          35.500  
R20  19922974.012 1                     -2388.530          24.500  
> 2021  5 18  3 10 14.9996224  0 11                     
G 1  20339071.854 1 106882538.670 1      1972.294          31.500    20339069.755 1  79814949.969 1      1472.782          31.250  
G 7  20307016.545 1                       979.583          25.000                                                                  
G 8  22047655.026 1                     -2182.238          21.000    22047652.028 1                     -1633.792          17.500  
G 9  24012332.308 1                     -2196.049          24.250    24012325.713 1  94229483.622 1     -1639.648          26.000  
G17  23840896.291 1 125284632.055 1      1991.814          26.000                                                                  
G22  24134652.428 1                      1942.852          12.250                                                                  
G30  22648321.293 1                      2895.379          15.750    22648307.803 1                      2162.858          20.000  
J 2  37983734.408 1                      1244.377          16.750                                                                  
J 3  39002386.010 1 204958827.50311      -704.312          25.750    39002364.125 1 153053784.945 1      -525.962          24.500  
R10  19912888.994 1 106221783.795 1      1876.657          35.250  
R20  19923455.479 1                     -2392.396          24.250  
> 2021  5 18  3 10 15.9996224  0 12                     
G 1  20338696.513 1 106880567.011 1      1971.659          32.000    20338694.415 1  79813477.679 1      1472.291          31.000  
G 7  20306843.865 1 106713104.60211       979.503          25.500                                                                  
G 8                                                                  22048068.740 1                     -1629.464          17.000  
G 9  24012745.722 1                     -2196.385          22.750    24012743.024 1  94231123.269 1     -1639.646          25.250  
G17  23840511.058 1 125282640.469 1      1991.586          25.500                                                                  
G22  24134264.197 1                      1942.735          11.500                                                                  
G30                                                                  22647755.585 1  88874621.69111      2159.638          20.250  
J 2  37983490.077 1                      1249.217          17.500                                                                  
J 3  39002517.019 1 204959531.864 1      -704.361          24.750    39002499.032 1 153054310.902 1      -525.957          25.250  
R10  19912539.136 1 106219907.567 1      1876.228          34.500  
R20  19923900.970 1                     -2392.276          24.250  
R21  20128122.890 1                      1953.929          12.250  
> 2021  5 18  3 10 16.9996225  0 10                     
G 1  20338353.251 1 106878753.552 1      1971.001          32.250    20338349.654 1  79812123.470 1      1471.854          31.000  
G 7  20306682.576 1 106712283.137 1       979.007          25.750                                                                  
G 8  22048505.837 1                     -2188.911          20.000                                                                  
G 9  24013199.308 1                     -2195.625          23.500    24013193.312 1  94232880.560 1     -1639.647          26.000  
G17  23840157.902 1 125280806.694 1      1991.317          25.500                                                                  
G30                                                                  22647236.644 1  88872579.666 1      2159.670          20.500  
J 2  37983310.501 1                      1252.080          17.500                                                                  
J 3  39002684.603 1                      -704.167          25.250    39002664.217 1                      -525.988          25.000  
R10  19912219.257 1 106218191.650 1      1875.836          34.250  
R20  19924371.045 1 106544475.25511     -2390.558          24.000  
> 2021  5 18  3 10 17.9996225  0 11                     
G 1  20337979.110 1 106876782.840 1      1970.712          32.500    20337974.313 1  79810651.831 1      1471.639          31.250  
G 7  20306492.508 1                       978.188          25.500                                                                  
G 8  22048928.245 1                     -2190.040          18.500    22048930.043 1                     -1632.027          17.750  
G 9  24013619.317 1 126192182.71211     -2195.342          24.000    24013610.324 1  94234519.935 1     -1639.375          25.500  
G17  23839774.767 1 125278815.342 1      1991.352          25.250                                                                  
G21  20553527.789 1                      -669.996          17.750                                                                  
G30                                                                  22646688.024 1                      2157.586          20.000  
J 2  37983052.380 1                      1248.469          18.000                                                                  
J 3  39002815.613 1                      -704.492          25.000    39002794.927 1 153055480.05911      -525.597          25.250  
R10  19911858.307 1 106216316.041 1      1875.609          34.750  
R20  19924819.834 1                     -2391.156          24.000  
> 2021  5 18  3 10 18.9996226  0 10                     
G 1  20337631.351 1 106874970.527 1      1969.855          32.750    20337629.252 1  79809298.467 1      1471.008          31.250  
G 7  20306335.117 1                       977.766          26.000                                                                  
G 8  22049358.447 1                     -2190.194          17.000    22049375.835 1                     -1632.201          19.750  
G 9  24014065.109 1                     -2194.785          23.750    24014058.213 1  94236277.124 1     -1639.544          25.750  
G17  23839428.207 1 125276982.204 1      1990.680          24.500                                                                  
G30  22646199.063 1                      2886.098          16.750    22646166.685 1  88868378.93611      2158.990          20.250  
J 2  37982850.320 1                      1246.172          17.750                                                                  
J 3  39002975.402 1                      -703.497          24.750    39002958.913 1 153056123.811 1      -526.107          25.000  
R10  19911546.223 1 106214601.047 1      1874.913          35.250  
R20  19925292.007 1                     -2391.881          24.500  
> 2021  5 18  3 10 19.9996226  0 10                     
G 1  20337256.910 1 106873000.792 1      1969.735          31.750    20337253.612 1  79807827.524 1      1470.944          31.500  
G 7  20306151.344 1 106709506.54911       977.888          24.750                                                                  
G 8  22049767.663 1                     -2184.739          18.750    22049792.246 1  86528063.03611     -1631.356          23.250  
G 9  24014480.321 1 126196730.60511     -2194.918          25.750    24014474.625 1  94237916.159 1     -1639.035          26.500  
G17  23839047.771 1 125274990.989 1      1991.215          25.000                                                                  
G30  22645649.243 1                      2891.063          14.000    22645615.067 1                      2159.083          22.000  
J 2  37982604.790 1                      1243.786          18.000                                                                  
J 3  39003106.111 1 204962662.56511      -703.505          26.000    39003095.919 1 153056648.599 1      -524.789          26.000  
R10  19911194.867 1 106212725.525 1      1875.521          36.000  
R20  19925750.690 1 106551809.61811     -2391.340          24.750  
> 2021  5 18  3 10 20.9996227  0 11                     
G 1  20336910.350 1                      1967.865          28.750    20336908.851 1  79806475.062 1      1470.107          31.250  
G 7  20305998.150 1                       976.632          25.250                                                                  
G 8  22050246.132 1 115874718.40711     -2185.129          27.250    22050232.342 1  86529812.305 1     -1631.624          25.000  
G 9  24014915.320 1 126199083.965 1     -2195.818          24.500    24014923.115 1  94239673.472 1     -1639.668          27.000  
G17  23838712.902 1                      1995.640          21.500                                                                  
G30  22645121.009 1                      2889.060          19.250    22645100.023 1  88864177.80211      2159.201          20.250  
J 2  37982386.541 1                      1246.890          18.250                                                                  
J 3  39003266.500 1                      -706.084          23.000                                                                  
R10  19910869.892 1 106211010.779 1      1874.665          35.500  
R20  19926223.163 1 106554362.300 1     -2392.370          25.500  
R21  20126296.555 1                      1970.641          32.000  
> 2021  5 18  3 10 21.9996227  0 12                     
G 1  20336548.201 1                      1963.749          24.250    20336536.209 1  79805005.565 1      1469.496          30.750  
G 7  20305812.578 1 106707712.32511       975.101          26.750                                                                  
G 8  22050651.152 1 115876903.123 1     -2184.717          29.750    22050644.856 1                     -1630.669          22.750  
G 9  24015328.134 1                     -2195.585          24.250    24015339.227 1  94241313.820 1     -1640.348          27.000  
G17  23838308.183 1                      2000.012          18.250                                                                  
G22  24132130.274 1                      1948.243          22.000                                                                  
G30  22644561.596 1                      2891.509          23.250                                                                  
J 2  37982141.011 1                      1252.800          17.000                                                                  
J 3  39003406.803 1                      -709.865          20.500                                                                  
R10  19910525.730 1 106209136.174 1      1874.605          36.750  
R20  19926667.755 1                     -2390.112          25.250  
R21  20125971.580 1                      1965.082          31.000  
> 2021  5 18  3 10 22.9996228  0 13                     
G 1  20336202.540 1 106867413.24411      1966.336          25.000    20336192.047 1  79803654.929 1      1468.281          30.250  
G 7  20305651.590 1                       974.796          26.750                                                                  
G 8  22051098.142 1                     -2184.689          27.000    22051092.446 1                     -1622.863          19.000  
G 9  24015788.316 1                     -2193.229          27.250                                                                  
G17  23837972.115 1                      1991.588          19.750                                                                  
G22  24131790.009 1                      1944.442          23.750                                                                  
G30  22644037.259 1                      2890.261          21.500                                                                  
J 2  37981929.657 1                      1257.513          18.250                                                                  
J 3  39003563.595 1                      -709.244          22.750    39003556.100 1                      -525.133          27.000  
R 9  20493705.103 1                     -1305.215          15.000  
R10  19910192.960 1 106207421.502 1      1874.591          35.250  
R20  19927131.534 1                     -2390.236          24.250  
R21  20125628.617 1                      1968.111          30.000  
> 2021  5 18  3 10 23.9996228  0 12                     
G 1  20335820.604 1                      1969.185          25.750    20335819.105 1  79802187.404 1      1467.525          31.000  
G 7  20305464.220 1 106705927.80111       974.980          27.250                                                                  
G 8  22051508.558 1 115881429.46611     -2184.294          25.750    22051513.955 1                     -1629.113          19.500  
G 9  24016207.725 1                     -2196.661          26.750                                                                  
G22  24131416.768 1 126811435.91611      1944.437          29.000                                                                  
G30  22643471.251 1                      2897.217          19.000                                                                  
J 2  37981698.517 1                      1265.025          16.000                                                                  
J 3  39003685.011 1 204965791.56811      -702.701          27.000    39003689.208 1 153058984.14011      -524.683          26.500  
R 9  20493935.644 1                     -1304.540          21.250  
R10  19909852.396 1 106205546.668 1      1874.834          35.250  
R20  19927571.629 1                     -2395.197          22.750  
R21  20125263.470 1                      1967.713          34.500  
> 2021  5 18  3 10 24.9996228  0 12                     
G 1  20335445.264 1                      1965.389          24.750    20335444.065 1  79800721.103 1      1466.301          31.000  
G 7  20305281.346 1 106704953.572 1       974.229          29.000                                                                  
G 8  22051922.272 1                     -2180.413          25.500    22051926.469 1  86536455.21211     -1630.419          24.750  
G 9  24016630.733 1                     -2196.161          24.500                                                                  
G17  23837225.032 1                      1981.454          20.250                                                                  
G22  24131048.922 1 126809493.362 1      1942.554          28.500                                                                  
J 2  37981495.258 1                      1255.014          14.500                                                                  
J 3  39003819.618 1                      -701.753          28.000    39003822.016 1 153059508.825 1      -524.684          27.250  
R 9  20494225.543 1                     -1310.865          20.000  
R10  19909501.639 1 106203671.380 1      1875.288          35.750  
R20  19928035.408 1                     -2393.115          21.750  
R21  20124884.532 1                      1967.744          32.500  
> 2021  5 18  3 10 25.9996229  0 13                     
G 1  20335120.889 1                      1965.275          21.250    20335099.903 1  79799372.926 1      1465.822          30.000  
G 7  20305120.358 1                       976.091          27.500                                                                  
G 8  22052373.759 1                     -2180.375          22.500    22052375.558 1                     -1629.681          23.000  
G 9  24017080.721 1                     -2196.384          24.000    24017072.027 1                     -1640.056          24.500  
G17  23836870.078 1                      1978.958          15.250                                                                  
G22  24130708.058 1 126807708.564 1      1942.340          27.500                                                                  
G30  22642419.279 1 118986667.21111      2893.055          25.500                                                                  
J 2  37981282.405 1                      1249.495          16.000                                                                  
J 3  39003986.902 1 204967353.61711      -702.112          26.750    39003985.703 1 153060150.679 1      -524.209          27.750  
R 9  20494513.344 1                     -1306.372          20.250  
R10  19909168.270 1 106201955.813 1      1875.485          35.750  
R20  19928527.368 1                     -2394.239          23.250  
R21  20124556.260 1                      1967.236          29.500  
> 2021  5 18  3 10 26.9996229  0 12                     
G 1  20334746.148 1                      1967.837          21.000    20334726.362 1  79797906.970 1      1465.957          30.500  
G 7  20304942.281 1 106703162.42411       973.634          28.000                                                                  
G 8  22052787.773 1                     -2181.812          26.500    22052792.270 1  86539831.64411     -1629.666          22.500  
G 9  24017496.833 1                     -2193.220          25.250    24017494.135 1  94249756.44111     -1641.857          26.250  
G17  23836485.744 1                      1979.896          16.500                                                                  
G30  22641869.460 1                      2890.062          24.250                                                                  
J 2  37981011.093 1                      1249.573          18.750                                                                  
J 3  39004124.506 1                      -705.877          25.500    39004121.209 1                      -525.125          28.250  
R 9  20494713.905 1                     -1299.258          18.000  
R10  19908831.603 1 106200081.689 1      1874.124          36.750  
R20  19928958.169 1                     -2395.550          22.750  
R21  20124198.008 1                      1968.147          28.250  
> 2021  5 18  3 10 27.9996230  0 11                     
G 1  20334401.687 1                      1967.528          21.000    20334382.200 1  79796559.416 1      1465.198          29.250  
G 7  20304782.791 1                       972.107          26.250                                                                  
G 8  22053232.365 1 115890474.07011     -2182.610          27.250    22053236.262 1  86541580.328 1     -1631.040          21.000  
G 9  24017934.830 1                     -2196.499          24.750                                                                  
G22  24130014.039 1                      1951.335          18.500                                                                  
G30  22641342.725 1                      2890.658          20.500                                                                  
J 3  39004288.793 1 204968916.80911      -702.811          29.500    39004283.396 1 153061317.69111      -524.773          28.500  
R 9  20494987.915 1                     -1303.095          19.500  
R10  19908502.431 1 106198368.211 1      1873.396          37.000  
R20  19929438.137 1                     -2395.235          23.500  
R21  20123865.538 1                      1965.644          27.750  
> 2021  5 18  3 10 28.9996230  0 13                     
G 1  20334021.550 1                      1957.785          22.500    20334009.858 1  79795094.218 1      1465.199          29.500  
G 7  20304598.119 1 106701374.88911       971.892          27.000                                                                  
G 8  22053645.179 1 115892657.834 1     -2183.765          26.750    22053652.074 1                     -1628.573          20.750  
G 9  24018353.640 1                     -2198.158          25.500    24018362.634 1  94253156.16011     -1640.968          28.750  
G21  20555033.047 1                      -683.124          18.750                                                                  
G22  24129634.801 1                      1954.442          18.500                                                                  
G30  22640791.106 1                      2893.036          17.000                                                                  
J 2  37980566.501 1                      1248.810          16.500    37980570.698 1                       935.338          19.500  
J 3  39004418.303 1 204969619.637 1      -702.827          27.000    39004418.303 1 153061842.766 1      -525.075          26.500  
R 9  20495258.028 1                     -1312.315          24.750  
R10  19908157.070 1 106196495.719 1      1872.492          37.500  
R20  19929886.627 1 106573984.12511     -2395.614          25.000  
R21  20123484.502 1 107684904.88511      1963.951          31.500  
> 2021  5 18  3 10 29.9996231  0 13                     
G 1  20333678.287 1                      1955.831          20.750    20333668.094 1  79793747.514 1      1464.349          29.250  
G 7  20304447.324 1 106700560.678 1       971.753          27.250                                                                  
G 8  22054087.373 1 115894997.833 1     -2182.457          27.500    22054097.866 1  86544957.14611     -1629.462          22.000  
G 9  24018801.829 1                     -2197.934          23.750    24018812.922 1                     -1641.275          26.000  
G21  20555184.742 1                      -677.156          20.750                                                                  
G22  24129298.434 1                      1951.182          16.250                                                                  
G30  22640275.763 1                      2891.988          15.750                                                                  
J 2  37980361.143 1                      1244.100          20.000                                                                  
J 3  39004581.090 1                      -698.647          23.000    39004581.690 1 153062484.853 1      -524.442          25.000  
R 9  20495518.248 1                     -1313.490          23.750  
R10  19907835.093 1 106194782.720 1      1872.918          37.250  
R20  19930356.102 1 106576539.653 1     -2395.215          26.000  
R21  20123149.633 1 107683102.223 1      1963.087          31.500  
> 2021  5 18  3 10 30.9996231  0 13                     
G 1  20333299.949 1                      1964.530          25.250    20333294.553 1  79792284.150 1      1463.364          29.000  
G 7  20304262.052 1 106699589.213 1       971.465          27.000                                                                  
G 8  22054494.791 1 115897178.788 1     -2180.955          31.750                                                                  
G 9  24019221.539 1                     -2196.087          24.500                                                                  
G21  20555313.053 1                      -680.808          25.000                                                                  
G22  24128930.289 1                      1948.942          16.000                                                                  
G30  22639716.051 1                      2883.889          17.000                                                                  
J 2  37980116.213 1                      1246.984          22.000    37980120.110 1                       930.072          19.250  
J 3  39004717.796 1                      -697.044          20.500    39004718.395 1 153063009.110 1      -524.257          25.750  
R 9  20495775.170 1                     -1321.987          20.500  
R10  19907476.841 1 106192909.748 1      1872.972          38.750  
R20  19930819.881 1 106578934.911 1     -2395.258          27.000  
R21  20122776.692 1                      1963.071          29.500  
> 2021  5 18  3 10 31.9996232  0 12                     
G 1  20332953.089 1                      1958.096          26.750    20332950.092 1  79790939.354 1      1462.440          28.750  
G 7  20304110.057 1 106698776.498 1       970.257          28.500                                                                  
G 8  22054948.677 1 115899517.987 1     -2181.656          33.500                                                                  
G 9  24019674.525 1                     -2197.499          23.000    24019676.024 1                     -1644.726          23.250  
G21  20555464.748 1                      -684.678          24.500                                                                  
G30  22639203.406 1                      2883.859          19.500                                                                  
J 2  37979913.853 1                      1252.316          23.500    37979904.559 1                       935.057          19.250  
J 3  39004871.589 1                      -703.123          25.000    39004879.384 1                      -524.771          26.500  
R 9  20496029.094 1                     -1322.648          19.500  
R10  19907163.258 1 106191197.263 1      1872.403          38.250  
R20  19931294.152 1                     -2397.071          26.500  
R21  20122443.322 1                      1963.711          28.000  
> 2021  5 18  3 10 32.9996232  0 12                     
G 1  20332580.148 1 106848418.64911      1958.125          28.250    20332578.049 1  79789477.080 1      1462.275          28.000  
G 7  20303923.886 1 106697806.638 1       969.861          28.750                                                                  
G 8  22055367.487 1 115901699.960 1     -2181.973          32.000                                                                  
G 9  24020094.235 1                     -2198.187          24.250    24020094.235 1                     -1638.582          22.750  
G21  20555599.355 1                      -683.936          24.250                                                                  
G30  22638652.987 1                      2889.838          18.750                                                                  
J 2  37979678.216 1                      1252.973          22.250    37979671.021 1                       934.862          21.000  
J 3  39005013.991 1                      -706.154          26.250    39005011.592 1 153064175.68511      -524.489          27.000  
R 9  20496311.799 1                     -1323.064          21.250  
R10  19906810.102 1 106189325.303 1      1871.960          37.000  
R20  19931746.839 1 106583887.70311     -2396.460          26.000  
R21  20122059.288 1                      1960.958          26.000  
> 2021  5 18  3 10 33.9996233  0 12                     
G 1  20332236.586 1 106846618.419 1      1957.773          29.000    20332234.787 1                      1462.202          27.750  
G 7  20303767.994 1                       969.129          27.250                                                                  
G 8  22055818.075 1                     -2179.077          29.000                                                                  
G 9  24020546.622 1                     -2200.243          23.500                                                                  
G21  20555762.142 1                      -684.890          24.500                                                                  
G30  22638119.656 1                      2894.046          20.250                                                                  
J 2  37979461.166 1                      1247.665          21.750    37979470.160 1                       933.815          21.000  
J 3  39005182.174 1                      -703.144          23.000    39005174.979 1 153064817.780 1      -524.450          24.750  
R 9  20496600.499 1                     -1313.437          22.250  
R10  19906485.427 1 106187613.370 1      1871.852          37.500  
R20  19932217.213 1                     -2397.664          25.750  
R21  20121747.504 1                      1957.885          26.000  
> 2021  5 18  3 10 34.9996233  0 14                     
G 1  20331866.342 1                      1956.813          27.000    20331865.143 1                      1461.149          27.000  
G 7  20303588.418 1                       970.704          25.500                                                                  
G 8  22056229.090 1                     -2186.015          24.750                                                                  
G 9  24020956.438 1                     -2198.616          22.000                                                                  
G17  23833572.661 1                      1975.490          13.750                                                                  
G21  20555885.656 1                      -687.949          23.000                                                                  
G22  24127515.269 1                      1951.327          14.000                                                                  
G30  22637587.824 1                      2892.899          18.750                                                                  
J 2  37979235.123 1                      1250.490          22.750    37979222.531 1 149038516.34711       934.287          22.750  
J 3  39005311.984 1                      -701.986          27.750    39005311.085 1 153065341.891 1      -524.111          26.250  
R 9  20496828.641 1                     -1319.883          21.250  
R10  19906137.668 1 106185742.279 1      1871.091          37.250  
R20  19932680.393 1                     -2398.526          25.750  
R21  20121369.766 1                      1958.268          26.250  
> 2021  5 18  3 10 35.9996233  0 12                     
G 1  20331490.102 1 106842705.22111      1955.650          28.500    20331492.201 1  79785210.77911      1460.489          28.250  
G 7  20303399.549 1 106695059.08811       968.257          26.250                                                                  
G 8  22056656.295 1                     -2182.368          23.750    22056656.594 1                     -1624.394          18.750  
G 9  24021380.644 1                     -2195.422          21.500                                                                  
G21  20556031.955 1                      -684.386          24.250                                                                  
G30  22637034.407 1                      2891.210          16.750                                                                  
J 2  37978982.997 1                      1255.930          23.250    37978986.295 1                       933.931          22.500  
J 3  39005443.893 1 204975002.96811      -701.975          27.500    39005442.394 1 153065866.338 1      -524.447          29.000  
R 9  20497054.385 1                     -1315.327          21.500  
R10  19905781.214 1 106183871.504 1      1870.775          36.750  
R20  19933118.089 1                     -2397.894          26.000  
R21  20121009.115 1                      1961.291          24.500  
> 2021  5 18  3 10 36.9996234  0 12                     
G 1  20331151.337 1 106840907.189 1      1955.573          28.250    20331151.637 1  79783868.094 1      1460.330          27.250  
G 7  20303251.451 1                       964.718          24.000                                                                  
G 8  22057098.189 1                     -2184.474          23.750    22057100.887 1                     -1636.889          20.000  
G 9  24021848.021 1                     -2194.566          19.500    24021841.125 1                     -1642.433          20.500  
G21  20556193.543 1                      -682.199          22.250                                                                  
G30  22636490.584 1                      2889.128          18.750                                                                  
J 2  37978774.042 1                      1253.096          22.500    37978779.438 1 149036766.38211       933.821          23.500  
J 3  39005608.779 1                      -703.248          25.750    39005608.179 1 153066508.293 1      -524.311          34.750  
R 9  20497324.797 1                     -1312.840          21.250  
R10  19905468.831 1 106182161.049 1      1870.373          37.500  
R20  19933595.359 1 106593799.88011     -2398.756          26.500  
R21  20120712.920 1                      1959.775          22.000  
> 2021  5 18  3 10 37.9996234  0 12                     
G 1  20330775.097 1 106838951.169 1      1956.020          29.000    20330778.395 1  79782407.574 1      1460.520          28.500  
G 7  20303067.979 1                       967.032          25.500                                                                  
G 8  22057511.003 1                     -2189.836          23.000    22057513.401 1                     -1636.583          20.000  
G 9  24022266.831 1                     -2190.826          19.500    24022256.038 1                     -1641.886          22.500  
G21  20556321.255 1                      -681.907          22.750                                                                  
G30  22635947.360 1                      2878.346          17.250    22635948.559 1                      2157.403          22.750  
J 2  37978542.002 1 199578673.12211      1250.493          27.500    37978543.501 1 149035832.397 1       933.985          23.750  
J 3  39005742.786 1 204976566.80811      -702.782          29.000    39005740.688 1 153067032.838 1      -524.545          35.750  
R 9  20497585.617 1                     -1314.714          24.500  
R10  19905110.878 1 106180292.110 1      1868.940          38.000  
R20  19934037.253 1                     -2401.208          27.000  
R21  20120321.391 1                      1953.589          22.500  
> 2021  5 18  3 10 38.9996235  0 12                     
G 1  20330436.632 1 106837153.192 1      1955.519          29.500    20330435.133 1  79781065.033 1      1460.187          28.500  
G 7  20302904.891 1                       968.422          27.000                                                                  
G 8  22057958.893 1                     -2183.652          22.500                                                                  
G 9                                                                  24022705.727 1  94270166.78011     -1641.261          21.250  
G21  20556471.451 1 108025054.41311      -686.952          27.750                                                                  
G30  22635438.612 1                      2879.924          17.750    22635431.717 1                      2154.786          22.250  
J 2  37978332.747 1 199577579.011 1      1251.652          27.750                                                                  
J 3  39005901.376 1 204977427.652 1      -703.302          27.500    39005905.573 1 153067675.154 1      -524.671          36.000  
R 9  20497863.524 1                     -1317.580          24.500  
R10  19904799.094 1 106178583.883 1      1868.146          38.250  
R20  19934532.510 1 106598761.84811     -2401.375          27.250  
R21  20119982.926 1                      1959.981          23.500  
> 2021  5 18  3 10 39.9996235  0 13                     
G 1  20330062.491 1                      1953.793          30.250    20330064.289 1  79779605.629 1      1459.404          28.000  
G 7  20302721.418 1                       966.509          25.500                                                                  
G 8  22058377.703 1                     -2182.233          23.750                                                                  
G 9  24023133.531 1                     -2199.397          20.000                                                                  
G21  20556598.563 1 108025742.310 1      -687.897          30.500                                                                  
G22  24125732.703 1                      1940.388          15.250                                                                  
G30  22634893.589 1                      2887.037          19.500    22634878.899 1                      2161.400          20.500  
J 2  37978100.708 1 199576328.789 1      1250.223          27.000                                                                  
J 3  39006039.581 1 204978130.396 1      -702.744          29.750    39006036.583 1 153068199.797 1      -524.643          34.250  
R 9  20498135.136 1                     -1320.134          23.000  
R10  19904443.840 1 106176716.022 1      1867.861          39.000  
R20  19934988.495 1 106601163.407 1     -2401.559          27.500  
R21  20119643.261 1                      1960.157          21.750  
> 2021  5 18  3 10 40.9996236  0 13                     
G 1  20329721.027 1 106833402.66611      1953.736          31.250    20329721.327 1                      1458.749          27.000  
G 7  20302572.122 1 106690703.22011       964.438          26.500                                                                  
G 8  22058828.891 1                     -2184.401          22.750    22058813.301 1                     -1621.980          20.000  
G 9  24023577.523 1                     -2201.600          21.500    24023573.626 1                     -1640.387          19.000  
G21  20556761.350 1 108026588.649 1      -688.797          31.500                                                                  
G22  24125395.136 1                      1940.144          15.000                                                                  
G30  22634347.068 1                      2886.552          20.500    22634359.659 1                      2166.517          18.750  
J 2  37977884.857 1 199575235.865 1      1250.465          29.000    37977887.256 1                       933.700          26.500  
J 3  39006200.569 1                      -701.195          27.000    39006201.768 1 153068842.261 1      -524.819          34.250  
R 9  20498387.562 1                     -1319.198          24.250  
R10  19904120.364 1 106175008.721 1      1867.220          38.750  
R20  19935459.469 1                     -2402.996          27.750  
R21  20119297.600 1                      1956.231          23.500  
> 2021  5 18  3 10 41.9996236  0 12                     
G 1  20329352.582 1                      1954.590          30.000    20329351.982 1                      1457.989          26.500  
G 7  20302390.148 1                       962.566          26.000                                                                  
G 8  22059236.308 1                     -2184.142          22.500    22059224.017 1  86565091.45011     -1630.421          21.000  
G 9  24024001.130 1                     -2192.610          21.500    24023990.637 1                     -1644.790          20.500  
G21  20556890.561 1 108027277.586 1      -688.937          33.000                                                                  
G30  22633804.443 1                      2885.659          21.500    22633811.039 1                      2157.233          21.000  
J 2  37977643.824 1 199573985.185 1      1250.680          34.250                                                                  
J 3  39006330.679 1 204979692.33411      -702.389          28.750    39006336.675 1                      -525.470          36.000  
R 9  20498630.393 1                     -1317.308          23.750  
R10  19903769.907 1 106173141.412 1      1867.309          38.250  
R20  19935907.658 1                     -2403.090          27.000  
R21  20118945.644 1                      1952.616          22.250  
> 2021  5 18  3 10 42.9996237  0 12                     
G 1  20329010.219 1                      1954.690          29.500    20329010.219 1  79775465.18611      1458.093          27.000  
G 7  20302232.457 1 106688932.76711       963.893          26.500                                                                  
G 8  22059686.297 1                     -2182.793          24.250    22059671.008 1                     -1630.603          21.500  
G 9  24024450.219 1                     -2186.089          20.250    24024442.125 1  94276964.66811     -1641.919          23.500  
G21  20557050.950 1                      -688.729          32.000                                                                  
G30  22633282.804 1                      2883.811          17.750    22633289.999 1                      2150.043          22.750  
J 2                                                                  37977439.066 1 149031507.12611       934.033          30.750  
J 3  39006495.865 1 204980551.760 1      -701.884          28.500    39006498.863 1 153070008.57811      -524.259          34.250  
R 9  20498900.207 1                     -1317.737          26.000  
R10  19903451.227 1 106171434.161 1      1867.169          38.000  
R20  19936370.838 1                     -2402.784          25.500  
R21  20118586.792 1                      1949.770          23.000  
> 2021  5 18  3 10 43.9996237  0 12                     
G 1  20328638.776 1 106827702.88011      1951.483          30.250    20328634.579 1                      1457.468          25.750  
G 7  20302048.684 1                       962.128          25.500                                                                  
G 8  22060102.109 1                     -2181.538          23.750    22060090.717 1  86568469.39811     -1629.920          22.500  
G 9  24024858.537 1                     -2190.338          20.500    24024862.134 1                     -1641.269          21.750  
G21  20557185.856 1 108028814.68511      -690.607          31.500                                                                  
G30  22632750.973 1                      2885.320          20.250    22632739.580 1  88815720.99611      2155.989          22.750  
J 2  37977201.930 1 199571641.34511      1250.403          33.750    37977199.232 1 149030573.265 1       933.862          31.250  
J 3  39006628.673 1                      -704.780          26.000    39006636.168 1 153070532.944 1      -524.366          32.000  
R 9  20499151.133 1                     -1321.287          27.250  
R10  19903103.768 1 106169567.407 1      1866.754          37.500  
R20  19936835.816 1                     -2403.591          24.750  
R21  20118207.555 1                      1950.715          23.250  
> 2021  5 18  3 10 44.9996237  0 12                     
G 1  20328269.132 1 106825752.046 1      1950.834          28.000    20328267.633 1  79772551.17111      1456.724          25.750  
G 7  20301865.211 1                       964.023          25.750                                                                  
G 8  22060517.621 1                     -2187.149          21.750                                                                  
G 9  24025270.751 1                     -2196.713          19.750    24025273.149 1                     -1642.580          21.250  
G21  20557317.465 1 108029505.737 1      -691.052          30.250                                                                  
G30  22632189.161 1 118933040.90611      2886.412          26.250    22632194.258 1                      2154.818          22.750  
J 2  37976959.398 1 199570390.776 1      1250.569          33.500    37976959.998 1 149029639.350 1       933.914          31.250  
J 3  39006760.881 1                      -700.930          24.000    39006765.078 1                      -524.798          28.250  
R 9  20499390.667 1                     -1324.678          26.000  
R10  19902753.311 1 106167701.195 1      1866.213          37.750  
R20  19937284.005 1                     -2405.018          26.000  
R21  20117850.502 1                      1953.882          25.000  
> 2021  5 18  3 10 45.9996238  0 12                     
G 1  20327924.071 1 106823958.224 1      1951.364          27.250    20327923.471 1  79771211.492 1      1457.324          26.000  
G 7  20301716.514 1                       960.232          25.500                                                                  
G 8  22060966.711 1                     -2190.395          17.750                                                                  
G 9  24025732.731 1                     -2202.194          20.000    24025722.838 1                     -1656.201          18.250  
G21  20557473.657 1 108030354.956 1      -691.676          29.750                                                                  
G30  22631669.022 1 118930313.612 1      2884.836          27.000    22631670.521 1  88811528.89111      2154.099          26.750  
J 2  37976751.042 1 199569297.523 1      1250.795          35.250    37976750.443 1 149028822.819 1       934.176          31.000  
J 3  39006927.566 1                      -698.898          22.500    39006931.163 1 153071699.44311      -524.300          25.000  
R 9  20499688.061 1                     -1321.856          26.500  
R10  19902439.128 1 106165996.161 1      1864.952          36.000  
R20  19937771.468 1 106616064.73311     -2405.326          26.250  
R21  20117539.018 1                      1952.577          22.000  
> 2021  5 18  3 10 46.9996238  0 13                     
G 1  20327549.630 1 106822007.601 1      1950.623          29.250    20327551.729 1                      1456.381          25.750  
G 7  20301529.444 1                       961.433          25.500                                                                  
G 8  22061380.724 1                     -2189.527          19.750                                                                  
G 9  24026140.749 1                     -2195.913          20.250                                                                  
G21  20557607.964 1 108031046.665 1      -691.710          31.500                                                                  
G22  24123235.432 1                      1941.348          15.000                                                                  
G30  22631113.506 1 118927428.998 1      2884.614          28.250    22631122.800 1  88809374.744 1      2154.147          27.000  
J 2  37976511.508 1 199568046.398 1      1251.125          33.000    37976516.305 1 149027888.815 1       934.004          31.500  
J 3  39007069.967 1                      -699.693          23.250    39007065.770 1                      -525.966          22.000  
R 9  20499912.606 1                     -1324.185          24.750  
R10  19902082.675 1 106164131.353 1      1864.809          36.250  
R20  19938212.463 1 106618470.365 1     -2405.632          27.000  
R21  20117168.774 1                      1954.239          20.250  
> 2021  5 18  3 10 47.9996239  0 11                     
G 1  20327208.766 1                      1949.789          28.500    20327212.963 1  79768417.04011      1455.530          26.750  
G 7  20301384.044 1                       959.890          26.500                                                                  
G 9  24026594.934 1                     -2190.931          18.750                                                                  
G21  20557771.051 1 108031897.158 1      -692.951          32.000                                                                  
G30  22630596.664 1                      2887.292          25.750    22630602.960 1                      2154.377          24.750  
J 2  37976301.653 1 199566953.307 1      1250.633          32.000    37976307.649 1 149027072.445 1       934.015          31.000  
J 3  39007244.147 1                      -705.865          22.000                                                                  
R 9  20500188.715 1                     -1326.328          28.250  
R10  19901763.096 1 106162426.320 1      1864.952          36.750  
R20  19938697.227 1 106621036.331 1     -2405.653          25.750  
R21  20116809.323 1                      1953.836          19.500  
> 2021  5 18  3 10 48.9996239  0 12                     
G 1  20326844.219 1                      1948.569          28.500    20326842.420 1  79766962.105 1      1454.935          26.250  
G 7  20301199.672 1 106683478.88611       959.489          27.000                                                                  
G 8  22062242.028 1                     -2185.581          23.000    22062233.933 1                     -1630.967          19.500  
G 9  24027023.338 1                     -2190.638          16.750                                                                  
G21  20557905.658 1 108032590.821 1      -693.663          30.250                                                                  
G30  22630057.637 1                      2884.218          26.000    22630059.436 1                      2143.260          20.500  
J 2  37976061.819 1                      1254.395          28.000    37976074.411 1 149026138.464 1       933.981          27.500  
J 3  39007368.561 1                      -703.921          24.750    39007360.766 1 153073386.91611      -524.234          26.500  
R 9  20500438.142 1                     -1325.502          29.250  
R10  19901421.033 1 106160562.012 1      1864.308          37.000  
R20  19939147.815 1                     -2406.591          24.500  
R21  20116471.457 1                      1950.059          17.500  
> 2021  5 18  3 10 49.9996240  0 12                     
G 1  20326505.453 1 106816471.80011      1948.274          29.750    20326500.357 1  79765624.771 1      1454.979          26.500  
G 7  20301048.577 1 106682677.685 1       958.743          27.500                                                                  
G 8  22062684.521 1                     -2189.724          25.500    22062677.626 1                     -1632.316          23.000  
G 9  24027467.630 1                     -2194.188          18.000                                                                  
G21  20558062.150 1                      -695.011          27.000                                                                  
G30  22629543.193 1                      2881.182          24.750    22629541.095 1                      2155.801          21.500  
J 2  37975863.956 1                      1251.311          23.750                                                                  
J 3  39007532.247 1                      -703.436          21.750    39007528.350 1 153074028.946 1      -524.385          27.000  
R 9  20500727.142 1 109472845.02911     -1326.394          32.750  
R10  19901102.054 1 106158858.410 1      1863.520          36.250  
R20  19939632.879 1                     -2410.119          23.750  
R21  20116124.597 1                      1947.776          18.000  
> 2021  5 18  3 10 50.9996240  0 12                     
G 1  20326128.314 1 106814523.410 1      1948.390          27.750    20326130.713 1  79764169.824 1      1454.947          27.250  
G 7  20300860.007 1 106681719.502 1       958.183          26.750                                                                  
G 8  22063087.742 1                     -2186.052          25.000                                                                  
G 9  24027884.342 1                     -2201.384          16.500                                                                  
G21  20558198.255 1                      -695.230          27.250                                                                  
G30  22628996.372 1                      2880.013          22.750                                                                  
J 2  37975623.523 1                      1250.820          24.250    37975627.120 1                       934.280          25.250  
J 3  39007653.963 1                      -702.672          22.750    39007658.460 1                      -524.525          24.250  
R 9  20500960.680 1                     -1329.235          30.500  
R10  19900756.693 1 106156995.689 1      1862.721          37.750  
R20  19940066.379 1                     -2408.720          24.500  
R21  20115753.753 1                      1948.725          16.250  
> 2021  5 18  3 10 51.9996241  0 11                     
G 1  20325790.748 1 106812734.173 1      1946.779          28.750    20325791.347 1  79762833.742 1      1453.728          28.000  
G 7  20300708.012 1 106680919.463 1       957.581          26.250                                                                  
G 8  22063538.630 1                     -2186.347          26.500    22063540.429 1  86582013.54011     -1635.475          27.250  
G21  20558363.141 1                      -695.311          26.250                                                                  
G30  22628476.831 1                      2885.076          22.250                                                                  
J 2  37975409.471 1                      1251.509          24.000    37975418.765 1 149023571.09811       935.441          23.500  
J 3  39007817.650 1                      -705.884          22.500    39007825.744 1 153075195.38611      -524.297          23.750  
R 9  20501243.385 1 109475659.34911     -1327.970          32.250  
R10  19900427.221 1 106155293.110 1      1862.498          36.750  
R20  19940548.446 1                     -2409.640          23.250  
R21  20115410.791 1                      1954.634          18.000  
> 2021  5 18  3 10 52.9996241  0 11                     
G 1  20325419.605 1 106810787.830 1      1946.344          29.500    20325420.804 1                      1452.577          26.750  
G 7  20300527.837 1                       957.911          27.500                                                                  
G 8  22063955.641 1                     -2187.175          23.500    22063958.040 1  86583649.113 1     -1635.572          25.250  
G 9  24028787.317 1                     -2192.889          17.750                                                                  
G21  20558496.549 1                      -696.267          28.250                                                                  
G30  22627921.016 1                      2887.498          22.500    22627921.316 1                      2153.230          25.750  
J 2  37975183.128 1 199561007.49411      1252.420          26.250    37975185.226 1                       932.400          20.250  
J 3  39007954.355 1                      -704.557          25.250    39007956.154 1                      -524.213          23.000  
R10  19900077.363 1 106153430.961 1      1862.149          35.000  
R20  19940988.241 1                     -2409.598          23.250  
R21  20115090.613 1                      1954.558          18.250  
> 2021  5 18  3 10 53.9996242  0 11                     
G 1  20325081.139 1                      1947.069          28.000    20325081.439 1  79760044.53911      1453.323          27.750  
G 7  20300371.645 1                       956.865          27.750                                                                  
G 8  22064409.527 1                     -2190.101          20.250    22064407.728 1                     -1635.673          22.750  
G21  20558654.540 1 108036537.69611      -696.319          27.500                                                                  
G30  22627397.579 1                      2880.226          24.000    22627403.275 1  88794775.38311      2152.575          22.500  
J 2  37974972.973 1                      1251.036          25.250    37974979.269 1                       937.388          17.750  
J 3  39008117.442 1 204989082.49711      -701.690          26.500    39008121.040 1 153076361.61511      -524.367          23.500  
R 9  20501770.719 1                     -1327.593          27.000  
R10  19899755.986 1 106151729.026 1      1861.853          34.750  
R20  19941462.813 1 106635966.56111     -2409.609          25.750  
R21  20114763.539 1                      1945.555          17.750  
> 2021  5 18  3 10 54.9996242  0 11                     
G 1  20324711.195 1 106807047.83411      1945.687          26.500    20324707.298 1  79758591.912 1      1452.626          26.500  
G 7  20300193.568 1                       956.160          28.000                                                                  
G 8  22064832.534 1                     -2190.776          19.250    22064826.239 1  86587038.20411     -1635.791          20.750  
G21  20558791.545 1 108037233.857 1      -696.161          26.000                                                                  
G30  22626856.153 1                      2882.685          25.750                                                                  
J 2  37974735.238 1                      1250.386          27.000                                                                  
J 3  39008254.447 1                      -699.468          25.250    39008252.349 1 153076885.622 1      -524.007          29.250  
R 9  20502014.151 1                     -1327.190          24.750  
R10  19899413.323 1 106149867.649 1      1861.378          37.250  
R20  19941916.099 1 106638376.861 1     -2410.300          26.500  
R21  20114360.618 1                      1937.857          19.500  
> 2021  5 18  3 10 55.9996242  0 11                     
G 1  20324337.354 1 106805101.996 1      1945.837          26.000    20324337.054 1  79757139.834 1      1452.078          26.250  
G 7  20300010.095 1                       955.915          25.500                                                                  
G 8  22065241.751 1                     -2189.827          21.000    22065242.950 1                     -1632.655          19.250  
G21  20558926.751 1                      -700.832          25.250                                                                  
G30  22626315.927 1                      2881.438          21.750    22626302.137 1                      2151.347          22.750  
J 2  37974498.402 1                      1251.321          22.750                                                                  
J 3  39008394.151 1                      -701.902          22.750    39008388.155 1 153077409.655 1      -524.032          29.750  
R 9  20502271.373 1                     -1325.613          24.750  
R10  19899067.362 1 106148006.952 1      1860.697          36.250  
R20  19942375.980 1                     -2411.637          24.750  
R21  20114020.653 1                      1942.836          18.500  
> 2021  5 18  3 10 56.9996243  0 11                     
G 1  20323993.492 1 106803313.985 1      1945.553          26.500    20323996.190 1  79755805.448 1      1452.032          25.000  
G 7  20299860.799 1 106676463.06611       954.139          26.250                                                                  
G 8  22065692.639 1                     -2192.164          21.250                                                                  
G21  20559087.140 1 108038788.06911      -698.471          27.500                                                                  
G30  22625791.291 1                      2885.751          21.000    22625781.397 1                      2150.686          19.500  
J 2  37974291.245 1                      1251.278          22.250    37974289.746 1                       932.840          23.500  
J 3  39008556.039 1 204991346.86011      -702.949          25.000    39008551.542 1 153078051.960 1      -524.660          27.250  
R 9  20502576.861 1                     -1332.898          23.500  
R10  19898738.790 1 106146307.274 1      1859.597          36.500  
R20  19942855.349 1                     -2411.486          26.000  
R21  20113686.984 1                      1937.186          20.250  
> 2021  5 18  3 10 57.9996244  0 11                     
G 1  20323657.125 1                      1944.654          26.750    20323659.523 1  79754471.203 1      1451.890          27.500  
G 7  20299705.806 1 106675667.074 1       953.535          28.250                                                                  
G 8  22066133.034 1                     -2187.495          21.000                                                                  
G21  20559256.523 1 108039644.495 1      -698.884          25.750                                                                  
G30  22625268.153 1                      2883.265          19.750                                                                  
J 2  37974081.990 1                      1251.726          22.750    37974080.191 1 149018322.41911       933.901          25.500  
J 3  39008714.329 1                      -705.242          24.000    39008715.528 1 153078693.871 1      -524.266          26.250  
R 9  20502836.482 1                     -1333.627          24.500  
R10  19898424.008 1 106144608.039 1      1859.153          37.000  
R20  19943354.803 1 106645933.29211     -2412.737          25.500  
R21  20113345.221 1                      1942.622          20.500  
> 2021  5 18  3 10 58.9996244  0 11                     
G 1  20323291.678 1 106799582.89211      1943.738          27.250    20323288.680 1                      1452.299          27.500  
G 7  20299524.132 1 106674714.029 1       953.045          28.500                                                                  
G 8  22066538.353 1                     -2187.625          17.250                                                                  
G21  20559387.532 1                      -701.736          23.250                                                                  
G30  22624715.036 1                      2878.478          18.250                                                                  
J 2  37973850.251 1                      1253.669          24.500    37973843.355 1                       934.871          24.000  
J 3  39008840.242 1                      -700.308          21.750    39008847.137 1 153079218.164 1      -524.293          26.000  
R 9  20503081.412 1                     -1330.119          24.250  
R10  19898083.144 1 106142749.423 1      1858.616          37.000  
R20  19943821.879 1                     -2412.762          25.250  
R21  20112995.963 1                      1944.077          17.500  
> 2021  5 18  3 10 59.9996244  0 11                     
G 1  20322916.638 1                      1944.965          27.000    20322916.338 1  79751568.00011      1451.567          26.000  
G 7  20299343.057 1 106673761.954 1       952.075          28.250                                                                  
G 8  22066963.759 1                     -2183.506          15.000                                                                  
G21  20559520.940 1                      -704.152          19.750                                                                  
G30  22624184.703 1                      2874.357          19.500                                                                  
J 2  37973612.815 1 199552734.20311      1251.238          24.000    37973601.723 1                       937.259          22.250  
J 3  39008983.243 1                      -702.279          26.500    39008977.547 1                      -525.265          24.000  
R 9  20503336.236 1                     -1331.182          24.500  
R10  19897727.890 1 106140892.025 1      1857.398          36.000  
R20  19944267.671 1                     -2415.803          24.000  
R21  20112568.758 1                      1941.558          19.250  
> 2021  5 18  3 11  0.9996245  0 11                     
G 1  20322580.870 1 106795853.24911      1943.240          26.750    20322578.771 1  79750235.034 1      1450.611          27.250  
G 7  20299193.761 1 106672967.747 1       951.748          28.500                                                                  
G 8  22067404.154 1                     -2183.647          15.000                                                                  
G21  20559682.228 1                      -703.208          25.750                                                                  
G30  22623653.171 1 118888165.39611      2878.476          25.250    22623649.573 1  88780060.49811      2149.328          20.250  
J 2  37973393.966 1 199551640.936 1      1250.809          26.500    37973392.767 1                       921.552          18.750  
J 3  39009144.231 1                      -705.862          21.750    39009149.028 1                      -522.827          22.250  
R 9  20503602.751 1                     -1334.101          24.750  
R10  19897411.309 1 106139194.856 1      1857.088          35.500  
R20  19944734.747 1 106653337.10711     -2415.256          25.000  
R21  20112304.042 1                      1940.518          20.500  
> 2021  5 18  3 11  1.9996245  0 10                     
G 1  20322215.423 1                      1943.518          27.250    20322210.626 1  79748785.257 1      1449.777          26.500  
G 7  20299014.185 1 106672016.970 1       950.778          28.250                                                                  
G21  20559815.936 1 108042600.73411      -701.847          27.000                                                                  
G30  22623106.949 1 118885286.840 1      2878.555          24.000    22623108.448 1  88777911.202 1      2149.297          25.750  
J 2  37973160.428 1                      1253.245          24.750                                                                  
J 3  39009274.042 1                      -703.642          23.500    39009279.138 1                      -523.970          26.000  
R 9  20503855.776 1 109489597.71411     -1330.990          26.000  
R10  19897067.447 1 106137337.659 1      1857.197          35.000  
R20  19945188.633 1                     -2412.176          25.500  
R21  20111947.888 1                      1939.103          20.000  
> 2021  5 18  3 11  2.9996246  0 10                     
G 1  20321871.561 1                      1942.407          28.000    20321870.662 1                      1447.556          26.750  
G 7  20298863.089 1                       951.083          28.250                                                                  
G21  20559975.125 1 108043460.019 1      -701.744          30.250                                                                  
G30  22622590.706 1                      2881.071          22.250    22622590.407 1                      2150.306          24.750  
J 2  37972951.173 1                      1253.220          23.000                                                                  
J 3  39009442.825 1                      -701.102          25.750    39009437.428 1                      -523.406          23.250  
R 9  20504137.581 1                     -1331.804          26.000  
R10  19896746.669 1 106135639.386 1      1858.191          35.250  
R20  19945669.500 1                     -2414.624          25.500  
R21  20111574.347 1                      1941.541          20.250  
> 2021  5 18  3 11  3.9996246  0 11                     
G 1  20321503.116 1                      1938.692          28.000    20321501.018 1  79746005.55511      1448.233          28.250  
G 7  20298680.216 1 106670273.89411       950.123          26.500                                                                  
G 8  22068741.228 1                     -2193.501          13.750                                                                  
G21  20560109.133 1 108044162.338 1      -702.318          29.500                                                                  
G30  22622039.688 1                      2872.484          21.750    22622042.986 1  88773728.16711      2149.609          25.000  
J 2  37972708.641 1 199548044.74811      1250.334          27.000    37972711.639 1 149012955.50811       933.676          26.000  
J 3  39009571.735 1 204996732.21811      -701.652          26.750    39009569.937 1                      -520.742          19.750  
R 9  20504399.899 1                     -1334.127          27.250  
R10  19896397.111 1 106133781.692 1      1857.695          37.000  
R20  19946135.678 1                     -2416.160          25.750  
R21  20111224.789 1                      1943.626          19.250  
> 2021  5 18  3 11  4.9996247  0 11                     
G 1  20321174.244 1                      1937.455          26.250    20321163.451 1  79744675.177 1      1448.023          29.500  
G 7  20298527.622 1                       944.312          24.500                                                                  
G 8  22069160.038 1                     -2195.301          13.750                                                                  
G21  20560271.320 1 108045023.421 1      -703.541          28.500                                                                  
G30  22621532.139 1                      2863.870          20.000    22621528.841 1                      2146.786          24.000  
J 2  37972511.977 1                      1247.971          24.000    37972495.189 1                       932.967          22.750  
J 3  39009733.923 1                      -700.528          24.000    39009741.718 1                      -526.876          19.250  
R 9  20504688.300 1                     -1336.241          27.500  
R10  19896076.933 1 106132085.404 1      1856.207          38.000  
R20  19946610.549 1                     -2414.320          24.750  
R21  20110896.816 1                      1936.651          20.500  
> 2021  5 18  3 11  5.9996247  0 10                     
G 1  20320799.503 1                      1940.509          25.000    20320793.507 1  79743227.328 1      1447.848          29.000  
G 7  20298351.044 1                       944.641          21.250                                                                  
G21  20560406.227 1                      -703.900          27.250                                                                  
G30  22620971.227 1                      2877.243          24.000    22620982.020 1                      2147.534          20.250  
J 2  37972270.344 1                      1243.390          21.500    37972264.348 1                       933.208          23.750  
J 3  39009870.629 1                      -704.472          23.500                                                                  
R 9  20504933.530 1                     -1338.120          26.000  
R10  19895730.372 1 106130229.453 1      1855.951          37.500  
R20  19947053.342 1                     -2417.750          25.250  
R21  20110507.685 1                      1936.481          21.000  
> 2021  5 18  3 11  6.9996248  0 10                     
G 1  20320459.838 1                      1940.231          25.000    20320456.241 1  79741897.682 1      1447.292          29.500  
G 7  20298203.846 1                       947.731          21.500                                                                  
G21  20560569.314 1                      -700.641          25.250                                                                  
G30  22620452.886 1 118871368.19011      2878.427          25.250    22620457.383 1                      2149.613          21.250  
J 2  37972069.783 1                      1243.986          21.750    37972066.785 1                       933.245          21.750  
J 3  39010041.510 1                      -701.502          22.500    39010035.814 1                      -526.654          20.000  
R 9  20505205.741 1                     -1334.013          26.000  
R10  19895404.798 1 106128533.436 1      1855.936          36.750  
R20  19947520.119 1                     -2417.956          26.250  
R21  20110208.193 1                      1937.687          19.500  
