     3.03           OBSERVATION DATA    M: Mixed            RINEX VERSION / TYPE
RTKCONV demo5 b33c                      20210520 081344 UTC PGM / RUN BY / DATE 
log: C:\Users\Ivan_PolyU_Dktp\Dropbox\HUAWEI Exp\20210518_  COMMENT             
format: RINEX                                               COMMENT             
                                                            MARKER NAME         
                                                            MARKER NUMBER       
                                                            MARKER TYPE         
                                                            OBSERVER / AGENCY   
                                                            REC # / TYPE / VERS 
                                                            ANT # / TYPE        
 -2419217.8117  5385470.0308  2405342.5829                  APPROX POSITION XYZ 
        0.0000        0.0000        0.0000                  ANTENNA: DELTA H/E/N
G    4 C1C L1C D1C S1C                                      SYS / # / OBS TYPES 
C    4 C2I L2I D2I S2I                                      SYS / # / OBS TYPES 
  2021     5    18     3     7   15.0010000     GPS         TIME OF FIRST OBS   
  2021     5    18     4     3    3.9930000     GPS         TIME OF LAST OBS    
G                                                           SYS / PHASE SHIFT   
C                                                           SYS / PHASE SHIFT   
  0                                                         GLONASS SLOT / FRQ #
 C1C    0.000 C1P    0.000 C2C    0.000 C2P    0.000        GLONASS COD/PHS/BIS 
                                                            END OF HEADER       
> 2021  5 18  3  7 15.0010000  0 14                     
G 7  20591279.121 1 108207889.674 1       206.625          41.000  
C28  22406016.484 8 116673953.641 3     -2364.773          32.000  
G21  20780675.530 4 109203148.34622     -1444.467          33.000  
C23  23337183.311 9                     -2435.294          20.000  
G 8  22221884.459 9                     -3060.680          25.000  
C27  22504648.369 8                       420.957          25.000  
C 3  36710202.628 1 191159624.02121      -767.963          39.000  
C 1  37653692.624 9                      -791.078          29.000  
G 1  20657069.059 1 108553614.373 1      1195.116          39.000  
C16  39063069.407 4 203411611.24624     -2465.812          27.000  
C 8  38067172.558 9                       754.025          24.000  
G30  22997337.976 9                      2070.125          19.000  
C13  38849865.046 4 202301402.92712       757.716          34.000  
C10  37524135.751 1 195397979.519 1      -530.612          39.000  
> 2021  5 18  3  7 16.0010000  0 14                     
G 7  20591239.989 1 108207683.649 1       205.719          41.000  
C28  22406470.826 8 116676317.713 3     -2364.280          31.000  
G21  20780949.699 4 109204592.95222     -1444.623          32.000  
C23  23337654.746 9                     -2441.958          22.000  
G 8  22222466.040 9                     -3061.417          26.000  
C27  22504568.665 9                       420.620          25.000  
C 3  36710350.021 2 191160394.49431      -767.181          39.000  
C 1  37653846.221 9                      -800.537          29.000  
G 1  20656841.962 1 108552419.789 1      1194.044          39.000  
C16  39063541.836 4 203414077.37424     -2466.293          27.000  
C 8  38067029.301 9                       753.297          25.000  
G30  22996943.505 9                      2074.502          18.000  
C13  38849719.729 4 202300644.836 2       757.809          34.000  
C10  37524237.669 1 195398509.966 1      -530.299          39.000  
> 2021  5 18  3  7 17.0010000  0 14                     
G 7  20591201.101 1 108207478.311 1       205.337          41.000  
C28  22406922.543 8 116678682.205 3     -2364.283          31.000  
G21  20781224.584 8 109206038.38323     -1445.200          32.000  
C23  23338124.837 9                     -2441.879          22.000  
G 8  22223049.619 9                     -3061.545          26.000  
C27  22504487.853 9                       419.839          24.000  
C 3  36710497.519 2 191161162.11921      -767.418          38.000  
C 1  37654004.276 9                      -800.075          29.000  
G 1  20656614.821 1 108551225.844 1      1194.167          39.000  
C16  39064013.908 4 203416543.58024     -2465.820          27.000  
C 8  38066884.298 9                       751.676          25.000  
G30  22996549.000 9                      2068.601          19.000  
C13  38849575.032 4 202299886.889 2       758.672          34.000  
C10  37524339.456 1 195399040.427 1      -529.968          39.000  
> 2021  5 18  3  7 18.0010000  0 14                     
G 7  20591162.283 1 108207273.575 1       204.172          40.000  
C28  22407379.241 8 116681046.946 3     -2364.644          31.000  
G21  20781499.346 8 109207484.35423     -1446.274          32.000  
C23  23338591.954 9                     -2441.641          23.000  
G 8  22223630.336 9                     -3062.202          26.000  
C27  22504409.894 9                       420.848          22.000  
C 3  36710645.113 1 191161929.70221      -767.588          38.000  
C 1  37654152.978 9                      -797.900          29.000  
G 1  20656387.820 2 108550032.480 1      1193.844          39.000  
C16  39064487.132 4 203419009.81224     -2466.374          27.000  
C 8  38066738.249 9                       751.875          24.000  
G30  22996155.384 9                      2064.888          19.000  
C13  38849431.242 4 202299129.026 2       757.772          33.000  
C10  37524441.104 2 195399570.799 1      -530.544          38.000  
> 2021  5 18  3  7 19.0010000  0 14                     
G 7  20591123.247 2 108207069.241 1       204.510          40.000  
C28  22407830.504 8 116683411.888 4     -2365.160          29.000  
G21  20781772.015 8 109208930.36713     -1447.117          31.000  
C23  23339062.944 9                     -2433.856          22.000  
G 8  22224213.400 9                     -3060.427          25.000  
C27  22504329.562 9                       427.651          21.000  
C 3  36710792.445 2 191162697.08921      -766.714          37.000  
C 1  37654308.948 9                      -800.781          28.000  
G 1  20656160.618 2 108548839.555 1      1192.832          40.000  
C16  39064960.740 4 203421475.78124     -2466.157          25.000  
C 8  38066595.898 9                       752.742          23.000  
G30  22995760.136 9                      2072.712          19.000  
C13  38849285.410 8 202298370.943 3       758.573          32.000  
C10  37524542.987 2 195400100.877 1      -529.701          37.000  
> 2021  5 18  3  7 20.0010000  0 14                     
G 7  20591084.429 1 108206865.190 1       203.830          40.000  
C28  22408283.598 4 116685776.674 3     -2365.366          29.000  
G21  20782045.311 8 109210377.031 3     -1446.511          31.000  
C23  23339533.218 9                     -2438.084          23.000  
G 8  22224795.591 9                     -3060.489          25.000  
C27  22504248.672 9                       425.672          20.000  
C 3  36710939.672 2 191163464.14821      -767.173          37.000  
C 1  37654459.919 9                      -796.567          28.000  
G 1  20655933.783 2 108547646.858 1      1192.538          38.000  
C16  39065436.049 4 203423941.39324     -2465.742          26.000  
C 8  38066449.744 9                       762.411          22.000  
G30  22995368.815 9                      2072.179          19.000  
C13  38849136.839 8 202297612.590 3       758.397          32.000  
C10  37524644.704 2 195400630.528 1      -529.630          37.000  
> 2021  5 18  3  7 21.0010000  0 14                     
G 7  20591045.951 1 108206661.822 1       202.899          40.000  
C28  22408736.475 8 116688141.899 3     -2365.406          30.000  
G21  20782323.756 4 109211824.499 2     -1448.358          31.000  
C23  23340003.676 9                     -2435.601          24.000  
G 8  22225375.663 9                     -3061.268          26.000  
C27  22504170.861 9                       415.691          19.000  
C 3  36711086.996 2 191164231.25221      -767.222          38.000  
C 1  37654614.903 9                      -788.086          28.000  
G 1  20655706.869 1 108546454.831 1      1191.537          38.000  
C16  39065909.351 8                     -2465.866          26.000  
C 8  38066303.066 9                       759.485          23.000  
G30  22994974.885 9                      2067.132          19.000  
C13  38848991.784 4 202296854.332 2       758.065          32.000  
C10  37524746.221 2 195401160.158 1      -529.741          38.000  
> 2021  5 18  3  7 22.0010000  0 14                     
G 7  20591007.491 1 108206459.481 1       201.830          40.000  
C28  22409188.977 4 116690507.854 3     -2366.259          29.000  
G21  20782599.268 8 109213272.935 3     -1449.214          31.000  
C23  23340474.352 9                     -2440.888          25.000  
G 8  22225958.779 9                     -3060.399          26.000  
C27  22504089.875 9                       425.879          18.000  
C 3  36711234.485 2 191164998.24611      -767.461          38.000  
C 1  37654767.444 9                      -797.363          28.000  
G 1  20655480.103 1 108545263.818 1      1190.696          38.000  
C16  39066383.744 8                     -2466.671          26.000  
C 8  38066159.163 9                       750.101          24.000  
G30  22994582.316 9                      2061.196          19.000  
C13  38848846.302 8 202296096.569 2       756.647          32.000  
C10  37524848.156 1 195401690.078 1      -529.481          38.000  
> 2021  5 18  3  7 23.0010000  0 15                     
G 7  20590969.100 1 108206257.754 1       201.496          40.000  
C28  22409643.014 4 116692874.021 3     -2366.143          29.000  
G21  20782875.418 8 109214722.037 4     -1449.631          31.000  
C23  23340944.191 9                     -2440.020          25.000  
G 8  22226541.259 9                     -3062.568          26.000  
C27  22504007.492 9                       425.879          16.000  
C 3  36711382.096 1 191165765.752 1      -767.367          38.000  
C 1  37654920.744 9                      -806.738          28.000  
G 1  20655253.434 1 108544073.353 1      1190.413          39.000  
C16  39066856.645 4 203431339.22425     -2465.248          26.000  
C 8  38066016.106 9                       752.714          25.000  
G30  22994189.425 9                      2066.436          20.000  
C13  38848697.993 8 202295338.744 3       758.023          33.000  
C10  37524949.970 2 195402219.964 1      -529.936          38.000  
C25  27526928.650 9                     -3644.009          11.000  
> 2021  5 18  3  7 24.0010000  0 14                     
G 7  20590930.596 1 108206056.706 1       200.416          43.000  
C28  22410096.449 4 116695240.619 3     -2366.880          29.000  
G21  20783154.246 4 109216171.862 2     -1450.472          35.000  
C23  23341415.399 9                     -2440.746          25.000  
G 8  22227125.606 9                     -3061.281          28.000  
C27  22503926.331 9                       425.879          13.000  
C 3  36711529.560 1 191166533.330 1      -767.573          38.000  
C 1  37655073.626 9                      -791.943          28.000  
G 1  20655027.096 1 108542883.615 1      1189.244          42.000  
C16  39067331.430 8                     -2466.343          25.000  
C 8  38065871.479 9                       753.557          25.000  
G30  22993793.820 9                      2066.797          21.000  
C13  38848554.726 4 202294581.017 2       757.915          32.000  
C10  37525051.853 1 195402749.833 1      -530.313          38.000  
> 2021  5 18  3  7 25.0010000  0 14                     
G 7  20590892.529 1 108205856.280 1       199.998          43.000  
C28  22410551.882 4 116697607.558 3     -2367.230          29.000  
G21  20783431.111 4 109217622.284 2     -1450.134          35.000  
C23  23341885.298 9                     -2442.553          25.000  
G 8  22227710.231 8 116807394.58535     -3062.140          30.000  
C27  22503844.551 9                       425.879          10.000  
C 3  36711677.066 2 191167304.43731      -768.124          38.000  
C 1  37655226.333 9                      -799.167          29.000  
G 1  20654800.644 1 108541694.454 1      1189.213          42.000  
C16  39067803.799 8                     -2466.921          25.000  
C 8  38065726.284 9                       753.169          25.000  
G30  22993400.221 9                      2068.578          22.000  
C13  38848409.209 4 202293823.452 2       757.883          33.000  
C10  37525153.666 1 195403279.608 1      -530.187          38.000  
> 2021  5 18  3  7 26.0010000  0 14                     
G 7  20590854.435 1 108205656.548 1       199.655          43.000  
C28  22411005.213 8 116699974.893 4     -2368.796          29.000  
G21  20783707.156 4 109219073.467 2     -1452.029          35.000  
C23  23342356.254 9                     -2443.185          25.000  
G 8  22228294.884 8 116810456.16324     -3061.202          30.000  
C27  22503762.151 9                       425.879          11.000  
C 3  36711824.582 2 191168072.10421      -767.988          38.000  
C 1  37655379.633 9 196081410.66535      -797.025          28.000  
G 1  20654574.350 1 108540505.958 1      1188.342          42.000  
C16  39068276.656 4 203438737.84925     -2466.721          25.000  
C 8  38065581.535 9                       753.618          25.000  
G30  22993005.995 9                      2066.073          22.000  
C13  38848263.342 4 202293065.924 2       758.135          32.000  
C10  37525255.558 1 195403809.336 1      -529.519          38.000  
> 2021  5 18  3  7 27.0010000  0 14                     
G 7  20590816.358 1 108205457.405 1       199.206          42.000  
C28  22411457.121 4 116702342.371 3     -2367.569          28.000  
G21  20783980.846 4 109220525.216 2     -1451.547          34.000  
C23  23342825.062 9                     -2443.115          25.000  
G 8  22228873.978 8 116813517.83324     -3061.457          29.000  
C27  22503679.707 9                       425.879          11.000  
C 3  36711971.931 2 191168839.73431      -767.366          38.000  
C 1  37655532.776 9                      -798.877          28.000  
G 1  20654348.064 1 108539318.036 1      1187.936          42.000  
C16  39068752.585 4 203441204.08325     -2466.832          25.000  
C 8  38065437.928 9                       753.969          25.000  
G30  22992612.614 9                      2058.952          22.000  
C13  38848119.055 4 202292308.447 3       757.373          32.000  
C10  37525357.598 1 195404338.976 1      -529.198          38.000  
> 2021  5 18  3  7 28.0010000  0 14                     
G 7  20590778.369 1 108205258.700 1       198.108          42.000  
C28  22411915.748 4 116704710.107 3     -2368.419          28.000  
G21  20784257.955 4 109221977.419 2     -1452.303          34.000  
C23  23343291.934 9                     -2441.917          24.000  
G 8  22229458.752 4 116816579.29823     -3061.481          29.000  
C27  22503597.307 9                       425.879          12.000  
C 3  36712119.290 2 191169607.17921      -768.030          38.000  
C 1  37655684.933 9                      -797.412          28.000  
G 1  20654121.953 1 108538130.524 1      1187.064          42.000  
C16  39069225.049 9                     -2465.184          25.000  
C 8  38065292.742 9                       750.820          25.000  
G30  22992217.821 9                      2064.282          23.000  
C13  38847971.392 4 202291550.840 2       757.123          32.000  
C10  37525459.193 1 195404868.373 1      -529.605          38.000  
> 2021  5 18  3  7 29.0010000  0 14                     
G 7  20590740.581 1 108205060.434 1       197.925          43.000  
C28  22412369.131 4 116707077.865 3     -2367.630          28.000  
G21  20784535.815 4 109223430.092 2     -1453.384          34.000  
C23  23343763.169 9                     -2443.317          24.000  
G 8  22230041.511 4 116819640.72223     -3061.406          29.000  
C27  22503515.841 9                       432.244          14.000  
C 3  36712266.535 1 191170374.47121      -767.911          40.000  
C 1  37655837.963 9                      -802.930          28.000  
G 1  20653895.798 1 108536943.431 1      1186.830          42.000  
C16  39069698.378 9                     -2465.639          25.000  
C 8  38065149.118 9                       752.313          26.000  
G30  22991823.332 9                      2059.316          24.000  
C13  38847825.159 4 202290793.056 2       757.816          33.000  
C10  37525560.858 1 195405397.509 1      -528.954          40.000  
> 2021  5 18  3  7 30.0010000  0 15                     
G 7  20590702.967 1 108204862.877 1       197.445          42.000  
C28  22412823.438 8 116709446.103 3     -2368.367          30.000  
G21  20784812.261 4 109224883.494 1     -1453.773          34.000  
C23  23344233.051 9                     -2444.403          25.000  
G 8  22230621.905 4 116822702.29124     -3061.656          28.000  
C27  22503432.481 9                       418.866          16.000  
C 3  36712413.841 1 191171141.85121      -767.684          40.000  
C 1  37655991.516 9                      -797.363          30.000  
G 1  20653670.019 1 108535757.037 1      1186.258          42.000  
C16  39070172.422 9                     -2466.508          26.000  
C 8  38065004.247 8 198214434.65035       753.357          27.000  
G30  22991427.631 9                      2061.161          23.000  
C13  38847680.209 4 202290035.443 2       757.100          34.000  
G 4  25112937.460 9                     -3385.036          13.000  
C10  37525662.602 1 195405926.658 1      -529.308          40.000  
> 2021  5 18  3  7 31.0010000  0 15                     
G 7  20590665.458 1 108204665.791 1       196.577          42.000  
C28  22413277.231 8 116711814.368 3     -2367.715          29.000  
G21  20785089.397 4 109226337.363 2     -1454.234          34.000  
C23  23344701.964 9                     -2443.194          24.000  
G 8  22231205.964 4 116825763.737 3     -3061.925          28.000  
C27  22503353.693 9                       410.632          18.000  
C 3  36712561.365 1 191171909.02221      -767.134          38.000  
C 1  37656143.464 9                      -807.764          29.000  
G 1  20653444.160 1 108534571.065 1      1185.646          41.000  
C16  39070645.645 8 203451074.95135     -2465.259          26.000  
C 8  38064859.706 8 198213681.80025       752.664          26.000  
G30  22991033.946 9                      2060.932          23.000  
C13  38847536.009 4 202289277.706 2       757.443          33.000  
G 4  25113582.150 9                     -3385.036          13.000  
C10  37525764.144 1 195406455.518 1      -528.427          39.000  
> 2021  5 18  3  7 32.0010000  0 15                     
G 7  20590628.297 1 108204469.740 1       195.490          41.000  
C28  22413730.902 4 116714183.542 3     -2369.628          29.000  
G21  20785366.271 2 109227792.377 2     -1455.935          34.000  
C23  23345171.925 9                     -2437.043          24.000  
G 8  22231787.021 4 116828825.647 4     -3062.418          28.000  
C27  22503273.239 9                       409.388          19.000  
C 3  36712708.732 1 191172676.66821      -767.913          40.000  
C 1  37656296.520 9                      -796.973          29.000  
G 1  20653218.590 1 108533386.141 1      1184.337          41.000  
C16  39071119.925 8 203453541.19925     -2466.516          26.000  
C 8  38064714.372 4 198212929.31124       752.979          26.000  
G30  22990641.822 9                      2064.430          24.000  
C13  38847390.256 4 202288520.431 2       757.117          34.000  
G 4  25114227.843 9                     -3385.036          12.000  
C10  37525865.774 1 195406984.828 1      -529.666          40.000  
> 2021  5 18  3  7 33.0010000  0 14                     
G 7  20590590.919 1 108204274.283 1       195.333          42.000  
C28  22414186.082 4 116716552.909 3     -2369.401          28.000  
G21  20785643.276 2 109229247.898 1     -1455.731          35.000  
C23  23345642.575 9                     -2444.511          24.000  
G 8  22232370.574 4 116831887.593 3     -3061.840          27.000  
C27  22503194.190 9                       412.781          21.000  
C 3  36712856.369 1 191173443.78911      -767.515          40.000  
C 1  37656449.942 9                      -801.074          29.000  
G 1  20652993.142 1 108532201.799 1      1183.870          42.000  
C16  39071593.384 8 203456007.30925     -2466.118          27.000  
C 8  38064569.989 4 198212177.12725       752.781          27.000  
G30  22990249.715 9                      2060.924          23.000  
C13  38847245.724 4 202287763.189 2       757.250          34.000  
C10  37525967.309 1 195407513.947 1      -528.893          40.000  
> 2021  5 18  3  7 34.0010000  0 15                     
G 7  20590553.715 1 108204079.640 1       194.557          42.000  
C28  22414646.847 4 116718922.760 3     -2370.003          28.000  
G21  20785920.472 2 109230704.290 1     -1456.510          35.000  
C23  23346112.186 9                     -2440.198          22.000  
G 8  22232955.051 4 116834949.809 3     -3062.167          27.000  
C27  22503114.870 9                       413.771          21.000  
C 3  36713003.963 1 191174211.601 1      -767.689          39.000  
C 1  37656603.146 9 196087782.18435      -796.913          29.000  
G 1  20652767.851 1 108531018.247 1      1183.186          42.000  
C16  39072066.320 9                     -2466.429          26.000  
C 8  38064426.191 4 198211425.22224       751.507          26.000  
G30  22989857.321 9                      2059.196          23.000  
C13  38847099.928 4 202287006.170 2       757.669          34.000  
G 4  25115513.880 9                     -3385.036          11.000  
C10  37526068.921 1 195408043.204 1      -529.280          40.000  
> 2021  5 18  3  7 35.0010000  0 15                     
G 7  20590516.808 1 108203885.656 1       193.839          42.000  
C28  22415098.589 4 116721292.955 3     -2370.078          28.000  
G21  20786197.695 2 109232161.380 1     -1457.295          35.000  
C23  23346579.991 9                     -2448.124          21.000  
G 8  22233536.336 4 116838012.138 4     -3062.430          27.000  
C27  22503035.436 9                       412.669          22.000  
C 3  36713151.400 1 191174979.432 1      -767.562          39.000  
C 1  37656756.115 8 196088579.70225      -796.669          29.000  
G 1  20652542.656 1 108529835.305 1      1182.722          42.000  
C16  39072540.905 8                     -2466.093          26.000  
C 8  38064279.783 4 198210673.37724       751.827          27.000  
G30  22989465.328 9                      2056.633          23.000  
C13  38846956.600 4 202286249.210 2       757.200          34.000  
G 4  25116158.866 9                     -3385.036          11.000  
C10  37526170.447 1 195408572.370 1      -529.085          40.000  
> 2021  5 18  3  7 36.0010000  0 15                     
G 7  20590480.101 1 108203692.170 1       193.070          42.000  
C28  22415552.460 4 116723663.332 3     -2370.447          28.000  
G21  20786474.997 4 109233618.939 2     -1458.574          35.000  
C23  23347048.722 9                     -2448.318          21.000  
G 8  22234118.126 4 116841074.373 5     -3062.283          27.000  
C27  22502956.788 9                       404.205          22.000  
C 3  36713298.750 1 191175748.65531      -767.753          39.000  
C 1  37656909.293 9                      -796.729          29.000  
G 1  20652317.566 1 108528652.825 1      1182.387          42.000  
C16  39073014.190 9                     -2466.980          26.000  
C 8  38064134.659 4 198209921.60124       751.479          27.000  
G30  22989071.424 9                      2065.205          23.000  
C13  38846810.001 4 202285492.187 2       757.076          34.000  
G 4  25116801.968 9                     -3385.036          11.000  
C10  37526272.138 1 195409101.320 1      -528.620          40.000  
> 2021  5 18  3  7 37.0010000  0 14                     
G 7  20590443.456 1 108203499.226 1       192.814          42.000  
C28  22416009.543 4 116726034.016 3     -2370.934          27.000  
G21  20786752.193 4 109235077.042 2     -1458.403          34.000  
C23  23347517.400 9                     -2447.597          20.000  
G 8  22234701.094 8 116844136.662 5     -3062.366          26.000  
C27  22502876.700 9                       416.884          22.000  
C 3  36713446.300 1 191176516.28321      -767.247          37.000  
C 1  37657061.249 9                      -810.010          29.000  
G 1  20652092.824 1 108527470.922 1      1181.674          41.000  
C16  39073488.626 9                     -2466.121          25.000  
C 8  38063990.084 4 198209169.76425       751.719          26.000  
G30  22988679.649 9                      2064.482          22.000  
C13  38846663.288 4 202284735.136 2       757.911          33.000  
C10  37526373.672 1 195409630.167 1      -528.946          38.000  
> 2021  5 18  3  7 38.0010000  0 13                     
G 7  20590407.003 1 108203306.667 1       192.323          42.000  
C28  22416467.567 9                     -2370.246          27.000  
G21  20787029.870 4 109236535.599 2     -1458.878          35.000  
C23  23347986.837 9                     -2457.323          20.000  
G 8  22235285.258 4 116847198.730 5     -3062.410          25.000  
C27  22502797.372 9                       409.835          21.000  
C 3  36713593.789 1 191177283.74421      -767.448          40.000  
C 1  37657214.322 9                      -804.688          28.000  
G 1  20651868.144 1 108526289.356 1      1181.376          42.000  
C 8  38063846.241 8 198208417.92825       751.311          26.000  
G30  22988289.052 9                      2055.397          23.000  
C13  38846518.216 4 202283977.920 2       757.163          35.000  
C10  37526475.363 1 195410158.690 1      -528.631          41.000  
> 2021  5 18  3  7 39.0010000  0 14                     
G 7  20590370.601 1 108203114.634 1       191.962          42.000  
C28  22416921.945 8 116730768.57435     -2370.382          27.000  
G21  20787307.616 4 109237994.642 2     -1458.940          35.000  
C23  23348455.384 9                     -2434.525          21.000  
G 8  22235868.531 8 116850277.76935     -3062.164          25.000  
C27  22502717.031 9                       415.340          22.000  
C 3  36713741.183 1 191178051.07521      -767.294          39.000  
C 1  37657368.556 9                      -816.699          30.000  
G 1  20651643.560 1 108525108.285 1      1180.860          41.000  
C16  39074435.510 9                     -2466.058          25.000  
C 8  38063703.438 8                       751.127          26.000  
G30  22987897.330 9                      2056.620          23.000  
C13  38846373.048 4 202283220.592 2       757.371          35.000  
C10  37526576.906 1 195410686.988 1      -527.705          40.000  
> 2021  5 18  3  7 40.0010000  0 15                     
G 7  20590334.392 1 108202923.140 1       191.107          42.000  
C28  22417374.961 8 116733139.73825     -2371.420          27.000  
G21  20787585.136 2 109239454.310 1     -1460.284          35.000  
C23  23348922.474 9                     -2443.508          23.000  
G 8  22236450.662 4 116853339.76825     -3061.550          25.000  
C27  22502635.102 9                       413.211          22.000  
C 3  36713888.262 1 191178818.30721      -767.416          40.000  
C 1  37657521.359 9                      -798.962          30.000  
G 1  20651419.028 1 108523927.747 1      1180.488          42.000  
C16  39074910.863 9                     -2465.312          26.000  
C 8  38063556.856 4 198206913.58315       752.652          27.000  
G30  22987505.913 9                      2047.861          24.000  
C13  38846227.583 4 202282463.250 2       757.195          35.000  
G 9  24200239.612 9                     -3083.000          14.000  
C10  37526678.431 1 195411215.166 1      -527.955          41.000  
> 2021  5 18  3  7 41.0010000  0 15                     
G 7  20590298.017 1 108202731.832 1       191.266          41.000  
C28  22417829.635 8                     -2371.004          26.000  
G21  20787862.873 2 109240914.100 2     -1459.240          35.000  
C23  23349392.007 9                     -2447.561          24.000  
G 8  22237031.431 8 116856401.35925     -3060.908          25.000  
C27  22502555.477 9                       422.143          22.000  
C 3  36714035.420 2 191179585.12421      -766.610          38.000  
C 1  37657674.546 9                      -785.834          29.000  
G 1  20651195.002 1 108522747.391 1      1180.505          42.000  
C16  39075384.575 9                     -2462.286          25.000  
C 8  38063413.520 4 198206161.465 5       752.365          27.000  
G30  22987115.743 9                      2060.036          24.000  
C13  38846082.135 4 202281705.493 2       758.451          32.000  
G 9  24200831.139 9                     -3087.444          18.000  
C10  37526779.573 1 195411742.845 1      -527.622          37.000  
> 2021  5 18  3  7 42.0010000  0 14                     
G 7  20590261.633 1 108202541.126 1       190.286          43.000  
C28  22418283.777 9                     -2374.218          24.000  
G21  20788142.915 4 109242374.576 2     -1460.480          36.000  
C23  23349861.924 9                     -2449.882          22.000  
G 8  22237612.462 9                     -3059.441          23.000  
C27  22502475.494 9                       410.329          20.000  
C 3  36714182.743 2 191180351.94431      -766.748          36.000  
C 1  37657825.865 9                      -801.807          27.000  
G 1  20650970.889 1 108521567.601 1      1179.505          43.000  
C 8  38063270.306 4 198205409.325 4       752.048          26.000  
G30  22986724.230 9                      2061.470          24.000  
C13  38845936.592 4 202280947.786 3       757.647          31.000  
G 9  24201422.536 9                     -3082.613          19.000  
C10  37526880.862 2 195412270.373 1      -527.486          35.000  
> 2021  5 18  3  7 43.0010000  0 14                     
G 7  20590225.416 1 108202351.400 1       189.148          40.000  
C28  22418738.870 9                     -2373.429          23.000  
G21  20788416.377 4 109243836.029 2     -1461.600          33.000  
C23  23350332.277 9                     -2450.695          22.000  
G 8  22238193.720 9                     -3065.440          22.000  
C27  22502396.540 9                       415.923          20.000  
C 3  36714330.014 2 191181119.11121      -767.473          37.000  
C 1  37657979.968 9                      -800.244          27.000  
G 1  20650746.950 1 108520388.781 1      1178.537          40.000  
C 8  38063125.233 9                       749.648          26.000  
G30  22986334.995 9                      2049.964          23.000  
C13  38845791.275 4 202280190.522 2       756.943          31.000  
G 9  24202012.257 9                     -3082.613          18.000  
C10  37526982.126 2 195412798.216 1      -527.848          36.000  
> 2021  5 18  3  7 44.0010000  0 15                     
G 7  20590189.590 1 108202162.526 1       188.513          40.000  
C28  22419195.141 9                     -2371.212          22.000  
G21  20788693.705 4 109245298.339 2     -1462.011          33.000  
C23  23350802.159 9                     -2444.700          22.000  
G 8  22238775.668 9                     -3061.707          20.000  
C27  22502317.665 9                       414.441          21.000  
C 3  36714477.294 2 191181886.61521      -767.126          38.000  
C 1  37658134.211 9                      -828.174          31.000  
G 1  20650522.819 1 108519210.925 1      1177.533          40.000  
C16  39076807.754 9                     -2465.802          24.000  
C 8  38062984.078 8 198203914.57535       752.753          28.000  
G30  22985944.546 9                      2055.729          22.000  
C13  38845645.810 4 202279433.686 2       756.829          35.000  
G 9  24202598.637 9                     -3076.569          17.000  
C10  37527083.276 2 195413326.138 1      -528.079          39.000  
> 2021  5 18  3  7 45.0010000  0 15                     
G 7  20590153.643 1 108201974.281 1       188.136          39.000  
C28  22419653.044 9                     -2368.229          23.000  
G21  20788972.315 4 109246761.618 2     -1464.052          33.000  
C23  23351273.193 9                     -2447.704          21.000  
G 8  22239360.887 9                     -3062.951          25.000  
C27  22502237.944 9                       407.277          19.000  
C 3  36714624.452 2 191182652.47931      -767.925          38.000  
C 1  37658302.344 9                      -879.932          27.000  
G 1  20650298.828 1 108518033.979 1      1176.788          39.000  
C16  39077278.517 9                     -2467.076          25.000  
C 8  38062842.810 8 198203179.10534       749.331          28.000  
G30  22985554.150 9                      2062.839          23.000  
C13  38845500.135 4 202278677.431 3       755.999          34.000  
G 9  24203186.526 9                     -3083.222          16.000  
C10  37527184.365 2 195413853.724 1      -527.258          36.000  
> 2021  5 18  3  7 46.0010000  0 14                     
G 7  20590117.713 1 108201786.457 1       187.589          38.000  
C28  22420110.833 9                     -2371.102          25.000  
G21  20789250.558 9                     -1463.447          25.000  
C23  23351741.391 9                     -2451.561          23.000  
G 8  22239944.169 9                     -3061.698          22.000  
C27  22502161.477 9                       409.345          20.000  
C 3  36714771.845 2 191183419.83031      -768.281          37.000  
G 1  20650075.090 1 108516858.102 1      1175.296          37.000  
C16  39077753.643 9                     -2464.168          24.000  
C 8  38062699.780 9                       746.957          26.000  
G30  22985162.820 9                      2054.324          22.000  
C13  38845352.699 8 202277922.247 3       755.130          31.000  
G 9  24203774.162 9                     -3083.222          13.000  
C10  37527285.498 2 195414380.583 1      -526.965          35.000  
> 2021  5 18  3  7 47.0010000  0 13                     
G 7  20590081.975 1 108201598.986 1       186.958          38.000  
C28  22420569.433 9 116749756.55534     -2372.135          33.000  
G21  20789531.769 9                     -1468.319          27.000  
C23  23352212.023 9                     -2451.103          30.000  
G 8  22240526.308 9                     -3067.363          23.000  
C27  22502086.555 9                       416.755          21.000  
C 3  36714919.701 2 191184188.90621      -771.005          36.000  
G 1  20649851.797 1 108515683.430 1      1174.202          42.000  
C 8  38062550.458 9                       740.933          26.000  
G30  22984773.706 9                      2069.306          22.000  
C13  38845207.329 8 202277168.480 3       753.083          31.000  
G 9  24204362.994 9                     -3075.647          17.000  
C10  37527386.430 1 195414906.274 1      -525.372          42.000  
> 2021  5 18  3  7 48.0010000  0 13                     
G 7  20590046.315 1 108201411.781 1       186.638          41.000  
C28  22421021.507 9                     -2368.650          29.000  
G21  20789807.290 9                     -1464.984          31.000  
C23  23352688.920 9                     -2453.125          23.000  
G 8  22241103.963 9                     -3063.068          25.000  
C27  22502008.439 9                       411.310          22.000  
C 3  36715067.582 2 191184959.46031      -769.750          38.000  
G 1  20649628.225 2 108514510.056 1      1173.502          39.000  
C 8  38062410.778 9                       751.707          26.000  
G30  22984384.776 9                      2061.072          23.000  
C13  38845063.269 8 202276416.064 4       752.339          31.000  
G 9  24204951.729 9                     -3079.361          20.000  
C10  37527487.318 2 195415431.012 1      -525.427          38.000  
> 2021  5 18  3  7 49.0010000  0 14                     
G 7  20590011.066 2 108201225.382 1       186.485          41.000  
C28  22421477.315 9                     -2372.424          29.000  
G21  20790086.721 9                     -1466.434          26.000  
C23  23353158.462 9                     -2450.064          28.000  
G 8  22241688.379 9                     -3064.012          26.000  
C27  22501931.832 9                       401.452          22.000  
C 3  36715215.264 4 191185729.78522      -770.511          38.000  
G 1  20649404.967 2 108513337.934 1      1172.281          41.000  
C16  39079176.446 9                     -2465.582          29.000  
C 8  38062264.493 9                       748.525          26.000  
G30  22983994.353 9                      2057.829          23.000  
C13  38844918.214 8 202275664.744 3       750.227          33.000  
G 9  24205541.023 9                     -3082.420          20.000  
C10  37527588.102 2 195415955.235 1      -524.614          39.000  
> 2021  5 18  3  7 50.0010000  0 14                     
G 7  20589975.546 2 108201039.515 1       185.746          40.000  
C28  22421936.300 9                     -2373.180          33.000  
G21  20790363.385 9                     -1456.625          26.000  
C23  23353627.105 9                     -2449.945          26.000  
G 8  22242272.962 9                     -3061.356          26.000  
C27  22501853.969 9                       404.466          23.000  
C 3  36715363.329 4 191186500.22522      -770.220          35.000  
G 1  20649182.014 4 108512166.440 2      1171.067          38.000  
C16  39079651.502 9                     -2469.672          29.000  
C 8  38062121.584 9                       747.628          26.000  
G30  22983606.444 9                      2058.634          25.000  
C13  38844776.170 4 202274913.549 2       751.200          33.000  
G 9  24206129.898 9                     -3082.585          20.000  
C10  37527688.921 2 195416479.142 1      -524.641          36.000  
> 2021  5 18  3  7 51.0010000  0 13                     
G 7  20589940.122 2 108200854.272 1       184.824          39.000  
C28  22422395.014 8 116759247.30434     -2372.486          31.000  
G21  20790640.608 9                     -1466.471          26.000  
C23  23354097.057 9                     -2442.463          26.000  
G 8  22242854.987 9                     -3063.361          26.000  
C27  22501776.770 9                       406.422          22.000  
C 3  36715511.211 4 191187269.51532      -770.305          36.000  
G 1  20648959.175 4 108510995.452 2      1169.869          38.000  
C 8  38061981.476 9                       749.847          24.000  
G30  22983215.070 9                      2065.284          24.000  
C13  38844630.242 8 202274162.209 3       751.684          33.000  
G 9  24206716.173 9                     -3086.477          18.000  
C10  37527789.164 2 195417003.096 1      -523.414          36.000  
> 2021  5 18  3  7 52.0010000  0 14                     
G 7  20589904.140 2 108200669.369 1       183.938          42.000  
C28  22422848.833 9                     -2375.779          26.000  
G21  20790920.152 9                     -1463.556          25.000  
C23  23354567.855 9                     -2451.582          27.000  
G 8  22243429.388 9                     -3067.395          24.000  
C27  22501700.687 9                       406.676          23.000  
C 3  36715658.735 4 191188037.98532      -769.011          35.000  
C 1  37659370.393 9                      -792.334          27.000  
G 1  20648736.161 4 108509824.480 2      1170.143          40.000  
C 8  38061841.054 9                       751.633          23.000  
G30  22982825.878 9                      2052.331          24.000  
C13  38844486.662 8 202273409.883 4       751.690          32.000  
G 9  24207305.222 9                     -3095.194          16.000  
C10  37527889.433 2 195417527.195 1      -524.549          39.000  
> 2021  5 18  3  7 53.0010000  0 12                     
G 7  20589868.707 1 108200484.519 1       185.025          41.000  
C28  22423303.769 9                     -2368.210          26.000  
G21  20791203.020 9                     -1474.113          24.000  
C23  23355040.477 9                     -2464.657          26.000  
G 8  22244014.677 9                     -3068.394          25.000  
C27  22501621.855 9                       408.299          29.000  
G 1  20648513.532 2 108508653.993 1      1170.211          37.000  
C 8  38061698.355 9                       743.037          22.000  
G30  22982434.330 9                      2060.278          24.000  
C13  38844343.038 8 202272657.189 5       752.994          28.000  
G 9  24207894.298 9                     -3086.719          17.000  
C10  37527989.998 2 195418050.754 1      -523.628          30.000  
> 2021  5 18  3  7 54.0010000  0 12                     
G 7  20589833.841 4 108200301.025 2       183.847          33.000  
C28  22423760.188 9                     -2376.917          26.000  
G21  20791481.490 9                     -1461.394          22.000  
C23  23355509.530 9                     -2456.059          25.000  
G 8  22244598.482 9                     -3079.461          22.000  
C27  22501545.319 9                       404.402          20.000  
G 1  20648290.605 4 108507483.358 2      1171.144          30.000  
C 8  38061556.406 9                       746.858          21.000  
G30  22982042.599 9                      2063.964          21.000  
C13  38844198.306 9                       754.831          25.000  
G 9  24208477.921 9                     -3086.719          16.000  
C10  37528090.791 4 195418575.709 2      -527.040          34.000  
> 2021  5 18  3  7 55.0010000  0 12                     
G 7  20589799.177 4 108200118.530 2       182.197          37.000  
C28  22424221.711 9                     -2375.589          27.000  
G21  20791761.217 9                     -1471.014          20.000  
C23  23355989.097 9                     -2464.971          25.000  
G 8  22245183.658 9                     -3070.011          23.000  
C27  22501471.330 9                       404.402          17.000  
G 1  20648067.495 4 108506311.471 2      1171.297          38.000  
C 8  38061411.456 9                       745.331          22.000  
G30  22981651.801 9                      2056.784          20.000  
C13  38844050.048 9                       755.860          25.000  
G 9  24209066.717 9                     -3078.448          20.000  
C10  37528191.749 2 195419102.321 1      -526.631          36.000  
> 2021  5 18  3  7 56.0010000  0 12                     
G 7  20589764.730 2 108199937.083 1       180.701          36.000  
C28  22424675.365 9 116771151.42535     -2377.076          27.000  
G21  20792042.000 9                     -1471.014          18.000  
C23  23356461.291 9                     -2454.583          25.000  
G 8  22245766.452 9                     -3064.091          24.000  
C27  22501393.851 9                       404.402          15.000  
G 1  20647844.787 2 108505140.697 1      1170.013          36.000  
C 8  38061269.298 9                       749.421          24.000  
G30  22981260.620 9                      2051.395          20.000  
C13  38843901.294 9                       755.994          25.000  
G 9  24209657.285 9                     -3084.446          22.000  
C10  37528292.794 2 195419629.277 1      -526.981          36.000  
> 2021  5 18  3  7 57.0010000  0 13                     
G 7  20589730.440 2 108199756.618 1       180.131          37.000  
C28  22425131.269 9                     -2376.910          32.000  
G21  20792322.879 9                     -1471.014          15.000  
C23  23356925.388 9                     -2454.558          27.000  
G 8  22246350.423 9                     -3062.399          24.000  
C27  22501319.050 9                       403.322          28.000  
C 3  36716385.816 9                      -760.891          33.000  
G 1  20647621.974 2 108503971.301 1      1168.667          36.000  
C 8  38061126.573 8 198194242.23935       747.855          26.000  
G30  22980870.215 9                      2053.326          19.000  
C13  38843760.139 8 202269620.53334       755.906          31.000  
G 9  24210244.799 9                     -3083.025          22.000  
C10  37528394.041 2 195420156.295 1      -526.315          41.000  
> 2021  5 18  3  7 58.0010000  0 14                     
G 7  20589696.046 2 108199576.739 1       179.431          35.000  
C28  22425579.199 9                     -2375.758          28.000  
G21  20792602.955 9                     -1451.409          16.000  
C23  23357389.799 9 121628064.09535     -2455.901          28.000  
G 8  22246932.013 9                     -3060.430          22.000  
C27  22501243.718 9                       401.860          28.000  
C 3  36716544.647 9                      -768.601          30.000  
C 1  37660286.835 9                      -770.430          28.000  
G 1  20647399.859 4 108502803.325 2      1167.711          34.000  
C 8  38060980.183 9                       746.349          25.000  
G30  22980478.876 9                      2056.831          20.000  
C13  38843617.658 9                       754.143          30.000  
G 9  24210833.464 9                     -3081.553          22.000  
C10  37528495.112 2 195420682.583 1      -526.173          38.000  
> 2021  5 18  3  7 59.0010000  0 15                     
G 7  20589661.547 4 108199396.984 2       179.315          33.000  
C28  22426040.835 9                     -2381.992          29.000  
G21  20792882.830 9                     -1477.607          19.000  
C23  23357867.150 9                     -2454.660          27.000  
G 8  22247516.325 9                     -3049.827          21.000  
C27  22501161.239 9                       400.879          19.000  
C 3  36716692.049 9                      -772.822          30.000  
C 1  37660437.988 9                      -744.092          27.000  
G 1  20647177.796 4 108501635.933 2      1167.028          34.000  
C16  39083916.693 9                     -2466.714          28.000  
C 8  38060836.672 9                       755.361          24.000  
G30  22980088.349 9                      2054.335          20.000  
C13  38843469.916 8 202268124.88225       752.002          31.000  
G 9  24211421.249 9                     -3087.263          20.000  
C10  37528595.844 2 195421208.002 1      -525.080          37.000  
> 2021  5 18  3  8  0.0010000  0 13                     
G 7  20589627.606 2 108199217.459 1       178.550          41.000  
C28  22426500.806 9                     -2377.508          29.000  
G21  20793162.182 9                     -1469.854          21.000  
C23  23358341.656 9                     -2449.152          26.000  
G 8  22248099.842 9                     -3063.271          23.000  
C27  22501083.656 9                       401.194          29.000  
C 3  36716839.024 9 191194188.58535      -770.045          30.000  
G 1  20646955.908 4 108500469.692 2      1165.405          39.000  
C 8  38060692.865 9                       742.447          22.000  
G30  22979698.668 9                      2052.948          18.000  
C13  38843328.046 8 202267371.88223       751.688          32.000  
G 9  24212009.688 9                     -3085.999          22.000  
C10  37528696.392 2 195421732.640 1      -524.448          37.000  
> 2021  5 18  3  8  1.0010000  0 14                     
G 7  20589593.709 1 108199038.766 1       178.739          45.000  
C28  22426955.820 9                     -2378.049          29.000  
G21  20793440.679 9                     -1474.135          30.000  
C23  23358808.432 9                     -2446.000          25.000  
G 8  22248676.991 9                     -3062.375          31.000  
C27  22501002.556 9 117168593.61535       402.501          33.000  
C 3  36716987.115 8 191194957.44623      -768.418          34.000  
G 1  20646734.098 2 108499303.488 1      1165.858          42.000  
C 8  38060548.901 9                       753.929          23.000  
G30  22979308.097 9                      2050.474          21.000  
C13  38843184.160 4 202266618.04322       754.139          34.000  
G 9  24212598.824 9                     -3086.513          22.000  
C10  37528797.394 2 195422257.720 1      -524.463          38.000  
C 6  38613757.414 9                     -2380.698          24.000  
> 2021  5 18  3  8  2.0010000  0 14                     
G 7  20589559.803 1 108198860.282 1       178.869          41.000  
C28  22427418.190 9                     -2378.614          28.000  
G21  20793721.688 9                     -1473.194          22.000  
C23  23359283.584 9                     -2452.096          31.000  
G 8  22249253.921 9                     -3062.182          28.000  
C27  22500918.995 8 117168191.58424       401.638          23.000  
C 3  36717132.065 8 191195726.03823      -767.939          35.000  
C 1  37660907.504 9                      -839.209          28.000  
G 1  20646512.279 2 108498137.786 1      1166.061          39.000  
C 8  38060405.530 9                       749.451          25.000  
G30  22978916.933 9                      2051.071          22.000  
C13  38843040.440 8 202265864.26223       754.621          34.000  
G 9  24213185.483 9                     -3071.012          20.000  
C10  37528898.142 2 195422782.054 1      -523.586          36.000  
> 2021  5 18  3  8  3.0010000  0 15                     
G 7  20589525.915 2 108198681.781 1       177.889          40.000  
C28  22427863.598 9                     -2372.546          29.000  
G21  20794003.544 9                     -1479.741          22.000  
C23  23359757.026 9                     -2456.368          31.000  
G 8  22249838.870 9                     -3055.277          27.000  
C27  22500847.406 9                       407.116          27.000  
C 3  36717280.183 4 191196495.19822      -769.847          39.000  
C 1  37661064.521 9                      -822.070          28.000  
G 1  20646290.871 4 108496973.424 2      1163.884          40.000  
C 8  38060263.485 9                       759.849          23.000  
G30  22978528.675 9                      2052.426          22.000  
C13  38842895.036 4 202265111.77022       750.814          34.000  
G 9  24213773.905 9                     -3083.558          19.000  
C10  37528998.586 2 195423305.021 1      -521.219          39.000  
C 6  38614669.615 9                     -2383.908          29.000  
> 2021  5 18  3  8  4.0010000  0 14                     
G 7  20589493.170 9                       178.343          32.000  
C28  22428315.811 9 116790113.80635     -2371.954          38.000  
G21  20794283.655 9                     -1482.574          23.000  
C23  23360229.482 9                     -2464.625          32.000  
G 8  22250419.639 9                     -3064.204          28.000  
C27  22500766.812 9 117167365.96735       398.296          33.000  
C 3  36717429.086 2 191197266.54221      -772.352          40.000  
G 1  20646069.716 2 108495812.404 1      1160.120          42.000  
C 8  38060117.915 9                       736.167          24.000  
G30  22978138.261 9                      2048.639          23.000  
C13  38842751.168 8 202264364.09223       744.608          34.000  
G 9  24214360.860 9                     -3085.483          17.000  
C10  37529098.200 2 195423823.963 1      -518.051          40.000  
C 7  36956952.659 9 192444519.15135      -436.498          37.000  
> 2021  5 18  3  8  5.0010000  0 14                     
G 7  20589457.859 9 108198330.78635       178.972          34.000  
C28  22428768.296 8 116792487.11722     -2374.454          41.000  
G21  20794562.745 9                     -1474.197          25.000  
C23  23360699.861 9                     -2449.351          31.000  
G 8  22251002.014 9                     -3054.782          27.000  
C27  22500694.839 9                       396.531          22.000  
C 3  36717577.543 2 191198039.15121      -771.663          39.000  
G 1  20645849.005 2 108494653.535 1      1159.083          43.000  
C 8  38059973.907 9                       753.401          25.000  
G30  22977748.118 9                      2064.452          23.000  
C13  38842606.610 4 202263618.71222       746.479          36.000  
G 9  24214949.308 9                     -3094.377          16.000  
C10  37529197.579 4 195424340.893 2      -517.380          37.000  
C 7  36957032.066 8 192444954.89922      -435.464          40.000  
> 2021  5 18  3  8  6.0010000  0 14                     
G 7  20589423.404 9                       178.108          24.000  
C28  22429224.715 8 116794860.17922     -2370.685          36.000  
G21  20794843.615 9                     -1475.487          25.000  
C23  23361169.080 9                     -2469.529          31.000  
G 8  22251588.403 9                     -3060.493          27.000  
C27  22500625.832 9                       413.271          23.000  
C 3  36717725.792 2 191198802.07631      -771.792          37.000  
G 1  20645628.513 2 108493494.338 1      1159.116          38.000  
C 8  38059829.821 9                       740.061          27.000  
G30  22977356.770 9                      2047.400          23.000  
C13  38842460.116 8                       743.510          31.000  
G 9  24215539.369 9                     -3094.377          15.000  
C10  37529296.819 4 195424857.737 3      -515.907          32.000  
C 7  36957112.564 4 192445390.40721      -434.251          36.000  
> 2021  5 18  3  8  7.0010000  0 14                     
G 7  20589392.264 9                       178.084          37.000  
C28  22429679.598 4 116797232.55922     -2370.544          38.000  
G21  20795122.914 9                     -1482.176          25.000  
C23  23361640.533 9                     -2460.482          29.000  
G 8  22252169.984 9                     -3051.607          26.000  
C27  22500545.683 9                       396.969          23.000  
C 3  36717874.319 4 191199574.95032      -775.398          34.000  
G 1  20645408.501 4 108492337.939 2      1154.596          39.000  
C 8  38059686.345 9 198186752.12135       734.668          31.000  
G30  22976966.060 9                      2051.926          20.000  
C13  38842321.919 9                       739.792          25.000  
G 9  24216129.422 9                     -3094.377          12.000  
C10  37529395.517 8 195425372.533 3      -512.659          31.000  
C 7  36957198.576 4 192445824.38922      -432.928          36.000  
> 2021  5 18  3  8  8.0010000  0 12                     
G 7  20589354.344 8 108197807.91033       176.631          36.000  
C28  22430135.328 4 116799603.93522     -2372.966          40.000  
G21  20795396.735 9 109280546.63533     -1478.640          35.000  
C23  23362115.624 9                     -2459.189          29.000  
G 8  22252746.443 9                     -3048.595          24.000  
C27  22500459.950 9                       397.929          37.000  
G 1  20645189.091 2 108491184.155 1      1152.664          38.000  
C 8  38059546.656 8 198186017.63824       733.746          30.000  
G30  22976575.035 9                      2054.046          19.000  
C13  38842181.191 9                       737.580          24.000  
C10  37529495.446 4 195425885.877 2      -514.069          37.000  
C 7  36957280.365 4 192446256.83522      -433.028          32.000  
> 2021  5 18  3  8  9.0010000  0 13                     
G 7  20589320.465 4 108197631.23222       175.565          33.000  
C28  22430592.210 4 116801976.15722     -2373.176          39.000  
G21  20795675.135 8 109282026.30323     -1478.982          38.000  
C23  23362587.521 9                     -2460.980          24.000  
G 8  22253323.347 9                     -3055.505          23.000  
C27  22500385.909 9                       396.653          25.000  
G 1  20644969.296 4 108490030.800 2      1153.087          38.000  
C 8  38059404.760 8 198185282.90623       734.086          32.000  
G30  22976183.435 9                      2055.369          22.000  
C13  38842037.035 9                       750.501          23.000  
G 9  24217307.687 9                     -3094.377          10.000  
C10  37529594.938 4 195426400.144 2      -515.085          35.000  
C 7  36957363.978 8 192446689.78823      -432.509          33.000  
> 2021  5 18  3  8 10.0010000  0 14                     
G 7  20589288.156 9                       162.594          28.000  
C28  22431048.934 4 116804349.33722     -2373.411          40.000  
G21  20795955.316 8 109283506.74723     -1482.235          35.000  
C23  23363066.120 9                     -2450.535          26.000  
G 8  22253905.155 9                     -3026.817          23.000  
C27  22500317.757 9                       369.096          24.000  
C 3  36718323.331 9                      -785.477          38.000  
G 1  20644749.895 4 108488877.701 2      1153.311          38.000  
C 8  38059261.860 8 198184547.66323       735.699          31.000  
G30  22975791.198 9                      2057.048          21.000  
C13  38841892.024 9                       740.539          21.000  
G 9  24217896.658 9                     -3094.377          10.000  
C10  37529691.307 8 195426915.109 3      -513.069          34.000  
C 7  36957447.835 8 192447123.54123      -433.503          33.000  
> 2021  5 18  3  8 11.0010000  0 14                     
G 7  20589256.039 9                       177.419          27.000  
C28  22431505.249 2 116806723.44421     -2375.071          40.000  
G21  20796240.252 8                     -1481.069          29.000  
C23  23363534.178 9                     -2462.446          25.000  
G 8  22254483.865 9                     -3059.851          21.000  
C27  22500244.344 9                       400.346          21.000  
C 3  36718468.028 9 191202666.65435      -774.753          33.000  
G 1  20644530.580 4 108487724.519 2      1154.127          36.000  
C 8  38059123.471 8 198183811.53724       736.673          28.000  
G30  22975399.798 9                      2036.425          21.000  
C13  38841753.460 9                       748.751          20.000  
G 9  24218486.022 9                     -3094.377          10.000  
C10  37529791.410 8 195427430.858 3      -516.971          33.000  
C 7  36957532.085 8 192447557.78623      -434.712          36.000  
> 2021  5 18  3  8 12.0010000  0 13                     
G 7  20589222.072 9 108197091.27535       173.062          29.000  
C28  22431961.494 2 116809098.98921     -2377.232          42.000  
G21  20796522.151 8 109286460.81935     -1484.919          29.000  
C23  23364006.355 9                     -2465.792          31.000  
G 8  22255067.313 9                     -3060.474          22.000  
C27  22500172.519 9                       400.518          21.000  
C 3  36718620.996 8 191203440.78423      -773.457          36.000  
G 1  20644311.126 2 108486570.778 2      1154.550          40.000  
C 8  38058980.841 8 198183073.91223       740.138          32.000  
G30  22975006.531 9                      2058.049          22.000  
C13  38841612.637 9                       747.234          19.000  
C10  37529891.444 8 195427948.241 3      -519.042          36.000  
C 7  36957615.994 4 192447993.20822      -437.070          40.000  
> 2021  5 18  3  8 13.0010000  0 14                     
G 7  20589188.367 8 108196919.23022       171.053          38.000  
C28  22432417.930 2 116811477.02321     -2378.976          39.000  
G21  20796803.972 9                     -1483.162          28.000  
C23  23364475.486 9 121664923.38334     -2463.594          37.000  
G 8  22255649.714 9                     -3064.388          22.000  
C27  22500099.455 9                       392.460          19.000  
C 1  37662584.705 9                      -800.617          34.000  
C 3  36718768.538 4 191204212.56022      -771.198          36.000  
G 1  20644091.193 2 108485415.011 1      1156.214          40.000  
C 8  38058839.320 4 198182332.56222       743.038          33.000  
G30  22974611.964 9                      2052.940          21.000  
C13  38841468.568 9                       755.814          20.000  
C10  37529992.533 9 195428487.79835      -521.652          34.000  
C 7  36957702.556 4 192448431.06522      -438.802          35.000  
> 2021  5 18  3  8 14.0010000  0 14                     
G 7  20589151.616 4 108196747.97121       170.297          34.000  
C28  22432874.672 2 116813856.13321     -2379.107          36.000  
G21  20797085.479 9                     -1478.311          26.000  
C23  23364947.271 9 121667380.11135     -2459.427          27.000  
G 8  22256234.724 9                     -3066.664          22.000  
C27  22500025.588 9                       397.974          19.000  
C 1  37662737.308 9                      -784.668          30.000  
C 3  36718916.228 4 191204983.10421      -770.469          33.000  
G 1  20643871.128 2 108484258.492 1      1155.183          38.000  
C 8  38058695.496 4 198181589.42522       743.586          32.000  
G30  22974219.919 9                      2050.422          29.000  
C13  38841324.115 9                       757.908          19.000  
C10  37530090.420 8 195429009.55723      -521.290          34.000  
C 7  36957783.324 8 192448869.79223      -437.480          31.000  
> 2021  5 18  3  8 15.0010000  0 14                     
G 7  20589125.493 8 108196576.31723       172.098          30.000  
C28  22433331.353 2 116816233.875 1     -2376.235          35.000  
G21  20797367.475 9                     -1483.656          26.000  
C23  23365422.135 9                     -2467.958          28.000  
G 8  22256820.004 9                     -3058.924          21.000  
C27  22499948.484 9                       401.743          19.000  
C 1  37662895.302 9                      -889.209          27.000  
C 3  36719064.389 4 191205755.13223      -774.404          31.000  
G 1  20643651.447 2 108483104.438 1      1151.611          39.000  
C 8  38058551.130 8 198180849.226 4       738.209          27.000  
G30  22973830.282 9                      2048.300          19.000  
C13  38841179.444 9                       754.853          18.000  
C10  37530187.975 8 195429528.28623      -515.873          31.000  
C 7  36957867.678 8                      -435.556          23.000  
> 2021  5 18  3  8 16.0010000  0 12                     
G 7  20589092.434 9                       172.103          29.000  
C28  22433787.694 4 116818609.510 2     -2375.866          35.000  
G21  20797650.980 9                     -1484.222          27.000  
C23  23365901.693 9                     -2458.668          33.000  
G 8  22257402.964 9                     -3061.511          21.000  
C27  22499870.630 9                       402.294          23.000  
C 3  36719212.559 4 191206529.82821      -776.210          37.000  
G 1  20643432.456 2 108481954.322 1      1148.565          39.000  
C 8  38058412.819 8 198180113.969 3       732.640          30.000  
G30  22973436.308 9                      2049.801          22.000  
C13  38841035.541 9                       741.674          18.000  
C10  37530288.968 4 195430042.68222      -512.710          37.000  
> 2021  5 18  3  8 17.0010000  0 13                     
G 7  20589058.450 9                       180.666          33.000  
C28  22434243.537 8                     -2370.873          34.000  
G21  20797935.488 9                     -1484.583          32.000  
C23  23366378.485 9                     -2476.974          27.000  
G 8  22257982.110 9                     -3053.110          24.000  
C27  22499793.788 9                       397.109          30.000  
C 3  36719362.561 4 191207306.66822      -777.418          37.000  
G 1  20643214.389 2 108480807.133 1      1145.537          44.000  
C 8  38058272.616 8 198179382.236 4       731.304          34.000  
G30  22973044.045 9                      2033.919          20.000  
C13  38840895.154 9                       723.076          19.000  
C10  37530388.496 4 195430553.33221      -508.456          39.000  
C 7  36958034.974 9                      -442.347          25.000  
> 2021  5 18  3  8 18.0010000  0 13                     
G 7  20589025.626 9 108196059.32335       174.935          32.000  
C28  22434698.255 8 116823332.32934     -2370.083          41.000  
G21  20798216.175 9                     -1482.731          31.000  
C23  23366854.335 9                     -2476.053          28.000  
G 8  22258551.240 9                     -3043.805          30.000  
C27  22499721.274 9                       387.591          28.000  
C 3  36719512.040 4 191208103.69732      -778.877          36.000  
G 1  20642996.453 2 108479662.672 1      1143.435          42.000  
C 8  38058132.534 8 198178653.762 3       728.376          34.000  
G30  22972653.160 9                      2022.083          22.000  
C13  38840757.393 9                       705.893          17.000  
C10  37530484.960 8                      -507.178          33.000  
C 7  36958115.637 9                      -427.208          39.000  
> 2021  5 18  3  8 19.0010000  0 13                     
G 7  20588991.685 9                       172.243          32.000  
C28  22435151.795 8                     -2369.293          32.000  
G21  20798502.254 9                     -1484.688          29.000  
C23  23367327.925 9                     -2474.380          27.000  
G 8  22259126.539 9                     -3052.660          18.000  
C27  22499649.021 9                       399.094          27.000  
C 3  36719662.155 4 191208884.96533      -782.424          27.000  
G 1  20642779.250 2 108478520.838 1      1141.045          37.000  
C 8  38057992.165 8 198177928.295 5       724.533          29.000  
G30  22972260.548 9                      2069.321          27.000  
C13  38840617.268 9                       726.183          16.000  
C10  37530583.781 9 195431566.24035      -505.506          32.000  
C 7  36958196.859 9 192451000.81633      -426.585          31.000  
> 2021  5 18  3  8 20.0010000  0 13                     
G 7  20588959.533 8 108195711.65034       169.526          31.000  
C28  22435608.100 9 116828067.06535     -2373.458          33.000  
G21  20798785.096 9                     -1485.470          19.000  
C23  23367803.356 9                     -2473.892          26.000  
G 8  22259704.316 9                     -3063.665          27.000  
C27  22499573.313 9                       393.360          25.000  
C 3  36719812.052 9 191209665.85525      -780.605          29.000  
G 1  20642561.812 4 108477379.074 2      1142.473          37.000  
C 8  38057855.617 8 198177201.923 5       728.802          27.000  
G30  22971864.018 9                      2066.416          25.000  
C13  38840477.605 9                       726.183          13.000  
C10  37530677.934 8 195432073.95324      -510.639          28.000  
C 7  36958278.334 8 192451428.54723      -429.387          32.000  
> 2021  5 18  3  8 21.0010000  0 13                     
G 7  20588925.444 8 108195543.13524       166.985          31.000  
C28  22436068.167 8 116830443.30422     -2379.414          41.000  
G21  20799069.840 9                     -1481.269          22.000  
C23  23368279.468 9                     -2466.162          33.000  
G 8  22260282.642 9                     -3056.885          26.000  
C27  22499498.042 9                       385.491          30.000  
C 3  36719961.077 8 191210442.81923      -774.548          35.000  
G 1  20642343.937 2 108476233.667 1      1147.830          38.000  
C 8  38057712.708 8 198176465.17135       737.843          28.000  
G30  22971470.480 9                      2053.436          30.000  
C13  38840338.405 9                       726.183          10.000  
C10  37530779.049 4 195432587.81122      -517.335          37.000  
C 7  36958363.029 4 192451861.24322      -435.566          38.000  
> 2021  5 18  3  8 22.0010000  0 12                     
G 7  20588897.288 8 108195377.43523       164.655          31.000  
C28  22436523.303 4 116832825.04921     -2384.321          40.000  
G21  20799347.795 9                     -1487.311          32.000  
C23  23368752.805 9                     -2466.187          27.000  
G 8  22260863.752 9                     -3064.246          26.000  
C27  22499421.775 9                       378.263          22.000  
C 3  36720109.151 4 191211212.36932      -769.680          32.000  
G 1  20642124.832 2 108475082.840 1      1153.394          38.000  
C 8  38057574.816 8 198175724.14924       744.929          28.000  
G30  22971061.657 9 120713742.84134      2044.921          35.000  
C10  37530879.536 4 195433109.07422      -525.466          35.000  
C 7  36958447.889 4 192452299.58521      -441.098          35.000  
> 2021  5 18  3  8 23.0010000  0 13                     
G 7  20588865.599 8 108195213.43124       163.188          31.000  
C28  22436981.241 4 116835209.88921     -2384.683          35.000  
G21  20799632.714 9 109302797.53133     -1487.473          32.000  
C23  23369228.760 9                     -2464.633          30.000  
G 8  22261453.848 9                     -3066.282          26.000  
C27  22499344.925 9                       395.741          21.000  
C 3  36720256.937 8 191211982.42823      -767.941          29.000  
G 1  20641903.171 4 108473928.937 2      1153.495          34.000  
C 8  38057430.503 8 198174977.87524       746.377          27.000  
G30  22970665.414 8 120711698.46123      2044.051          33.000  
C13  38840048.391 9                       757.433          10.000  
C10  37530978.470 4 195433634.36022      -524.469          31.000  
C 7  36958533.125 4 192452741.00022      -441.220          31.000  
> 2021  5 18  3  8 24.0010000  0 14                     
G 7  20588833.656 8 108195049.87523       162.906          32.000  
C28  22437439.937 2 116837594.94421     -2384.772          41.000  
G21  20799915.128 4 109304285.61022     -1488.515          34.000  
C23  23369703.240 8 121692145.33734     -2465.117          34.000  
G 8  22262045.489 9 116987837.65235     -3065.302          26.000  
C27  22499266.879 9                       399.294          22.000  
C 3  36720404.531 4 191212750.33032      -767.405          37.000  
G 1  20641682.059 4 108472775.428 1      1153.154          35.000  
C 8  38057288.170 8 198174231.49824       746.670          32.000  
G30  22970276.667 4 120709654.34521      2044.015          36.000  
C13  38839905.063 9                       757.433          13.000  
C10  37531082.063 4 195434159.49821      -525.079          39.000  
C 7  36958618.526 2 192453182.26521      -441.189          38.000  
C25  27570012.723 9                     -3733.828          11.000  
> 2021  5 18  3  8 25.0010000  0 16                     
G 7  20588798.354 8 108194886.89923       162.062          33.000  
C28  22437897.237 2 116839980.23621     -2385.481          41.000  
G21  20800198.345 4 109305774.20722     -1487.941          35.000  
C23  23370176.263 4 121694610.52822     -2465.384          33.000  
G 8  22262630.979 8 116990902.87225     -3065.390          26.000  
C27  22499189.269 9                       393.032          22.000  
C 3  36720551.924 2 191213518.16531      -767.998          36.000  
G 1  20641463.303 2 108471622.419 1      1152.814          37.000  
C 8  38057145.558 8 198173485.15624       747.015          31.000  
G30  22969887.606 4 120707610.49521      2044.039          36.000  
C13  38839760.776 9                       760.574          14.000  
G 9  24226660.192 9                     -3087.643          10.000  
C10  37531181.748 2 195434684.45121      -524.615          39.000  
C 7  36958701.816 2 192453623.34021      -441.008          39.000  
C 6  38624646.899 9                     -2302.139          12.000  
C25  27570729.630 9                     -3717.837          13.000  
> 2021  5 18  3  8 26.0010000  0 15                     
G 7  20588769.762 8 108194724.29922       162.031          33.000  
C28  22438355.899 1 116842365.59321     -2385.551          41.000  
G21  20800480.821 4 109307263.26422     -1488.895          35.000  
C23  23370645.945 8 121697075.92223     -2465.930          31.000  
G 8  22263216.102 8 116993967.97625     -3065.396          26.000  
C27  22499112.880 9                       388.297          22.000  
C 3  36720699.413 2 191214286.79421      -768.079          36.000  
G 1  20641244.582 4 108470469.845 1      1152.297          37.000  
C 8  38057004.395 8 198172738.71224       746.996          30.000  
G30  22969497.881 4 120705566.74921      2044.213          36.000  
C13  38839617.719 9                       760.574          13.000  
G 9  24227250.743 9                     -3087.643          10.000  
C10  37531282.017 2 195435209.08621      -524.162          37.000  
C 7  36958786.467 2 192454064.16821      -440.759          38.000  
C25  27571437.262 9                     -3705.874          12.000  
> 2021  5 18  3  8 28.0010000  0 15                     
G 7  20588710.353 4 108194400.69722       161.150          36.000  
C28  22439272.227 1 116847136.47911     -2385.962          41.000  
G21  20801047.211 2 109310243.04421     -1490.662          38.000  
C23  23371594.599 8 121702007.52723     -2465.685          32.000  
G 8  22264381.925 4 117000098.06323     -3065.248          28.000  
C27  22498958.725 9                       383.287          24.000  
C 3  36720994.374 2 191215821.80531      -767.644          36.000  
G 1  20640805.631 2 108468166.239 1      1150.807          39.000  
C 8  38056714.721 4 198171245.88023       746.445          29.000  
G30  22968723.205 2 120701480.05721      2042.544          39.000  
C13  38839333.359 9                       757.414          14.000  
G 9  24228426.643 9                     -3087.643          14.000  
C10  37531483.575 2 195436257.46811      -524.175          38.000  
C 7  36958955.438 2 192454944.88611      -440.935          38.000  
C25  27572860.214 9                     -3679.141          12.000  
> 2021  5 18  3  8 29.0010000  0 15                     
G 7  20588679.501 4 108194239.91022       160.791          33.000  
C28  22439730.296 1 116849522.684 1     -2386.489          41.000  
G21  20801331.789 4 109311733.91521     -1491.125          35.000  
C23  23372068.120 8 121704474.03823     -2467.312          31.000  
G 8  22264969.334 9                     -3065.558          26.000  
C27  22498884.126 9                       399.853          24.000  
C 3  36721141.820 2 191216590.34822      -767.604          36.000  
G 1  20640585.426 4 108467015.385 1      1150.671          35.000  
C 8  38056571.010 8 198170499.75624       745.287          29.000  
G30  22968332.800 4 120699437.22421      2042.804          36.000  
C13  38839190.407 9                       751.674          15.000  
G 9  24229013.712 9                     -3087.643          12.000  
C10  37531584.237 2 195436781.826 1      -524.725          38.000  
C 7  36959040.211 2 192455385.454 1      -440.838          38.000  
C25  27573564.653 9                     -3665.347          12.000  
> 2021  5 18  3  8 30.0010000  0 13                     
G 7  20588648.919 4 108194079.83222       159.801          33.000  
C28  22440188.713 1 116851909.269 1     -2386.723          41.000  
G21  20801615.408 4 109313225.52321     -1491.433          36.000  
C23  23372540.619 4 121706940.93722     -2467.235          31.000  
G 8  22265553.201 9                     -3065.873          26.000  
C27  22498809.360 9                       389.650          24.000  
C 3  36721289.335 2 191217358.00931      -767.417          36.000  
G 1  20640367.116 2 108465865.244 1      1150.075          37.000  
C 8  38056425.030 8 198169759.71035       746.963          30.000  
G30  22967943.817 4 120697394.85621      2042.164          36.000  
C13  38839047.150 9                       751.674          16.000  
C10  37531684.820 1 195437306.194 1      -524.418          38.000  
C 7  36959124.827 2 192455826.054 1      -440.317          38.000  
> 2021  5 18  3  8 31.0010000  0 14                     
G 7  20588618.381 4 108193919.84812       159.743          36.000  
C28  22440646.816 1 116854296.124 1     -2386.445          41.000  
G21  20801899.314 4 109314717.732 1     -1491.982          38.000  
C23  23373014.663 8 121709408.24423     -2468.190          31.000  
G 8  22266135.951 8                     -3065.841          27.000  
C27  22498736.959 9                       392.546          25.000  
C 3  36721436.685 2 191218125.62132      -767.310          36.000  
G 1  20640148.429 2 108464715.660 1      1149.622          39.000  
C 8  38056280.115 8 198169013.83524       745.805          30.000  
G30  22967556.388 4 120695352.26711      2042.144          39.000  
C13  38838905.436 9                       754.644          17.000  
C10  37531785.482 2 195437830.419 1      -523.724          38.000  
C 7  36959209.365 1 192456266.543 1      -439.994          38.000  
C25  27574987.308 9                     -3665.347          10.000  
> 2021  5 18  3  8 32.0010000  0 13                     
G 7  20588591.185 8 108193760.607 3       158.801          32.000  
C28  22441105.085 2 116856682.920 1     -2387.323          39.000  
G21  20802182.321 4 109316210.203 2     -1492.644          35.000  
C23  23373485.104 8 121711875.51924     -2468.047          31.000  
G 8  22266719.207 8                     -3065.564          27.000  
C27  22498662.351 9                       396.295          24.000  
C 3  36721584.026 4 191218892.88722      -767.451          35.000  
G 1  20639929.961 4 108463566.318 2      1148.209          36.000  
C 8  38056135.461 4 198168267.63723       746.307          29.000  
G30  22967166.428 4 120693310.144 1      2041.863          36.000  
C13  38838761.411 9                       760.975          16.000  
C10  37531886.073 2 195438354.230 1      -524.208          37.000  
C 7  36959293.658 2 192456706.609 1      -440.752          37.000  
> 2021  5 18  3  8 33.0010000  0 13                     
G 7  20588560.359 4 108193602.194 2       157.594          34.000  
C28  22441563.458 1 116859070.179 1     -2388.339          38.000  
G21  20802469.884 4 109317703.481 1     -1494.041          35.000  
C23  23373961.276 8 121714343.33623     -2468.002          30.000  
G 8  22267303.790 8                     -3065.466          26.000  
C27  22498587.315 9                       386.893          23.000  
C 3  36721731.088 4 191219658.32032      -768.304          33.000  
G 1  20639711.301 2 108462417.735 1      1147.812          37.000  
C 8  38055992.134 4 198167521.76523       745.766          28.000  
G30  22966778.309 2 120691268.540 1      2040.894          36.000  
C13  38838617.072 9                       760.975          14.000  
C10  37531986.752 2 195438878.098 1      -524.661          35.000  
C 7  36959378.021 2 192457146.779 1      -440.948          35.000  
> 2021  5 18  3  8 34.0010000  0 14                     
G 7  20588529.935 4 108193444.775 3       156.586          26.000  
C28  22442022.120 2 116861458.151 1     -2388.227          40.000  
G21  20802754.060 4 109319197.834 2     -1494.953          30.000  
C23  23374435.277 9                     -2468.757          29.000  
G 8  22267887.700 9                     -3066.330          24.000  
C27  22498514.670 9                       383.392          21.000  
C 3  36721878.577 4 191220426.12532      -767.611          36.000  
G 1  20639492.807 4 108461270.195 2      1146.707          31.000  
C 8  38055849.086 8 198166776.43425       744.864          27.000  
G30  22966389.413 4 120689227.663 2      2040.710          29.000  
C13  38838472.165 9                       760.975          13.000  
C10  37532087.388 2 195439402.302 1      -524.465          38.000  
C 7  36959462.689 4 192457587.313 2      -440.156          38.000  
C25  27577092.930 9                     -3649.722          11.000  
> 2021  5 18  3  8 35.0010000  0 13                     
G 7  20588501.927 4 108193288.266 2       155.742          33.000  
C28  22442480.773 1 116863846.681 1     -2388.729          40.000  
G21  20803035.532 4 109320693.042 1     -1495.799          35.000  
C23  23374911.170 8 121719256.33433     -2469.776          31.000  
G 8  22268473.643 9                     -3061.564          24.000  
C27  22498440.855 9                       387.654          22.000  
C 3  36722025.918 2 191221194.22921      -768.102          36.000  
G 1  20639274.819 2 108460123.526 1      1145.822          36.000  
C 8  38055705.776 8 198166031.48024       744.114          29.000  
G30  22966001.678 2 120687187.417 1      2039.948          35.000  
C13  38838327.476 9                       760.975          13.000  
C10  37532187.910 2 195439926.681 1      -524.234          38.000  
C 7  36959547.402 2 192458028.004 1      -440.473          38.000  
> 2021  5 18  3  8 36.0010000  0 14                     
G 7  20588471.424 4 108193132.259 2       156.035          33.000  
C28  22442939.382 1 116866235.435 1     -2388.208          41.000  
G21  20803320.992 4 109322188.814 1     -1495.991          35.000  
C23  23375385.284 8 121721725.91623     -2470.107          31.000  
G 8  22269058.374 9                     -3061.493          24.000  
C27  22498365.331 9                       386.472          22.000  
C 3  36722173.302 2 191221962.25021      -767.783          37.000  
G 1  20639056.953 2 108458977.351 1      1145.873          36.000  
C 8  38055560.843 8 198165286.38923       747.752          29.000  
G30  22965613.140 2 120685147.403 1      2040.033          35.000  
C13  38838182.875 9                       750.044          14.000  
C10  37532288.484 2 195440450.929 1      -524.146          38.000  
C 7  36959632.218 2 192458468.608 1      -440.586          38.000  
C25  27578494.209 9                     -3649.722          10.000  
> 2021  5 18  3  8 37.0010000  0 14                     
G 7  20588441.349 4 108192976.805 2       155.450          34.000  
C28  22443398.288 1 116868624.398 1     -2389.250          41.000  
G21  20803605.718 4 109323685.096 1     -1496.826          36.000  
C23  23375859.598 8 121724195.80823     -2470.043          31.000  
G 8  22269643.270 9                     -3067.431          24.000  
C27  22498289.160 9                       390.407          22.000  
C 3  36722320.713 2 191222730.12721      -767.587          36.000  
G 1  20638838.965 2 108457831.673 1      1145.258          37.000  
C 8  38055417.228 4 198164541.55323       745.172          29.000  
G30  22965224.986 1 120683107.604 1      2039.829          36.000  
C13  38838040.935 9                       758.681          16.000  
C10  37532388.971 2 195440974.966 1      -523.935          38.000  
C 7  36959716.756 2 192458908.980 1      -440.165          38.000  
C25  27579195.027 9                     -3649.722          11.000  
> 2021  5 18  3  8 38.0010000  0 14                     
G 7  20588412.643 4 108192821.819 2       154.495          37.000  
C28  22443856.827 1 116871013.491 1     -2389.330          41.000  
G21  20803890.532 2 109325181.887 1     -1497.278          38.000  
C23  23376335.571 9                     -2472.588          31.000  
G 8  22270226.954 9                     -3065.740          24.000  
C27  22498214.543 9                       384.752          21.000  
C 3  36722467.993 2 191223497.87621      -767.052          36.000  
G 1  20638621.117 2 108456686.467 1      1145.066          39.000  
C 8  38055272.740 8 198163796.60024       744.845          29.000  
G30  22964836.824 2 120681068.022 1      2039.620          38.000  
C13  38837897.704 9                       745.916          16.000  
C10  37532489.694 2 195441498.730 1      -523.589          37.000  
C 7  36959801.241 2 192459349.157 1      -440.302          38.000  
C25  27579891.989 9                     -3615.176          12.000  
> 2021  5 18  3  8 39.0010000  0 15                     
G 7  20588384.418 4 108192667.454 2       153.570          30.000  
C28  22444315.663 2 116873402.852 1     -2389.768          38.000  
G21  20804175.869 4 109326679.262 2     -1497.670          32.000  
C23  23376809.396 9 121729151.82535     -2470.072          25.000  
G 8  22270810.454 9                     -3067.872          24.000  
C27  22498139.804 9                       388.507          19.000  
C 3  36722615.325 4 191224262.59732      -766.539          33.000  
G 1  20638403.774 2 108455541.857 2      1144.139          33.000  
C 8  38055132.423 9                       747.395          24.000  
G30  22964449.350 4 120679028.741 2      2038.906          29.000  
C13  38837753.242 9                       759.217          15.000  
G 9  24234901.267 9                     -3090.053          11.000  
C10  37532588.113 2 195442022.428 2      -523.793          32.000  
C 7  36959884.400 2 192459789.217 1      -439.770          34.000  
C25  27580581.255 9                     -3568.301          12.000  
> 2021  5 18  3  8 40.0010000  0 15                     
G 7  20588353.627 4 108192513.490 2       153.671          34.000  
C28  22444774.578 1 116875792.405 1     -2389.490          38.000  
G21  20804461.529 4 109328177.133 1     -1497.906          37.000  
C23  23377286.677 8 121731622.61624     -2471.254          27.000  
G 8  22271392.541 9                     -3068.800          23.000  
C27  22498064.218 9                       388.156          19.000  
C 3  36722762.727 4 191225030.26322      -767.444          34.000  
G 1  20638186.030 2 108454397.694 1      1143.162          38.000  
C 8  38054988.607 9                       744.474          26.000  
G30  22964058.657 4 120676989.654 2      2038.719          35.000  
C13  38837610.840 9                       759.217          14.000  
C10  37532688.923 4 195442545.906 1      -523.232          35.000  
C 7  36959969.261 2 192460229.122 1      -439.894          36.000  
C25  27581267.624 9                     -3568.301          11.000  
G 3  25458769.453 9                      1188.000          12.000  
> 2021  5 18  3  8 41.0010000  0 13                     
G 7  20588325.366 4 108192360.267 2       153.028          34.000  
C28  22445233.536 1 116878182.331 1     -2390.144          39.000  
G21  20804748.175 4 109329675.744 2     -1498.664          36.000  
C23  23377762.353 8 121734093.77223     -2471.066          29.000  
G 8  22271975.754 9                     -3067.978          21.000  
C27  22497990.386 9                       388.795          19.000  
C 3  36722910.190 2 191225797.95621      -768.219          37.000  
G 1  20637968.548 2 108453254.237 1      1142.603          37.000  
C 8  38054847.670 9 198161535.54634       744.434          29.000  
G30  22963668.322 4 120674950.987 2      2038.171          35.000  
C13  38837466.081 9                       757.072          15.000  
C10  37532789.079 4 195443069.391 1      -523.274          36.000  
C 7  36960052.550 2 192460669.065 1      -440.312          37.000  
> 2021  5 18  3  8 42.0010000  0 14                     
G 7  20588297.341 4 108192207.742 1       152.497          36.000  
C28  22445692.529 1 116880572.623 1     -2390.887          39.000  
G21  20805033.766 2 109331175.059 1     -1499.857          39.000  
C23  23378235.463 8 121736565.47623     -2472.876          31.000  
G 8  22272559.472 9                     -3068.428          23.000  
C27  22497919.111 9                       376.908          18.000  
C 3  36723057.723 2 191226566.70231      -767.632          36.000  
G 1  20637751.110 2 108452111.394 1      1142.574          41.000  
C 8  38054706.367 8 198160791.00323       744.699          31.000  
G30  22963279.357 4 120672912.696 1      2038.339          39.000  
C13  38837322.484 9                       759.387          16.000  
G 9  24236665.702 9                     -3090.053          10.000  
C10  37532889.801 4 195443592.876 1      -524.326          36.000  
C 7  36960138.379 2 192461108.939 1      -440.188          37.000  
> 2021  5 18  3  8 43.0010000  0 14                     
G 7  20588267.135 9                       151.538          28.000  
C28  22446150.894 9                     -2390.280          29.000  
G21  20805316.477 4 109332674.766 3     -1499.599          30.000  
C23  23378711.767 9                     -2472.569          22.000  
G 8  22273144.377 9                     -3065.487          22.000  
C27  22497847.827 9                       376.908          17.000  
C 3  36723204.453 9                      -759.961          30.000  
G 1  20637536.079 9                      1142.763          30.000  
C 8  38054563.572 8                       744.749          25.000  
G30  22962889.240 8 120670874.578 4      2038.057          26.000  
C13  38837177.402 9                       751.942          16.000  
G 9  24237254.874 9                     -3090.053          14.000  
C10  37532991.056 4 195444116.027 3      -523.295          28.000  
C 7  36960224.845 9                      -441.345          30.000  
> 2021  5 18  3  8 44.0010000  0 13                     
G 7  20588238.961 9 108191925.22335       149.763          27.000  
C28  22446609.974 9 116885357.13634     -2390.562          33.000  
G21  20805597.826 4 109334175.681 3     -1501.775          28.000  
G 8  22273725.409 9                     -3054.930          19.000  
C27  22497775.007 9                       387.407          16.000  
C 3  36723351.689 9                      -769.725          30.000  
G 1  20637316.399 8 108449828.75335      1139.735          30.000  
C 8  38054420.349 8                       744.208          24.000  
G30  22962502.909 8 120668837.297 4      2036.405          27.000  
C13  38837032.705 9                       751.942          14.000  
C10  37533089.859 8 195444639.496 4      -522.655          29.000  
C 7  36960307.297 9                      -441.390          30.000  
C25  27584008.888 9                     -3599.551          10.000  
> 2021  5 18  3  8 45.0010000  0 13                     
G 7  20588207.874 8 108191775.00823       149.914          37.000  
C28  22447069.456 4 116887749.84632     -2391.715          38.000  
G21  20805888.024 4 109335677.346 2     -1501.695          39.000  
C23  23379657.813 9                     -2472.302          25.000  
G 8  22274307.024 9                     -3061.536          21.000  
C27  22497700.861 9                       387.407          14.000  
C 3  36723499.362 8 191228866.56633      -768.071          34.000  
G 1  20637100.016 4 108448688.22222      1140.193          41.000  
C 8  38054279.046 9                       743.051          25.000  
G30  22962116.762 4 120666800.481 2      2037.375          39.000  
C13  38836888.959 9                       751.942          12.000  
C10  37533189.535 4 195445163.270 3      -523.962          35.000  
C 7  36960392.804 8 192462437.84832      -440.176          35.000  
> 2021  5 18  3  8 46.0010000  0 13                     
G 7  20588180.198 4 108191625.48122       149.440          36.000  
C28  22447529.077 4 116890141.84021     -2391.678          38.000  
G21  20806176.999 4 109337179.667 1     -1502.306          39.000  
C23  23380133.471 9 121746455.00535     -2473.861          27.000  
G 8  22274887.960 9                     -3065.842          23.000  
C27  22497628.975 9                       377.969          15.000  
C 3  36723646.947 8 191229634.82832      -768.295          34.000  
G 1  20636886.408 2 108447548.32321      1139.801          41.000  
C 8  38054137.935 8 198157841.98135       743.809          27.000  
G30  22961730.380 4 120664764.069 1      2036.548          39.000  
C13  38836744.061 9                       751.942          12.000  
C10  37533290.711 4 195445686.890 2      -523.395          35.000  
C 7  36960476.338 4 192462877.99622      -439.457          36.000  
> 2021  5 18  3  8 47.0010000  0 13                     
G 7  20588152.382 4 108191476.30322       148.644          33.000  
C28  22447988.149 2 116892533.85621     -2392.457          39.000  
G21  20806461.281 2 109338682.351 1     -1503.159          34.000  
C23  23380610.673 9 121748928.77824     -2474.196          28.000  
G 8  22275469.916 9                     -3063.125          21.000  
C27  22497557.839 9                       378.959          16.000  
C 3  36723794.428 4 191230402.76322      -767.667          34.000  
G 1  20636668.367 2 108446408.76121      1139.117          37.000  
C 8  38053993.622 8 198157098.21724       744.018          29.000  
G30  22961342.784 4 120662727.702 1      2036.217          36.000  
C13  38836600.577 9                       751.942          11.000  
C10  37533391.931 4 195446210.156 1      -523.260          35.000  
C 7  36960562.568 2 192463317.82121      -440.415          36.000  
> 2021  5 18  3  8 48.0010000  0 13                     
G 7  20588124.095 4 108191327.64122       148.885          33.000  
C28  22448447.473 2 116894926.06721     -2392.291          38.000  
G21  20806746.121 2 109340185.592 1     -1503.481          35.000  
C23  23381086.052 8 121751402.81823     -2473.953          28.000  
G 8  22276053.329 9                     -3067.958          20.000  
C27  22497486.660 9                       378.959          16.000  
C 3  36723942.048 4 191231171.66832      -767.781          34.000  
G 1  20636454.375 2 108445269.71321      1138.750          37.000  
C 8  38053854.526 4 198156354.43223       744.069          29.000  
G30  22960954.787 4 120660691.589 1      2035.629          34.000  
C13  38836457.406 9                       751.942          11.000  
C10  37533494.678 4 195446733.246 1      -522.852          36.000  
C 7  36960645.989 2 192463757.44121      -439.416          36.000  
> 2021  5 18  3  8 49.0010000  0 13                     
G 7  20588096.349 9 108191176.16935       148.828          36.000  
C28  22448905.603 2 116897318.17521     -2392.208          41.000  
G21  20807031.144 9 109341686.51434     -1503.375          39.000  
C23  23381556.047 8 121753865.86635     -2473.583          32.000  
G 8  22276637.370 9                     -3066.457          20.000  
C27  22497413.919 9                       375.351          18.000  
C 3  36724089.432 4 191231939.15232      -767.566          37.000  
G 1  20636234.607 4 108444130.82721      1138.786          42.000  
C 8  38053710.003 8 198155621.92835       744.227          33.000  
G30  22960570.036 8 120658609.84234      2036.003          39.000  
C13  38836311.968 9                       754.888          13.000  
C10  37533594.136 4 195447255.848 2      -522.909          38.000  
C 7  36960730.474 4 192464196.58821      -438.676          40.000  
> 2021  5 18  3  8 50.0010000  0 13                     
G 7  20588069.110 8 108191028.43522       146.763          36.000  
C28  22449365.547 2 116899710.63021     -2392.919          40.000  
G21  20807319.299 4 109343190.67322     -1505.379          38.000  
C23  23382033.180 8 121756340.41824     -2475.519          31.000  
G 8  22277221.490 9                     -3065.143          21.000  
C27  22497343.228 9                       391.320          19.000  
C 3  36724236.895 2 191232706.67622      -767.761          36.000  
G 1  20636018.556 2 108442992.64621      1137.330          40.000  
C 8  38053566.248 8 198154878.01723       744.095          31.000  
G30  22960183.688 4 120656574.03922      2035.274          37.000  
C13  38836169.399 9                       754.888          14.000  
C10  37533694.658 2 195447778.391 1      -523.110          37.000  
C 7  36960814.680 2 192464635.76621      -439.849          37.000  
> 2021  5 18  3  8 51.0010000  0 13                     
G 7  20588040.840 4 108190881.88222       145.894          35.000  
C28  22449824.802 1 116902103.93321     -2393.381          40.000  
G21  20807606.809 4 109344695.99521     -1505.672          38.000  
C23  23382508.611 9                     -2467.529          30.000  
G 8  22277807.843 9                     -3063.700          22.000  
C27  22497269.213 9                       391.320          18.000  
C 3  36724384.193 4 191233474.77422      -768.112          36.000  
G 1  20635801.519 2 108441855.61321      1136.663          40.000  
C 8  38053425.137 8 198154134.85423       743.461          31.000  
G30  22959791.573 4 120654539.10321      2034.587          37.000  
C13  38836025.793 9                       743.998          15.000  
C10  37533794.822 2 195448301.413 1      -522.878          37.000  
C 7  36960898.319 2 192465075.410 1      -439.520          37.000  
> 2021  5 18  3  8 52.0010000  0 13                     
G 7  20588012.841 4 108190736.08022       146.132          35.000  
C28  22450284.528 1 116904497.73121     -2393.654          40.000  
G21  20807892.199 4 109346202.16721     -1506.230          37.000  
C23  23382983.344 9                     -2478.369          29.000  
G 8  22278394.703 9                     -3062.440          22.000  
C27  22497197.204 9                       382.466          16.000  
C 3  36724531.778 2 191234243.11521      -768.987          36.000  
G 1  20635586.986 2 108440719.41021      1136.108          40.000  
C 8  38053282.447 8 198153391.92023       743.035          31.000  
G30  22959408.392 4 120652504.72321      2034.657          37.000  
C13  38835882.474 9                       743.998          14.000  
C10  37533895.606 2 195448824.578 1      -522.876          37.000  
C 7  36960982.839 2 192465515.220 1      -440.019          37.000  
> 2021  5 18  3  8 53.0010000  0 13                     
G 7  20587983.734 4 108190591.04822       145.087          35.000  
C28  22450744.524 1 116906891.90821     -2393.984          40.000  
G21  20808179.621 4 109347709.09421     -1507.062          37.000  
C23  23383457.519 9 121763767.50734     -2477.312          30.000  
G 8  22278984.276 9                     -3066.731          23.000  
C27  22497127.909 9                       377.320          15.000  
C 3  36724679.215 2 191235010.55832      -768.577          36.000  
G 1  20635367.393 2 108439584.00621      1134.761          39.000  
C 8  38053141.336 8 198152649.37123       742.449          32.000  
G30  22959020.745 2 120650470.69221      2034.255          37.000  
C13  38835739.504 9                       758.414          15.000  
C10  37533996.040 2 195449347.699 1      -522.942          37.000  
C 7  36961067.490 2 192465954.987 1      -439.741          37.000  
> 2021  5 18  3  8 54.0010000  0 12                     
G 7  20587955.936 4 108190445.89323       144.179          31.000  
C28  22451203.901 4 116909284.77822     -2391.382          32.000  
G21  20808466.529 9                     -1507.535          26.000  
C23  23383936.205 9                     -2475.181          23.000  
G 8  22279564.714 9                     -3064.259          23.000  
C27  22497053.964 9                       382.533          15.000  
G 1  20635152.703 2 108438450.53021      1130.990          38.000  
C 8  38052996.089 8 198151908.93824       736.971          25.000  
G30  22958638.105 4 120648434.43722      2039.838          37.000  
C13  38835594.502 9                       755.155          15.000  
C10  37534096.021 4 195449868.485 3      -517.692          30.000  
C 7  36961150.832 4 192466392.960 2      -435.738          31.000  
> 2021  5 18  3  8 55.0010000  0 13                     
G 7  20587926.210 8 108190299.93623       145.983          32.000  
C28  22451662.798 4 116911674.34022     -2388.684          39.000  
G21  20808749.990 9                     -1509.037          32.000  
C23  23384412.238 9                     -2476.217          31.000  
G 8  22280145.108 9                     -3056.317          21.000  
C27  22496980.106 9                       375.465          19.000  
C 3  36724978.285 9                      -778.914          36.000  
G 1  20634937.262 2 108437321.945 1      1127.459          39.000  
C 8  38052852.988 8 198151174.76423       731.613          35.000  
G30  22958249.995 4 120646392.41822      2043.647          35.000  
C13  38835451.305 9                       755.155          16.000  
C10  37534195.182 4 195450384.068 2      -513.973          36.000  
C 7  36961234.541 4 192466826.945 2      -432.311          37.000  
> 2021  5 18  3  8 56.0010000  0 13                     
G 7  20587895.925 4 108190153.67122       146.062          37.000  
C28  22452121.346 4 116914061.53622     -2386.880          39.000  
G21  20809036.706 9                     -1509.013          27.000  
C23  23384889.990 9                     -2479.660          25.000  
G 8  22280726.628 9                     -3091.250          22.000  
C27  22496903.255 9                       370.866          23.000  
C 3  36725123.393 9                      -777.462          35.000  
G 1  20634723.890 2 108436197.288 1      1123.157          37.000  
C 8  38052714.730 9 198150439.56035       726.970          32.000  
G30  22957860.384 4 120644346.31322      2047.945          35.000  
C13  38835306.818 9                       762.232          16.000  
C10  37534293.409 4 195450895.700 2      -509.756          35.000  
C 7  36961317.368 4 192467257.845 2      -430.021          37.000  
> 2021  5 18  3  8 57.0010000  0 13                     
G 7  20587868.807 4 108190006.63022       145.949          39.000  
C28  22452579.310 4 116916446.221 2     -2384.451          36.000  
G21  20809323.343 8 109353735.35533     -1509.427          38.000  
C23  23385366.913 9                     -2480.260          23.000  
G 8  22281310.661 9                     -3075.936          21.000  
C27  22496826.884 9                       374.906          23.000  
C 3  36725276.038 9 191238102.12234      -780.877          32.000  
G 1  20634510.822 2 108435075.609 1      1120.245          41.000  
C 8  38052574.456 8 198149714.02925       722.168          29.000  
G30  22957471.602 9                      2074.194          25.000  
C13  38835158.220 9                       783.960          15.000  
C10  37534391.009 8 195451403.329 3      -506.485          33.000  
C 7  36961398.678 8 192467685.676 3      -426.043          34.000  
> 2021  5 18  3  8 58.0010000  0 13                     
G 7  20587842.937 4 108189859.33922       148.295          36.000  
C28  22453037.090 8 116918829.239 3     -2381.674          32.000  
G21  20809612.258 8 109355249.79235     -1511.505          32.000  
C23  23385839.055 9                     -2480.260          20.000  
G 8  22281896.953 9                     -3084.666          20.000  
C27  22496739.293 9 117146393.11234       373.757          36.000  
C 3  36725426.887 9                      -780.877          30.000  
G 1  20634298.890 4 108433956.715 2      1117.404          38.000  
C 8  38052436.600 9                       721.488          27.000  
G30  22957082.924 9                      2052.600          24.000  
C13  38835006.901 9                       783.960          14.000  
C10  37534486.042 9                      -503.820          31.000  
C 7  36961481.261 8 192468111.367 4      -424.173          33.000  
> 2021  5 18  3  8 59.0010000  0 15                     
G 7  20587815.253 4 108189712.05122       147.652          35.000  
C28  22453494.609 4 116921211.552 3     -2381.697          33.000  
G21  20809901.181 8                     -1512.890          28.000  
C23  23386312.907 9                     -2494.250          26.000  
G 8  22282482.539 9                     -3083.951          19.000  
C27  22496665.496 8 117146019.26622       373.822          36.000  
C 3  36725576.016 9                      -776.514          30.000  
G 1  20634086.573 4 108432839.919 2      1115.098          37.000  
C 2  37374897.790 9                      -799.547          29.000  
C 8  38052292.592 9                       719.770          27.000  
G30  22956699.490 9                      2057.489          23.000  
C13  38834856.750 9                       776.599          13.000  
C10  37534583.380 8 195452389.84333      -501.131          32.000  
C 7  36961564.001 8 192468535.864 3      -425.219          33.000  
C 9  37585865.800 9                     -2382.594          18.000  
> 2021  5 18  3  9  0.0010000  0 14                     
G 7  20587785.709 8 108189564.91923       146.609          34.000  
C28  22453953.017 8 116923592.134 3     -2378.612          32.000  
G21  20810189.808 8 109358274.23525     -1514.296          31.000  
C23  23386795.275 9                     -2496.885          22.000  
G 8  22283070.419 9                     -3083.558          18.000  
C27  22496595.730 8 117145646.81722       370.531          33.000  
C 3  36725729.247 9                      -790.430          28.000  
G 1  20633874.012 4 108431724.622 2      1114.264          36.000  
C 2  37375042.164 9                      -802.100          28.000  
C 8  38052159.141 9                       717.116          25.000  
G30  22956308.815 9                      2052.669          21.000  
C10  37534681.825 8 195452890.70124      -499.701          30.000  
C 7  36961643.426 9 192468944.60335      -420.136          31.000  
C 9  37586318.913 9                     -2387.599          22.000  
> 2021  5 18  3  9  1.0010000  0 14                     
G 7  20587757.457 4 108189417.95612       145.897          34.000  
C28  22454411.434 8 116925971.563 3     -2378.885          33.000  
G21  20810475.110 8 109359786.93425     -1512.530          29.000  
C23  23387277.145 9                     -2496.885          20.000  
G 8  22283659.329 9                     -3083.558          17.000  
C27  22496526.488 9                       365.947          22.000  
C 3  36725879.336 9                      -794.336          28.000  
G 1  20633661.014 4 108430611.850 1      1111.146          37.000  
C 2  37375197.070 9                      -781.836          27.000  
C 8  38052021.215 9                       717.428          25.000  
G30  22955915.260 9                      2055.576          34.000  
C10  37534774.652 8 195453389.75824      -498.017          30.000  
C 7  36961726.428 8 192469365.05523      -419.822          31.000  
C 9  37586770.271 9                     -2384.927          25.000  
> 2021  5 18  3  9  2.0010000  0 12                     
G 7  20587729.947 9 108189250.56535       146.636          34.000  
C28  22454862.688 8 116928350.587 3     -2379.099          32.000  
G21  20810761.599 9                     -1518.551          26.000  
C23  23387763.718 9                     -2498.915          20.000  
G 8  22284242.419 9                     -3052.308          14.000  
C27  22496453.476 9                       360.154          21.000  
C 3  36726031.214 9                      -791.602          28.000  
G 1  20633450.826 4 108429501.596 2      1110.408          36.000  
G30  22955513.050 9 120632034.89734      2059.182          32.000  
C10  37534870.087 8 195453887.48824      -497.521          29.000  
C 6  38641614.671 9                     -2447.759          10.000  
C 7  36961806.978 8 192469784.67224      -418.404          30.000  
> 2021  5 18  3  9  3.0010000  0 10                     
G 7  20587702.114 8 108189104.88023       145.833          34.000  
C28  22455319.884 8 116930729.513 3     -2380.080          26.000  
G21  20811047.809 9                     -1517.257          25.000  
C23  23388240.685 9                     -2525.044          24.000  
C27  22496380.534 9                       369.751          29.000  
C 3  36726182.638 9                      -787.894          29.000  
G 1  20633239.059 4 108428393.090 2      1107.293          36.000  
G30  22955116.581 8 120629974.10823      2061.740          31.000  
C10  37534966.909 8 195454383.80623      -495.623          30.000  
C 7  36961886.080 9                      -421.012          28.000  
> 2021  5 18  3  9  4.0010000  0  9                     
G 7  20587674.342 4 108188959.48123       145.000          34.000  
C28  22455781.477 9                     -2373.026          23.000  
G21  20811337.474 9                     -1515.108          26.000  
C27  22496313.037 9 117144173.36734       368.145          36.000  
G 1  20633028.514 4 108427286.284 2      1106.807          36.000  
C 8  38051603.509 9                       709.272          26.000  
G30  22954725.426 8 120627911.95223      2064.226          35.000  
C10  37535063.392 8 195454878.84023      -494.316          30.000  
C 7  36961964.562 9                      -411.920          16.000  
> 2021  5 18  3  9  5.0010000  0 10                     
G 7  20587646.945 4 108188814.29522       145.010          34.000  
C28  22456235.968 9                     -2373.026          20.000  
G21  20811627.086 8 109365838.37433     -1516.395          34.000  
C27  22496236.709 8 117143805.28622       369.101          36.000  
C 2  37375814.258 9                      -783.422          30.000  
G 1  20632819.137 4 108426180.608 1      1104.957          36.000  
G30  22954335.169 8 120625845.23234      2062.969          35.000  
C10  37535158.993 8 195455372.83924      -493.556          30.000  
C 7  36962044.013 9                      -425.310          14.000  
C 9  37588606.026 9                     -2389.645          28.000  
> 2021  5 18  3  9  6.0010000  0 10                     
G 7  20587619.487 4 108188669.49323       144.709          35.000  
C28  22456693.373 9                     -2373.026          14.000  
G21  20811919.403 8 109367355.76023     -1517.655          34.000  
C27  22496165.486 8 117143437.44122       368.229          32.000  
C23  23389679.002 9                     -2503.048          28.000  
G 1  20632608.190 4 108425075.392 2      1105.462          36.000  
G30  22953942.644 8 120623782.34423      2063.589          34.000  
C10  37535251.374 8 195455866.48424      -493.454          28.000  
C 7  36962125.052 9                      -425.310          13.000  
C 9  37589064.696 9                     -2389.559          27.000  
> 2021  5 18  3  9  7.0010000  0 12                     
G 7  20587592.073 4 108188525.26022       143.727          35.000  
C28  22457149.984 9                     -2379.997          16.000  
G21  20812207.009 9                     -1517.078          20.000  
C 3  36726781.111 9                      -816.414          28.000  
C27  22496097.736 4 117143069.59721       368.394          36.000  
C23  23390158.961 9                     -2503.607          31.000  
G 1  20632397.941 2 108423970.376 1      1105.174          37.000  
C16  39116215.083 9                     -2505.943          28.000  
G30  22953549.325 4 120621720.01222      2061.641          35.000  
C10  37535348.877 4 195456360.16223      -493.509          30.000  
C 7  36962208.106 9                      -425.310          12.000  
C 9  37589525.033 9 195738480.98434     -2388.994          27.000  
> 2021  5 18  3  9  8.0010000  0 13                     
G 7  20587564.580 4 108188381.09822       144.591          38.000  
C28  22457605.993 9 116942615.80434     -2379.052          34.000  
G21  20812498.899 9                     -1517.078          16.000  
G 8  22287700.389 9                     -3037.653          36.000  
C27  22496028.153 4 117142701.44621       368.574          37.000  
C23  23390639.802 9                     -2522.087          26.000  
G 1  20632187.736 2 108422865.492 1      1104.962          39.000  
C 8  38051065.414 9                       709.248          26.000  
G30  22953157.986 4 120619657.59322      2063.292          39.000  
C10  37535441.773 4 195456853.38123      -492.918          32.000  
C 7  36962285.559 9                      -417.354          33.000  
G17  24134154.372 9                      1128.771          22.000  
C 9  37589984.950 8 195740869.30323     -2386.936          29.000  
> 2021  5 18  3  9  9.0010000  0 12                     
G 7  20587537.288 4 108188237.64022       143.056          38.000  
C28  22458064.611 8 116944994.99622     -2380.095          37.000  
G21  20812787.159 9                     -1517.078          12.000  
G 8  22288220.004 9 117125386.38233     -3039.388          38.000  
C27  22495956.284 2 117142333.58921       367.441          40.000  
C 2  37376441.462 9                      -798.508          32.000  
G 1  20631977.609 2 108421761.398 1      1103.881          40.000  
C 8  38050932.286 9 198141142.59635       709.062          27.000  
G30  22952766.046 2 120617595.37321      2062.134          37.000  
C10  37535539.172 4 195457346.597 2      -493.093          33.000  
C 7  36962366.336 8 192472705.79333      -416.807          34.000  
C 9  37590445.025 8 195743257.75123     -2387.655          31.000  
> 2021  5 18  3  9 10.0010000  0 14                     
G 7  20587510.258 4 108188095.03822       142.723          38.000  
C28  22458520.001 4 116947374.90222     -2378.913          37.000  
G21  20813074.582 9                     -1521.412          38.000  
C 3  36727239.528 9                      -795.859          34.000  
G 8  22288797.319 8 117128426.48222     -3039.721          38.000  
C27  22495886.588 2 117141966.09221       367.245          40.000  
C 2  37376590.618 9                      -801.855          32.000  
G 1  20631767.613 1 108420657.688 1      1103.943          40.000  
C 8  38050793.435 9 198140433.13424       712.299          29.000  
G30  22952373.808 4 120615534.18522      2061.040          37.000  
C13  38833345.893 9                       713.858          29.000  
C10  37535630.916 4 195457840.280 2      -492.228          34.000  
C 7  36962447.034 8 192473123.53622      -418.186          34.000  
C 9  37590904.045 8 195745645.83423     -2386.313          31.000  
> 2021  5 18  3  9 11.0010000  0 16                     
G 7  20587483.061 2 108187952.93621       141.869          37.000  
C28  22458977.572 4 116949755.29222     -2380.582          37.000  
G21  20813365.049 8 109374965.33133     -1519.735          38.000  
C 3  36727388.562 9                      -790.137          31.000  
G 8  22289373.664 4 117131467.06922     -3040.781          39.000  
C27  22495815.705 2 117141598.42121       367.957          40.000  
C 2  37376743.962 9 194630482.67834      -805.245          32.000  
G 1  20631557.408 1 108419553.712 1      1104.375          40.000  
C 6  38645885.926 9                     -2415.663          26.000  
C16  39118160.224 9                     -2499.243          30.000  
C 8  38050658.021 8 198139730.03535       710.357          29.000  
G30  22951981.667 2 120613473.61721      2060.062          37.000  
C13  38833204.084 9 202214652.18635       715.921          28.000  
C10  37535727.817 4 195458334.247 2      -494.474          34.000  
C 7  36962529.207 4 192473541.38322      -418.932          34.000  
C 9  37591362.113 4 195748033.07122     -2386.400          32.000  
> 2021  5 18  3  9 12.0010000  0 17                     
G 7  20587456.136 2 108187811.80421       140.581          38.000  
C28  22459434.872 4 116952136.59622     -2382.726          38.000  
G21  20813652.079 4 109376485.88222     -1519.888          38.000  
C 3  36727541.059 9 191249912.06133      -786.423          36.000  
G 8  22289956.894 4 117134508.53921     -3042.453          40.000  
C27  22495745.303 2 117141231.12621       367.365          41.000  
C23  23392563.418 9 121811184.61935     -2503.545          39.000  
C 2  37376902.357 8 194631288.48722      -805.177          34.000  
G 1  20631347.107 1 108418449.370 1      1104.473          40.000  
C 6  38646340.957 9                     -2413.596          27.000  
C16  39118634.913 9 203700993.09034     -2498.407          32.000  
C 8  38050523.026 8 198139018.32024       714.302          31.000  
G30  22951589.988 2 120611414.95021      2057.437          39.000  
C13  38833066.332 9 202213935.49523       718.909          30.000  
C10  37535821.228 4 195458829.280 2      -496.655          35.000  
C 7  36962608.257 4 192473959.79122      -419.307          35.000  
C 9  37591821.490 4 195750419.65722     -2385.820          34.000  
> 2021  5 18  3  9 13.0010000  0 18                     
G 7  20587429.681 2 108187671.76011       138.657          40.000  
C28  22459891.727 4 116954519.78722     -2384.278          40.000  
G21  20813941.866 4 109378007.14321     -1521.806          38.000  
C 3  36727694.194 4 191250697.48422      -784.742          37.000  
G 8  22290533.650 2 117137552.28121     -3045.374          41.000  
C27  22495674.708 1 117140864.15521       366.962          42.000  
C 1  37671846.775 9                      -813.367          33.000  
C23  23393042.235 8 121813687.61922     -2502.451          39.000  
C 2  37377056.477 4 194632093.62222      -804.315          34.000  
G 1  20631136.997 1 108417344.345 1      1105.601          42.000  
C 6  38646805.351 9 201244018.46935     -2411.104          28.000  
C16  39119117.307 8 203703490.34322     -2495.764          34.000  
C 8  38050384.332 8 198138304.85323       715.984          31.000  
G30  22951198.903 1 120609358.85111      2053.986          42.000  
C13  38832924.924 9 202213216.35824       719.781          31.000  
C10  37535916.323 4 195459326.500 1      -498.583          37.000  
C 7  36962688.624 4 192474379.88022      -421.349          37.000  
C 9  37592279.261 4 195752804.99022     -2384.944          36.000  
> 2021  5 18  3  9 14.0010000  0 19                     
G 7  20587403.541 2 108187533.715 1       137.432          40.000  
C28  22460351.235 4 116956905.15022     -2387.048          40.000  
G21  20814232.168 2 109379528.84121     -1521.844          39.000  
C 3  36727843.009 4 191251481.19622      -783.142          36.000  
G 8  22291113.896 2 117140598.73521     -3047.430          41.000  
C27  22495604.401 1 117140497.29121       366.971          42.000  
C 1  37672006.558 9                      -814.209          33.000  
C23  23393524.567 4 121816189.14322     -2500.909          39.000  
C 2  37377212.701 4 194632897.83322      -803.313          35.000  
G 1  20630926.408 1 108416238.047 1      1107.344          42.000  
C 6  38647268.236 8 201246426.72025     -2406.673          27.000  
C16  39119595.312 4 203705984.53122     -2492.871          34.000  
C 8  38050245.454 8 198137588.79024       717.817          29.000  
G30  22950808.454 1 120607306.746 1      2049.590          40.000  
C13  38832786.614 8 202212493.73224       725.003          30.000  
C 4  38608109.284 9                      -768.977          28.000  
C10  37536012.806 2 195459826.391 1      -501.348          37.000  
C 7  36962770.212 4 192474801.95723      -422.873          37.000  
C 9  37592736.675 4 195755188.49122     -2382.158          34.000  
> 2021  5 18  3  9 15.0010000  0 18                     
G 7  20587377.688 2 108187397.418 1       135.514          36.000  
C28  22460809.408 4 116959293.355 2     -2389.763          39.000  
G21  20814521.196 4 109381051.07422     -1521.591          33.000  
C 3  36727992.156 9 191252261.56935      -780.327          34.000  
G 8  22291693.793 2 117143648.92721     -3051.966          38.000  
C27  22495533.937 1 117140129.63611       367.165          40.000  
C 1  37672162.074 9                      -805.029          33.000  
C23  23394003.750 4 121818688.58122     -2497.797          36.000  
C 2  37377365.599 4 194633719.44232      -801.742          34.000  
G 1  20630715.801 1 108415129.933 1      1109.566          38.000  
C 6  38647732.368 8 201248830.54224     -2401.229          28.000  
C16  39120074.609 8 203708474.38523     -2487.585          33.000  
C 8  38050110.634 9                       728.004          27.000  
G30  22950418.625 2 120605259.059 1      2045.121          36.000  
C13  38832650.397 8 202211766.69723       729.221          32.000  
C10  37536109.174 4 195460329.630 2      -504.715          35.000  
C 7  36962850.763 4 192475226.24212      -425.630          36.000  
C 9  37593194.072 4 195757569.34522     -2379.451          34.000  
> 2021  5 18  3  9 16.0010000  0 19                     
G 7  20587352.159 2 108187263.065 1       133.202          35.000  
C28  22461268.681 4 116961684.741 2     -2392.701          39.000  
G21  20814811.219 4 109382573.76322     -1522.860          34.000  
C 3  36728141.635 8 191253040.38322      -777.693          35.000  
G 8  22292274.606 2 117146703.34121     -3056.282          36.000  
C27  22495463.246 1 117139762.222 1       367.844          43.000  
C 1  37672318.620 9 196169617.61935      -807.147          33.000  
C23  23394484.914 4 121821185.47822     -2496.133          38.000  
C 2  37377518.934 4 194634520.39523      -799.501          34.000  
G 1  20630504.715 1 108414019.517 1      1111.561          38.000  
C 6  38648192.844 8 201251229.03524     -2395.974          28.000  
C16  39120551.017 8 203710959.33224     -2482.483          32.000  
C 8  38049970.422 9                       724.622          25.000  
G30  22950029.956 2 120603216.541 1      2040.212          36.000  
C13  38832509.818 8 202211034.48124       734.823          33.000  
C10  37536206.529 4 195460837.014 2      -509.604          36.000  
C 7  36962933.154 4 192475654.098 2      -429.456          36.000  
G17  24132494.324 9                      1119.577          22.000  
C 9  37593649.034 4 195759946.65312     -2375.732          34.000  
> 2021  5 18  3  9 17.0010000  0 19                     
G 7  20587326.934 2 108187130.358 2       131.761          36.000  
C28  22461728.398 2 116964078.765 1     -2395.524          39.000  
G21  20815101.913 2 109384096.69221     -1523.038          35.000  
C 3  36728290.581 4 191253816.68922      -775.435          35.000  
G 8  22292856.824 2 117149761.20021     -3059.408          37.000  
C27  22495392.625 1 117139394.589 1       367.506          41.000  
C 1  37672471.981 8 196170424.09324      -806.017          33.000  
C23  23394962.474 4 121823679.81522     -2493.309          36.000  
C 2  37377672.409 4 194635319.91122      -799.898          35.000  
G 1  20630293.000 1 108412906.942 1      1113.213          38.000  
C 6  38648653.984 8                     -2391.875          27.000  
C16  39121029.092 8 203713439.87323     -2479.041          33.000  
G30  22949642.169 2 120601178.481 1      2035.910          36.000  
C13  38832368.655 8 202210297.49124       738.737          32.000  
C10  37536304.547 2 195461347.747 1      -512.393          36.000  
G 9  24257351.208 9                     -3100.339          23.000  
C 7  36963015.702 4 192476084.377 2      -431.382          36.000  
G17  24132271.302 9                      1119.577          21.000  
C 9  37594105.217 4 195762321.840 2     -2374.985          34.000  
> 2021  5 18  3  9 18.0010000  0 19                     
G 7  20587302.050 2 108186999.137 1       130.174          38.000  
C28  22462188.708 2 116966475.182 1     -2397.805          39.000  
G21  20815391.901 2 109385620.05721     -1523.053          39.000  
C 3  36728439.501 4 191254590.85322      -773.190          35.000  
G 8  22293439.469 2 117152822.17922     -3062.176          39.000  
C27  22495321.917 2 117139026.664 1       368.515          40.000  
C 1  37672626.372 8 196171220.19333      -801.708          33.000  
C23  23395440.462 4 121826172.23922     -2491.387          36.000  
C 2  37377825.753 4 194636115.86732      -797.522          34.000  
C 4  38608702.783 9                      -796.281          28.000  
G 1  20630080.936 2 108411792.638 1      1115.516          41.000  
C 6  38649111.223 8                     -2387.640          26.000  
C16  39121503.991 4 203715916.43422     -2474.127          34.000  
G30  22949254.879 4 120599144.287 2      2032.854          34.000  
C13  38832223.320 9                       742.600          31.000  
C10  37536403.298 4 195461861.376 2      -513.822          36.000  
G 9  24257921.359 9                     -3100.339          26.000  
C 7  36963098.818 4 192476516.948 2      -433.424          36.000  
C 9  37594560.720 4 195764694.393 3     -2370.054          32.000  
> 2021  5 18  3  9 19.0010000  0 18                     
G 7  20587277.524 2 108186869.089 1       129.994          39.000  
C28  22462648.949 2 116968873.561 1     -2398.864          38.000  
G21  20815681.845 2 109387143.15511     -1523.007          38.000  
C 3  36728587.880 2 191255363.04721      -771.290          35.000  
G 8  22294022.402 4 117155885.22312     -3063.511          39.000  
C27  22495251.016 1 117138658.452 1       368.495          41.000  
C 1  37672779.986 8 196172019.31133      -800.670          33.000  
C23  23395919.775 4 121828663.04122     -2490.723          37.000  
C 2  37377978.599 4 194636911.47732      -796.141          34.000  
G 1  20629868.471 1 108410676.885 1      1116.091          42.000  
C 6  38649567.808 8                     -2384.736          26.000  
C16  39121979.178 4 203718389.48822     -2471.509          35.000  
G30  22948869.325 8 120597113.352 3      2030.449          32.000  
C13  38832079.967 8 202208799.05835       745.162          32.000  
C10  37536502.389 2 195462377.352 1      -516.769          36.000  
G 9  24258509.920 9                     -3087.701          31.000  
C 7  36963182.134 4 192476951.212 2      -434.371          36.000  
C 9  37595015.944 4 195767064.776 2     -2368.514          34.000  
> 2021  5 18  3  9 20.0010000  0 18                     
G 7  20587253.059 2 108186740.161 1       128.238          39.000  
C28  22463109.827 2 116971273.474 1     -2399.335          38.000  
G21  20815972.077 2 109388667.435 1     -1525.380          38.000  
C 3  36728735.867 2 191256133.92021      -770.534          35.000  
G 8  22294605.589 2 117158950.826 1     -3066.707          41.000  
C27  22495180.221 1 117138290.116 1       368.375          41.000  
C 1  37672934.037 4 196172822.13023      -799.426          36.000  
C23  23396397.850 4 121831152.70322     -2488.398          36.000  
C 2  37378131.402 4 194637707.01122      -795.512          34.000  
G 1  20629655.980 1 108409560.270 1      1117.435          42.000  
C 6  38650026.836 8 201260801.27135     -2381.371          28.000  
C16  39122452.358 4 203720860.10922     -2468.524          33.000  
G30  22948482.689 8 120595084.903 5      2027.197          26.000  
C13  38831939.781 8 202208051.74124       748.420          32.000  
C10  37536601.742 2 195462895.006 1      -518.969          35.000  
G 9  24259104.684 9                     -3086.963          30.000  
C 7  36963265.764 4 192477386.901 2      -437.185          36.000  
C 9  37595471.151 4 195769433.664 2     -2368.727          35.000  
> 2021  5 18  3  9 21.0010000  0 17                     
G 7  20587228.899 2 108186612.392 1       126.826          39.000  
C28  22463571.202 2 116973674.982 1     -2401.833          38.000  
G21  20816262.047 2 109390192.052 1     -1524.126          37.000  
C 3  36728883.635 2 191256903.52632      -768.340          35.000  
G 8  22295189.499 1 117162018.185 1     -3068.248          41.000  
C27  22495109.547 1 117137921.846 1       368.316          42.000  
C 1  37673087.747 4 196173621.50923      -797.841          32.000  
C23  23396875.916 4 121833641.47822     -2488.070          36.000  
C 2  37378284.022 4 194638501.78732      -794.068          34.000  
G 1  20629443.428 1 108408442.970 1      1117.813          41.000  
C 6  38650484.451 8 201263182.07625     -2378.670          28.000  
C16  39122925.974 4 203723328.51122     -2466.803          34.000  
G30  22948098.514 8 120593058.815 4      2024.639          29.000  
C13  38831796.837 8 202207301.92524       750.434          32.000  
C10  37536701.487 2 195463414.398 1      -519.742          36.000  
C 7  36963349.725 4 192477823.757 2      -435.604          34.000  
C 9  37595926.017 4 195771801.128 2     -2366.663          35.000  
> 2021  5 18  3  9 22.0010000  0 15                     
G 7  20587204.765 2 108186485.571 1       126.052          39.000  
C28  22464032.472 2 116976077.740 1     -2403.518          36.000  
G21  20816552.646 2 109391717.244 1     -1525.833          38.000  
C 3  36729031.343 4 191257673.13932      -767.716          35.000  
C27  22495038.665 1 117137553.691 1       367.906          40.000  
C 1  37673240.995 4 196174419.85623      -797.751          32.000  
C23  23397354.009 2 121836129.00811     -2488.406          37.000  
C 2  37378436.510 4 194639295.89832      -794.579          33.000  
G 1  20629230.901 1 108407325.179 1      1117.431          41.000  
C 6  38650945.564 4 201265560.98824     -2378.679          28.000  
C16  39123400.734 4 203725794.60512     -2466.272          34.000  
C13  38831656.136 8 202206550.45524       751.677          31.000  
C10  37536801.494 4 195463935.005 2      -520.747          35.000  
C 7  36963433.827 2 192478261.689 2      -437.939          35.000  
C 9  37596380.534 4 195774167.558 2     -2366.515          33.000  
> 2021  5 18  3  9 23.0010000  0 17                     
G 7  20587180.998 1 108186359.676 1       125.439          39.000  
C28  22464493.882 2 116978481.134 1     -2403.686          37.000  
G21  20816843.235 2 109393243.282 1     -1526.312          38.000  
C 3  36729179.225 4 191258442.95122      -769.298          35.000  
G 8  22296355.322 9 117168137.80434     -3068.861          41.000  
C27  22494968.253 1 117137186.123 1       367.613          41.000  
C 1  37673394.086 9                      -791.064          31.000  
C23  23397831.525 2 121838617.488 1     -2489.204          36.000  
C 2  37378589.008 4 194640090.12722      -794.163          33.000  
G 1  20629018.471 1 108406208.084 1      1116.525          41.000  
C 6  38651397.839 4 201267939.87923     -2378.683          28.000  
C16  39123874.533 4 203728261.138 2     -2466.614          34.000  
C13  38831515.714 8 202205798.89923       751.323          31.000  
C10  37536901.397 2 195464456.018 1      -521.085          35.000  
G 9  24260859.426 9                     -3082.590          26.000  
C 7  36963518.007 2 192478699.904 1      -438.044          35.000  
C 9  37596834.990 4 195776534.052 2     -2366.754          32.000  
> 2021  5 18  3  9 24.0010000  0 18                     
G 7  20587157.170 2 108186234.368 1       125.113          39.000  
C28  22464955.327 2 116980884.785 1     -2403.563          37.000  
G21  20817134.061 2 109394769.894 1     -1526.798          38.000  
C 3  36729326.801 4 191259211.63032      -768.481          35.000  
G 8  22296937.819 9 117171207.13521     -3069.072          41.000  
C27  22494897.903 1 117136818.943 1       367.050          41.000  
C 1  37673547.020 9 196176014.22734      -799.518          32.000  
C23  23398309.225 2 121841106.300 2     -2489.065          35.000  
C 2  37378741.549 4 194640884.38522      -794.265          33.000  
G 1  20628805.936 1 108405091.556 1      1116.193          41.000  
C 6  38651855.017 4 201270318.70524     -2379.056          28.000  
C16  39124347.277 4 203730727.665 2     -2466.821          34.000  
G30  22946916.680 9 120586861.03835      2022.958          28.000  
C13  38831372.081 8 202205047.38923       752.241          31.000  
C10  37537001.561 2 195464976.910 1      -520.953          35.000  
G 9  24261451.678 9                     -3083.227          26.000  
C 7  36963602.117 2 192479138.033 1      -438.444          35.000  
C 9  37597289.577 8 195778900.624 3     -2366.396          32.000  
> 2021  5 18  3  9 25.0010000  0 18                     
G 7  20587133.420 1 108186109.544 1       124.953          39.000  
C28  22465416.876 2 116983288.617 1     -2404.353          37.000  
G21  20817424.938 2 109396297.036 1     -1527.438          37.000  
C 3  36729474.299 4 191259979.16432      -768.256          34.000  
G 8  22297524.417 9 117174280.88935     -3069.211          41.000  
C27  22494827.456 1 117136452.030 1       366.772          41.000  
C 1  37673700.154 8 196176811.45833      -798.413          32.000  
C23  23398787.047 4 121843595.338 2     -2488.843          35.000  
C 2  37378894.003 4 194641678.47232      -794.319          34.000  
G 1  20628593.331 1 108403975.508 1      1115.723          41.000  
C 6  38652313.460 4 201272697.36023     -2379.042          28.000  
C16  39124822.351 4 203733194.041 2     -2466.754          34.000  
G30  22946537.784 9 120584838.11024      2022.554          28.000  
C13  38831227.314 8 202204295.73224       752.597          31.000  
C10  37537101.472 2 195465497.545 1      -520.680          35.000  
G 9  24262049.103 9 127497927.69335     -3083.069          26.000  
C 7  36963686.270 2 192479575.935 1      -437.892          35.000  
C 9  37597744.015 8 195781267.218 3     -2367.305          32.000  
> 2021  5 18  3  9 26.0010000  0 18                     
G 7  20587109.723 1 108185985.095 1       124.389          39.000  
C28  22465878.278 2 116985692.459 1     -2404.159          37.000  
G21  20817715.467 2 109397824.511 1     -1527.630          38.000  
C 3  36729621.806 4 191260747.47422      -767.771          34.000  
G 8  22298109.540 9 117177349.90222     -3068.568          41.000  
C27  22494756.826 1 117136085.272 1       366.878          41.000  
C 1  37673853.341 8 196177609.42123      -797.659          32.000  
C23  23399264.860 4 121846084.524 2     -2489.217          34.000  
C 2  37379046.622 4 194642473.27622      -793.968          34.000  
G 1  20628380.988 1 108402859.790 1      1115.391          41.000  
C 6  38652767.768 4 201275075.73223     -2378.741          29.000  
C16  39125297.162 4 203735660.111 2     -2465.900          34.000  
G30  22946160.030 9 120582815.23523      2022.949          29.000  
C13  38831083.725 8 202203543.88723       751.721          31.000  
C10  37537201.558 2 195466017.859 1      -520.406          36.000  
G 9  24262646.293 8 127501010.87425     -3082.849          26.000  
C 7  36963770.119 2 192480013.509 1      -437.050          35.000  
C 9  37598198.611 4 195783633.528 3     -2366.246          32.000  
> 2021  5 18  3  9 28.0010000  0 18                     
G 7  20587062.799 1 108185738.402 1       122.689          39.000  
C28  22466801.543 2 116990501.341 1     -2404.797          37.000  
G21  20818297.833 2 109400881.699 1     -1529.153          38.000  
C 3  36729917.081 4 191262285.39732      -768.270          34.000  
G 8  22299277.876 2 117183488.47021     -3069.692          40.000  
C27  22494616.483 1 117135353.326 1       365.442          41.000  
C 1  37674159.941 8 196179205.81723      -798.626          32.000  
C23  23400220.731 4 121851064.377 2     -2489.829          34.000  
C 2  37379351.425 4 194644060.26632      -793.681          33.000  
G 1  20627956.608 1 108400630.504 1      1114.343          41.000  
C 6  38653676.584 4 201279832.26313     -2378.772          28.000  
C16  39126243.522 4 203740592.606 2     -2466.235          34.000  
G30  22945398.843 8 120578770.85123      2021.964          29.000  
C13  38830792.900 8 202202040.23414       751.490          31.000  
C10  37537401.442 2 195467058.527 1      -520.152          36.000  
G 9  24263824.157 8 127507177.48924     -3082.379          27.000  
C 7  36963938.260 4 192480888.796 2      -437.881          35.000  
C 9  37599107.549 4 195788366.796 2     -2367.350          32.000  
> 2021  5 18  3  9 29.0010000  0 18                     
G 7  20587039.512 1 108185615.823 1       121.813          37.000  
C28  22467263.267 2 116992906.053 1     -2404.714          36.000  
G21  20818588.746 2 109402411.077 1     -1529.732          35.000  
C 3  36730064.640 4 191263053.70122      -768.279          34.000  
G 8  22299861.341 2 117186557.62921     -3069.113          38.000  
C27  22494546.481 1 117134987.788 1       365.182          41.000  
C 1  37674312.971 4 196180003.77623      -798.130          32.000  
C23  23400699.058 4 121853554.704 2     -2490.482          34.000  
C 2  37379503.958 4 194644854.05222      -794.066          34.000  
G 1  20627744.492 1 108399516.618 1      1113.607          38.000  
C 6  38654136.624 4 201282210.542 3     -2378.330          28.000  
C16  39126717.017 4 203743058.681 2     -2466.498          34.000  
G30  22945016.055 8 120576749.01524      2021.415          29.000  
C13  38830650.000 8 202201288.448 3       751.531          31.000  
C10  37537501.091 2 195467578.561 1      -520.233          35.000  
G 9  24264412.945 9                     -3083.544          26.000  
C 7  36964022.257 4 192481326.166 2      -437.287          35.000  
C 9  37599562.023 4 195790733.387 2     -2367.761          32.000  
> 2021  5 18  3  9 30.0010000  0 18                     
G 7  20587016.259 2 108185493.916 1       121.432          36.000  
C28  22467724.799 2 116995311.105 1     -2404.682          36.000  
G21  20818879.842 2 109403941.126 1     -1530.461          35.000  
C 3  36730212.199 4 191263822.05732      -768.286          34.000  
G 8  22300446.089 2 117189626.92121     -3068.945          38.000  
C27  22494476.742 1 117134622.712 1       364.933          41.000  
C 1  37674466.149 4 196180799.79333      -797.501          32.000  
C23  23401177.116 4 121856045.477 2     -2490.904          34.000  
C 2  37379656.202 4 194645646.90222      -793.988          33.000  
G 1  20627532.393 1 108398403.370 1      1112.747          38.000  
C 6  38654593.584 4 201284588.862 3     -2378.143          28.000  
C16  39127192.893 4 203745524.759 2     -2466.144          34.000  
G30  22944634.820 4 120574727.47624      2021.984          28.000  
C13  38830506.324 8 202200536.845 3       750.833          31.000  
C10  37537601.203 4 195468098.564 2      -520.051          35.000  
G 9  24265001.575 9                     -3082.753          25.000  
C 7  36964106.245 4 192481763.514 2      -436.697          35.000  
C 9  37600016.705 8 195793100.000 3     -2367.049          32.000  
> 2021  5 18  3  9 31.0010000  0 18                     
G 7  20586993.103 2 108185372.238 1       121.764          37.000  
C28  22468186.348 2 116997716.115 1     -2404.926          36.000  
G21  20819170.955 2 109405471.422 1     -1530.504          35.000  
C 3  36730359.610 4 191264589.99122      -767.959          34.000  
G 8  22301030.017 2 117192695.88921     -3069.023          38.000  
C27  22494406.557 1 117134257.670 1       364.869          41.000  
C 1  37674619.074 9 196181596.44324      -797.216          32.000  
C23  23401655.243 4 121858536.208 2     -2490.285          34.000  
C 2  37379808.656 4 194646441.41632      -793.393          33.000  
G 1  20627320.687 2 108397290.345 1      1113.000          39.000  
C 6  38655049.332 4 201286966.864 4     -2378.281          28.000  
C16  39127665.898 4 203747990.464 2     -2465.430          34.000  
G30  22944259.571 4 120572705.98823      2021.913          28.000  
C13  38830359.951 8 202199784.866 3       751.097          31.000  
C10  37537701.219 2 195468618.105 1      -518.983          35.000  
G 9  24265591.480 9                     -3082.341          26.000  
C 7  36964190.372 4 192482200.399 2      -436.058          35.000  
C 9  37600471.205 4 195795466.392 3     -2366.131          32.000  
> 2021  5 18  3  9 32.0010000  0 18                     
G 7  20586969.746 2 108185250.449 1       121.220          37.000  
C28  22468647.985 2 117000120.632 1     -2404.288          36.000  
G21  20819462.077 2 109407001.587 1     -1530.648          35.000  
C 3  36730506.872 4 191265356.18932      -767.389          34.000  
G 8  22301613.457 2 117195764.10121     -3068.251          38.000  
C27  22494336.101 1 117133892.297 1       365.042          41.000  
C 1  37674772.121 8 196182393.37233      -796.594          32.000  
C23  23402133.344 4 121861026.665 2     -2491.242          34.000  
C 2  37379960.996 4 194647234.11622      -792.784          33.000  
G 1  20627108.789 1 108396177.193 1      1112.984          39.000  
C 6  38655505.969 4                     -2376.826          28.000  
C16  39128138.834 4 203750455.394 2     -2464.514          34.000  
G30  22943874.811 4 120570684.07723      2021.411          29.000  
C13  38830213.221 9                       753.381          30.000  
C10  37537800.781 4 195469136.791 2      -518.514          35.000  
G 9  24266180.320 9                     -3084.935          26.000  
C 7  36964273.950 2 192482636.477 1      -435.769          35.000  
C 9  37600925.286 8 195797832.120 4     -2367.008          32.000  
> 2021  5 18  3  9 33.0010000  0 18                     
G 7  20586946.589 2 108185129.694 1       119.956          39.000  
C28  22469109.770 2 117002525.917 1     -2406.101          36.000  
G21  20819753.207 2 109408532.790 1     -1531.790          38.000  
C 3  36730654.457 4 191266123.85222      -768.263          35.000  
G 8  22302197.367 2 117198832.83121     -3069.274          41.000  
C27  22494266.187 1 117133527.757 1       363.593          41.000  
C 1  37674925.246 4 196183190.72123      -798.033          32.000  
C23  23402611.620 4 121863517.803 2     -2491.422          34.000  
C 2  37380113.468 4 194648028.27132      -793.935          33.000  
G 1  20626897.031 1 108395065.073 1      1111.309          42.000  
C 6  38655961.830 8 201291705.13335     -2378.150          28.000  
C16  39128610.653 4 203752920.787 2     -2465.704          34.000  
G30  22943486.125 4 120568662.93723      2019.603          30.000  
C13  38830068.384 8 202198326.41034       751.697          30.000  
C10  37537900.448 4 195469655.848 2      -519.741          35.000  
G 9  24266768.358 9                     -3082.837          27.000  
C 7  36964357.851 4 192483072.934 2      -436.250          35.000  
C 9  37601381.234 8 195800198.331 3     -2367.129          32.000  
> 2021  5 18  3  9 34.0010000  0 18                     
G 7  20586923.677 1 108185009.990 1       119.665          39.000  
C28  22469571.555 2 117004931.857 1     -2405.722          36.000  
G21  20820044.705 2 109410065.085 1     -1532.405          38.000  
C 3  36730802.069 4 191266891.89922      -767.816          35.000  
G 8  22302781.382 1 117201902.00821     -3068.678          41.000  
C27  22494196.447 1 117133164.020 1       364.028          41.000  
C 1  37675078.232 9                      -796.650          32.000  
C23  23403090.192 4 121866009.830 2     -2491.700          34.000  
C 2  37380265.956 4 194648822.86932      -793.758          33.000  
G 1  20626685.534 1 108393953.988 1      1110.704          42.000  
C 6  38656419.043 4 201294083.14124     -2377.625          28.000  
C16  39129085.413 4 203755386.568 2     -2465.179          34.000  
G30  22943094.297 8 120566642.51523      2019.806          31.000  
C13  38829919.307 8 202197574.69124       752.397          30.000  
C10  37538000.246 2 195470175.254 1      -519.044          35.000  
G 9  24267358.847 8                     -3082.568          28.000  
C 7  36964441.568 2 192483509.722 1      -435.805          35.000  
C 9  37601834.067 8 195802564.967 2     -2366.518          32.000  
> 2021  5 18  3  9 35.0010000  0 18                     
G 7  20586900.948 1 108184890.890 1       119.176          39.000  
C28  22470033.454 2 117007338.152 1     -2406.854          36.000  
G21  20820336.333 2 109411597.974 1     -1532.984          37.000  
C 3  36730949.567 4 191267661.97932      -768.856          34.000  
G 8  22303365.546 1 117204971.27621     -3069.190          41.000  
C27  22494126.865 1 117132800.722 1       363.507          41.000  
C 1  37675231.323 8 196184784.69634      -797.201          32.000  
C23  23403568.633 4 121868502.197 2     -2492.122          34.000  
C 2  37380418.183 4 194649615.36222      -793.035          34.000  
G 1  20626474.186 1 108392843.476 1      1110.385          42.000  
C 6  38656875.767 4 201296461.09624     -2377.618          28.000  
C16  39129559.823 4 203757852.340 2     -2465.680          34.000  
G30  22942712.809 8 120564622.41723      2018.968          32.000  
C13  38829774.811 8 202196823.05024       751.444          30.000  
C10  37538099.660 4 195470694.552 2      -518.750          35.000  
G 9  24267944.415 9                     -3082.977          28.000  
C 7  36964525.259 4 192483946.485 2      -436.372          35.000  
C 9  37602286.036 8 195804931.741 2     -2366.367          32.000  
> 2021  5 18  3  9 36.0010000  0 18                     
G 7  20586878.403 2 108184772.374 1       118.486          39.000  
C28  22470495.466 2 117009744.575 1     -2405.986          36.000  
G21  20820627.847 2 109413131.426 1     -1533.101          37.000  
C 3  36731096.812 4 191268427.90632      -768.020          34.000  
G 8  22303949.762 1 117208040.50121     -3068.867          41.000  
C27  22494056.959 1 117132437.753 1       363.084          41.000  
C 1  37675384.301 8 196185582.42524      -798.077          32.000  
C23  23404047.328 4 121870994.902 2     -2493.048          34.000  
C 2  37380570.663 4 194650408.86432      -793.156          34.000  
G 1  20626263.125 1 108391733.514 1      1110.184          42.000  
C 6  38657331.017 4 201298839.02224     -2377.688          28.000  
C16  39130033.003 4 203760317.995 2     -2464.551          34.000  
G30  22942332.403 8 120562602.62023      2019.793          32.000  
C13  38829629.607 8 202196071.27724       752.125          30.000  
C10  37538199.274 2 195471213.707 1      -518.846          35.000  
G 9  24268531.859 9                     -3082.220          28.000  
C 7  36964609.247 2 192484383.089 1      -436.308          35.000  
C 9  37602740.920 8 195807298.530 3     -2366.519          32.000  
> 2021  5 18  3  9 37.0010000  0 19                     
G 7  20586855.848 2 108184654.543 1       117.692          39.000  
C28  22470957.870 2 117012151.433 1     -2406.908          36.000  
G21  20820919.545 2 109414665.584 1     -1534.437          37.000  
C 3  36731244.379 4 191269196.94422      -768.029          35.000  
G 8  22304534.143 1 117211109.86321     -3069.414          41.000  
C27  22493987.324 1 117132075.267 1       362.485          41.000  
C 1  37675537.505 8 196186380.18423      -798.283          32.000  
C23  23404526.031 4 121873488.020 2     -2493.062          34.000  
C 2  37380722.969 4 194651202.46732      -794.249          34.000  
G 1  20626052.431 1 108390624.249 1      1109.209          42.000  
C 6  38657788.387 4 201301216.99724     -2378.108          28.000  
C16  39130506.000 4 203762783.798 2     -2465.631          34.000  
G30  22941948.533 8 120560583.19523      2019.808          32.000  
C13  38829482.624 9                       751.587          30.000  
C10  37538298.854 2 195471732.860 1      -519.265          35.000  
G 9  24269121.135 8 127535077.85634     -3083.038          29.000  
G14  24746328.226 9                      1427.466          18.000  
C 7  36964693.043 2 192484819.718 1      -437.146          35.000  
C 9  37603196.519 4 195809665.455 3     -2366.807          32.000  
> 2021  5 18  3  9 38.0010000  0 19                     
G 7  20586833.643 1 108184537.356 1       116.629          39.000  
C28  22471420.153 2 117014558.576 1     -2407.037          36.000  
G21  20821211.417 2 109416200.394 1     -1535.054          37.000  
C 3  36731391.851 2 191269964.99932      -768.049          34.000  
G 8  22305118.359 1 117214179.30721     -3069.679          41.000  
C27  22493917.785 1 117131713.208 1       362.142          41.000  
C 1  37675690.709 4 196187177.88223      -796.596          32.000  
C23  23405004.778 4 121875981.556 2     -2493.015          34.000  
C 2  37380875.466 4 194651995.99322      -793.600          34.000  
G 1  20625841.607 1 108389515.612 1      1108.229          42.000  
C 6  38658245.452 4 201303594.91823     -2377.800          28.000  
C16  39130979.695 4 203765249.550 2     -2465.936          34.000  
G30  22941562.386 8 120558564.18923      2018.793          32.000  
C13  38829337.185 8 202194522.58034       751.619          30.000  
C10  37538398.608 2 195472251.876 1      -518.254          35.000  
G 9  24269702.812 8 127538160.53924     -3082.678          33.000  
G14  24746066.718 9                      1427.466          18.000  
C 7  36964776.761 4 192485256.263 2      -436.132          35.000  
C 9  37603651.725 4 195812032.417 2     -2366.816          32.000  
> 2021  5 18  3  9 39.0010000  0 19                     
G 7  20586811.298 2 108184421.044 1       116.489          39.000  
C28  22471882.557 2 117016966.280 1     -2407.563          36.000  
G21  20821503.333 2 109417736.074 1     -1535.613          36.000  
C 3  36731539.375 4 191270733.32132      -767.903          34.000  
G 8  22305702.662 1 117217249.00921     -3069.426          40.000  
C27  22493848.394 1 117131351.811 1       361.680          41.000  
C 1  37675843.957 4 196187975.89523      -797.116          32.000  
C23  23405483.899 4 121878475.723 2     -2494.051          34.000  
C 2  37381027.903 4 194652789.82232      -794.228          33.000  
G 1  20625631.113 1 108388407.814 1      1107.818          41.000  
C 6  38658701.575 4 201305973.18524     -2378.612          28.000  
C16  39131453.215 4 203767715.563 2     -2465.460          34.000  
G30  22941180.558 8 120556545.68823      2018.369          31.000  
C13  38829193.465 8 202193771.39725       750.768          30.000  
C10  37538498.292 2 195472771.128 1      -519.111          35.000  
G 9  24270287.508 8 127541243.47624     -3083.154          31.000  
G14  24745802.233 9                      1427.466          18.000  
C 7  36964860.871 4 192485693.013 2      -437.116          35.000  
C 9  37604106.653 4 195814399.752 2     -2367.452          32.000  
> 2021  5 18  3  9 40.0010000  0 19                     
G 7  20586789.476 1 108184305.298 1       115.627          39.000  
C28  22472345.128 2 117019374.241 1     -2408.466          36.000  
G21  20821795.520 2 109419272.357 1     -1536.429          36.000  
C 3  36731686.742 4 191271500.56732      -767.802          34.000  
G 8  22306286.939 1 117220318.72721     -3070.098          41.000  
C27  22493779.073 1 117130990.817 1       360.508          41.000  
C 1  37675997.266 4 196188773.91423      -798.163          32.000  
C23  23405962.960 4 121880970.270 2     -2495.188          33.000  
C 2  37381180.252 4 194653583.59122      -794.031          33.000  
G 1  20625420.699 1 108387300.598 1      1106.635          42.000  
C 6  38659158.840 4 201308351.27423     -2378.412          29.000  
C16  39131926.718 4 203770181.517 2     -2465.979          34.000  
G30  22940795.711 8 120554527.56223      2017.559          31.000  
C13  38829046.281 8 202193020.15024       749.537          30.000  
C10  37538598.064 2 195473290.223 1      -519.222          35.000  
G 9  24270875.039 8 127544326.35324     -3083.380          31.000  
G14  24745527.445 9                      1427.466          16.000  
C 7  36964944.876 4 192486129.674 2      -437.354          35.000  
C 9  37604560.873 4 195816767.097 2     -2367.019          32.000  
> 2021  5 18  3  9 41.0010000  0 19                     
G 7  20586767.594 2 108184190.275 1       114.532          39.000  
C28  22472807.524 2 117021782.587 1     -2408.901          36.000  
G21  20822087.767 2 109420809.361 1     -1537.230          36.000  
C 3  36731834.240 4 191272267.98822      -769.301          34.000  
G 8  22306871.338 1 117223388.59921     -3070.193          41.000  
C27  22493709.743 1 117130630.279 1       360.116          41.000  
C 1  37676150.452 4 196189571.95623      -797.128          32.000  
C23  23406441.951 4 121883465.263 2     -2495.240          33.000  
C 2  37381332.741 4 194654377.41132      -793.739          33.000  
G 1  20625210.432 1 108386194.043 1      1106.444          42.000  
C 6  38659616.629 4 201310729.43523     -2377.697          29.000  
C16  39132400.204 4 203772647.546 2     -2466.058          34.000  
G30  22940411.117 8 120552509.83323      2017.587          31.000  
C13  38828900.991 4 202192268.95223       751.025          29.000  
C10  37538697.801 2 195473809.342 1      -519.177          35.000  
G 9  24271457.641 8 127547409.26524     -3081.873          30.000  
G14  24745260.465 9                      1427.466          13.000  
C 7  36965028.751 2 192486566.291 2      -436.813          35.000  
C 9  37605015.460 4 195819134.632 3     -2367.273          32.000  
> 2021  5 18  3  9 42.0010000  0 19                     
G 7  20586745.886 1 108184075.717 1       114.386          39.000  
C28  22473269.658 2 117024191.013 1     -2408.225          36.000  
G21  20822380.198 2 109422346.804 1     -1537.561          36.000  
C 3  36731981.634 2 191273036.11331      -767.869          34.000  
G 8  22307455.484 1 117226458.31921     -3069.636          41.000  
C27  22493640.422 1 117130269.969 1       360.712          41.000  
C 1  37676303.744 4 196190368.84532      -797.679          32.000  
C23  23406921.030 4 121885960.469 2     -2495.010          33.000  
C 2  37381485.413 4 194655172.08732      -792.790          33.000  
G 1  20625000.105 1 108385087.972 1      1105.911          42.000  
C 6  38660075.875 4 201313107.49523     -2378.083          29.000  
C16  39132873.672 4 203775113.366 2     -2465.613          34.000  
G30  22940027.203 8 120550492.27823      2018.025          31.000  
C13  38828752.882 8 202191517.69423       751.077          29.000  
C10  37538797.180 2 195474328.181 1      -518.616          35.000  
G 9  24272043.750 8 127550492.03624     -3083.124          30.000  
G14  24744991.173 9                      1463.843          15.000  
C 7  36965112.616 2 192487002.715 1      -436.139          35.000  
C 9  37605469.968 4 195821501.993 3     -2366.938          32.000  
> 2021  5 18  3  9 43.0010000  0 18                     
G 7  20586724.178 1 108183961.589 1       113.503          39.000  
C28  22473732.141 2 117026599.605 1     -2408.512          37.000  
G21  20822672.515 2 109423884.691 1     -1538.442          36.000  
C 3  36732129.158 4 191273804.13932      -767.920          34.000  
G 8  22308039.656 1 117229527.93221     -3069.674          41.000  
C27  22493571.232 1 117129909.922 1       360.010          41.000  
C 1  37676456.835 4 196191166.58023      -798.264          32.000  
C23  23407400.029 4 121888455.860 2     -2495.602          33.000  
C 2  37381637.718 4 194655965.61932      -793.355          33.000  
G 1  20624789.873 1 108383982.303 1      1105.521          42.000  
C 6  38660531.335 4 201315485.35023     -2377.787          29.000  
C16  39133347.253 2 203777579.035 2     -2465.588          34.000  
G30  22939639.739 8 120548474.885 3      2016.930          31.000  
C13  38828607.391 4 202190766.32623       751.126          29.000  
C10  37538896.821 2 195474846.772 1      -518.492          36.000  
G 9  24272633.480 8 127553574.04414     -3082.263          29.000  
C 7  36965196.465 2 192487438.884 1      -436.056          35.000  
C 9  37605924.782 4 195823869.392 2     -2367.724          32.000  
> 2021  5 18  3  9 44.0010000  0 19                     
G 7  20586702.592 1 108183848.065 1       113.094          39.000  
C28  22474194.702 2 117029008.452 1     -2409.464          36.000  
G21  20822965.505 2 109425423.189 1     -1538.852          36.000  
C 3  36732276.682 2 191274572.14221      -768.530          34.000  
G 8  22308623.933 1 117232597.56421     -3069.797          41.000  
C27  22493502.138 1 117129550.266 1       359.159          41.000  
C 1  37676609.917 8 196191964.28523      -798.481          31.000  
C23  23407878.942 4 121890951.647 3     -2496.525          33.000  
C 2  37381789.936 4 194656758.11023      -793.221          33.000  
G 1  20624579.842 1 108382877.216 1      1104.630          42.000  
C 6  38660987.998 4 201317863.13323     -2377.880          29.000  
C16  39133820.730 4 203780044.686 2     -2466.125          34.000  
G30  22939253.339 8 120546457.785 3      2017.041          31.000  
C13  38828463.662 4 202190014.95123       750.987          29.000  
C10  37538996.365 2 195475365.248 1      -518.077          36.000  
G 9  24273219.284 8 127556656.587 4     -3082.660          29.000  
G14  24744452.642 9                      1416.968          15.000  
C 7  36965280.269 4 192487875.002 2      -437.180          35.000  
C 9  37606379.299 4 195826236.701 2     -2367.157          32.000  
> 2021  5 18  3  9 45.0010000  0 19                     
G 7  20586681.180 2 108183735.230 1       112.161          39.000  
C28  22474657.177 2 117031417.623 1     -2409.055          36.000  
G21  20823258.136 2 109426962.398 1     -1539.796          36.000  
C 3  36732424.145 4 191275340.17932      -767.867          34.000  
G 8  22309208.175 1 117235667.31821     -3069.803          41.000  
C27  22493433.114 1 117129191.071 1       358.769          41.000  
C 1  37676762.911 8 196192762.04023      -798.480          31.000  
C23  23408358.134 4 121893447.891 2     -2497.146          33.000  
C 2  37381942.329 4 194657551.63432      -793.647          33.000  
G 1  20624369.873 1 108381772.809 1      1104.264          42.000  
C 6  38661445.499 4 201320240.48114     -2377.751          29.000  
C16  39134294.084 4 203782510.356 2     -2465.887          34.000  
G30  22938871.537 8 120544441.117 3      2016.960          31.000  
C13  38828315.623 4 202189263.634 3       751.686          29.000  
C10  37539096.093 2 195475883.707 1      -518.468          35.000  
G 9  24273809.032 4 127559739.140 4     -3082.715          29.000  
G14  24744181.728 9                      1416.968          15.000  
C 7  36965364.074 2 192488311.067 1      -436.432          35.000  
C 9  37606833.930 4 195828604.250 2     -2367.629          32.000  
> 2021  5 18  3  9 46.0010000  0 20                     
G 7  20586659.699 2 108183623.202 1       111.504          39.000  
C28  22475119.869 2 117033827.283 1     -2409.568          36.000  
G21  20823551.274 2 109428502.391 1     -1541.067          35.000  
C 3  36732571.634 4 191276108.42132      -768.450          34.000  
G 8  22309792.775 1 117238737.27821     -3069.806          41.000  
C27  22493364.316 1 117128832.468 1       358.450          41.000  
C 1  37676915.967 8 196193556.97133      -797.888          31.000  
C23  23408837.596 4 121895944.622 2     -2496.882          33.000  
C 2  37382094.844 4 194658345.36222      -793.732          33.000  
G 1  20624159.694 1 108380669.195 1      1103.388          42.000  
C 6  38661901.814 4 201322618.474 3     -2377.713          29.000  
C16  39134767.587 2 203784976.194 2     -2465.674          35.000  
G30  22938488.504 8 120542424.933 3      2017.048          31.000  
C13  38828172.479 4 202188512.612 3       751.036          28.000  
G17  24126074.799 9                      1112.403          25.000  
C10  37539195.690 2 195476402.260 1      -518.770          36.000  
G 9  24274398.997 4 127562821.826 3     -3082.446          29.000  
G14  24743916.362 9                      1416.968          16.000  
C 7  36965447.983 2 192488747.280 1      -436.822          36.000  
C 9  37607288.551 4 195830971.934 3     -2366.538          32.000  
> 2021  5 18  3  9 47.0010000  0 20                     
G 7  20586638.602 1 108183511.612 1       111.421          39.000  
C28  22475582.553 2 117036237.089 1     -2409.938          36.000  
G21  20823844.254 2 109430042.834 1     -1540.614          36.000  
C 3  36732719.080 4 191276875.42622      -767.419          34.000  
G 8  22310377.087 1 117241807.17321     -3069.828          41.000  
C27  22493295.545 1 117128474.095 1       358.327          41.000  
C 1  37677069.259 8 196194354.70423      -797.591          31.000  
C23  23409317.110 4 121898441.588 2     -2496.469          33.000  
C 2  37382247.106 4 194659138.89432      -793.610          33.000  
G 1  20623949.741 1 108379566.035 1      1102.677          42.000  
C 6  38662360.807 4 201324996.343 3     -2377.982          29.000  
C16  39135240.994 4 203787441.889 2     -2466.467          34.000  
G30  22938100.952 8 120540408.997 3      2015.683          31.000  
C13  38828024.030 4 202187761.409 3       751.560          28.000  
G17  24125869.052 9                      1112.403          25.000  
C10  37539295.279 2 195476920.558 1      -517.783          35.000  
G 9  24274988.876 9                     -3094.873          29.000  
G14  24743647.280 9                      1416.968          16.000  
C 7  36965531.770 4 192489183.224 2      -436.130          35.000  
C 9  37607743.069 8 195833339.595 3     -2366.601          32.000  
> 2021  5 18  3  9 49.0010000  0 20                     
G 7  20586596.416 1 108183290.225 1       110.197          39.000  
C28  22476508.322 2 117041057.462 1     -2409.815          35.000  
G21  20824430.642 2 109433125.527 1     -1542.005          35.000  
C 3  36733014.111 2 191278412.45131      -767.482          34.000  
G 8  22311545.501 1 117247946.981 1     -3069.641          41.000  
C27  22493158.535 1 117127758.528 1       357.414          41.000  
C 1  37677375.972 8 196195950.14023      -797.225          31.000  
C23  23410276.166 4 121903436.642 2     -2497.196          33.000  
C 2  37382551.734 4 194660724.91032      -793.023          33.000  
G 1  20623530.159 1 108377361.391 1      1102.057          41.000  
C 6  38663272.249 8 201329751.830 5     -2377.934          29.000  
C16  39136188.070 4 203792373.111 2     -2465.320          34.000  
G30  22937331.328 8 120536377.965 3      2015.177          31.000  
C13  38827736.913 4 202186259.080 3       751.696          28.000  
G17  24125458.763 9                      1133.249          25.000  
C10  37539494.299 2 195477956.818 1      -518.341          35.000  
G 9  24276172.132 9 127572118.13534     -3081.128          29.000  
G14  24743109.316 9                      1416.968          13.000  
C 7  36965699.118 4 192490054.843 2      -435.694          35.000  
C 9  37608652.242 4 195838075.101 3     -2367.305          32.000  
> 2021  5 18  3  9 50.0010000  0 20                     
G 7  20586575.685 1 108183180.504 1       109.517          39.000  
C28  22476971.015 2 117043468.130 1     -2410.853          36.000  
G21  20824723.928 2 109434667.868 1     -1542.497          36.000  
C 3  36733161.521 4 191279179.51222      -768.068          34.000  
G 8  22312129.857 1 117251017.016 1     -3070.301          41.000  
C27  22493090.121 1 117127401.370 1       357.103          41.000  
C 1  37677529.028 8 196196747.95023      -798.701          31.000  
C23  23410755.855 4 121905934.759 2     -2498.239          32.000  
C 2  37382704.014 4 194661518.45222      -793.998          33.000  
G 1  20623320.582 1 108376260.035 1      1101.055          41.000  
C 6  38663732.673 4 201332129.635 3     -2378.055          29.000  
C16  39136661.538 4 203794838.722 2     -2465.405          34.000  
G30  22936948.811 8 120534362.987 3      2013.986          31.000  
C13  38827592.696 4 202185508.075 3       751.108          28.000  
G17  24125250.983 9                      1113.461          26.000  
C10  37539593.843 4 195478474.821 2      -517.001          35.000  
G 9  24276763.450 8 127575200.58524     -3082.324          30.000  
G14  24742843.226 9                      1416.968          13.000  
C 7  36965782.966 2 192490490.587 1      -435.837          35.000  
C 9  37609107.170 4 195840442.978 2     -2367.735          32.000  
> 2021  5 18  3  9 51.0010000  0 20                     
G 7  20586555.024 1 108183071.607 1       108.624          39.000  
C28  22477433.908 2 117045879.310 1     -2411.442          36.000  
G21  20825017.598 2 109436211.016 1     -1543.440          36.000  
C 3  36733308.827 2 191279947.76622      -769.020          34.000  
G 8  22312714.317 1 117254087.266 1     -3070.404          41.000  
C27  22493021.707 1 117127044.858 1       356.066          41.000  
C 1  37677682.259 8 196197546.86133      -798.075          31.000  
C23  23411235.692 4 121908433.497 2     -2499.134          32.000  
C 2  37382856.363 4 194662312.14922      -793.933          34.000  
G 1  20623111.049 1 108375159.478 1      1100.201          41.000  
C 6  38664184.442 4 201334507.564 3     -2377.891          30.000  
C16  39137135.146 2 203797304.556 1     -2466.016          34.000  
G30  22936570.795 8 120532348.553 2      2013.344          31.000  
C13  38827447.257 4 202184757.236 3       751.003          29.000  
G17  24125045.934 9                      1111.741          25.000  
C10  37539693.423 2 195478993.007 1      -518.494          36.000  
G 9  24277356.059 8 127578283.19625     -3083.154          29.000  
G14  24742577.442 9                      1416.968          14.000  
C 7  36965866.788 2 192490926.487 1      -436.018          35.000  
C 9  37609562.123 4 195842811.140 2     -2368.584          32.000  
> 2021  5 18  3  9 52.0010000  0 20                     
G 7  20586534.319 2 108182963.377 1       107.687          39.000  
C28  22477896.845 2 117048290.786 1     -2411.653          36.000  
G21  20825311.207 2 109437754.895 1     -1544.947          36.000  
C 3  36733456.526 2 191280716.03831      -768.469          34.000  
G 8  22313298.777 1 117257157.629 1     -3070.471          41.000  
C27  22492953.529 1 117126688.767 1       355.845          41.000  
C 1  37677835.376 8 196198344.83823      -798.776          31.000  
C23  23411715.625 4 121910932.640 2     -2499.760          32.000  
C 2  37383008.834 4 194663104.91832      -793.553          33.000  
G 1  20622901.428 1 108374059.590 1      1099.305          41.000  
C 6  38664642.362 8 201336885.583 3     -2378.685          30.000  
C16  39137608.675 4 203799770.397 2     -2465.881          34.000  
G30  22936186.149 8 120530334.506 3      2013.251          31.000  
C13  38827305.526 4 202184006.536 3       750.507          29.000  
G17  24124825.521 9                      1113.140          25.000  
C10  37539792.898 2 195479511.072 1      -518.197          36.000  
G 9  24277939.315 8 127581365.76624     -3082.587          29.000  
G14  24742308.708 9                      1416.968          13.000  
C 7  36965950.593 2 192491362.344 1      -436.195          35.000  
C 9  37610017.024 4 195845179.429 2     -2368.730          32.000  
> 2021  5 18  3  9 53.0010000  0 20                     
G 7  20586513.763 2 108182855.783 1       107.163          39.000  
C28  22478359.773 2 117050702.549 1     -2411.615          36.000  
G21  20825605.164 2 109439299.321 1     -1544.366          36.000  
C 3  36733604.129 4 191281484.31122      -768.471          34.000  
G 8  22313882.932 1 117260228.042 1     -3070.365          41.000  
C27  22492885.212 1 117126333.100 1       355.555          41.000  
C 1  37677988.362 9 196199140.83735      -798.262          31.000  
C23  23412195.611 4 121913432.108 2     -2499.711          33.000  
C 2  37383161.358 4 194663899.71922      -793.603          34.000  
G 1  20622692.043 1 108372960.306 1      1098.915          41.000  
C 6  38665101.686 8 201339263.619 4     -2379.976          30.000  
C16  39138082.117 4 203802236.259 2     -2465.826          34.000  
G30  22935802.270 8 120528320.847 3      2012.735          31.000  
C13  38827163.464 4 202183255.869 3       750.808          29.000  
G17  24124613.151 9                      1111.339          25.000  
C10  37539892.486 2 195480029.099 1      -517.712          36.000  
G 9  24278529.420 8 127584448.37424     -3082.788          29.000  
G14  24742040.280 9                      1416.968          13.000  
C 7  36966034.293 2 192491798.145 1      -436.187          35.000  
C 9  37610471.794 4 195847547.725 2     -2368.407          32.000  
> 2021  5 18  3  9 54.0010000  0 19                     
G 7  20586493.486 2 108182748.551 1       107.106          39.000  
C28  22478823.024 2 117053114.383 1     -2411.775          36.000  
G21  20825899.253 4 109440844.138 2     -1544.542          36.000  
C 3  36733751.627 4 191282252.35632      -767.954          34.000  
G 8  22314467.331 1 117263298.255 1     -3069.867          41.000  
C27  22492816.755 1 117125977.603 1       355.927          41.000  
C 1  37678141.383 8 196199938.61724      -798.411          31.000  
C23  23412675.684 4 121915931.775 2     -2499.759          32.000  
C 2  37383313.689 4 194664693.20432      -792.957          33.000  
G 1  20622482.544 1 108371861.382 1      1099.007          41.000  
C 6  38665559.449 9                     -2375.568          30.000  
C16  39138555.558 4 203804701.855 2     -2465.698          34.000  
G30  22935419.535 8 120526307.196 3      2012.726          31.000  
C13  38827020.564 4 202182505.017 3       750.912          29.000  
G17  24124400.747 9                      1112.053          25.000  
C10  37539991.979 2 195480546.782 1      -517.400          36.000  
G 9  24279117.414 8 127587530.70624     -3082.343          29.000  
C 7  36966117.740 2 192492233.617 1      -435.079          35.000  
C 9  37610926.564 4 195849915.907 3     -2368.377          32.000  
> 2021  5 18  3  9 55.0010000  0 19                     
G 7  20586473.296 1 108182641.895 1       106.331          39.000  
C28  22479286.083 2 117055526.484 1     -2412.378          36.000  
G21  20826193.533 4 109442389.600 2     -1545.845          35.000  
C 3  36733899.221 4 191283021.31432      -767.729          34.000  
G 8  22315051.337 1 117266368.487 1     -3069.960          41.000  
C27  22492748.393 1 117125622.494 1       354.633          41.000  
C 1  37678294.683 8 196200736.27723      -797.591          31.000  
C23  23413156.010 4 121918431.783 2     -2500.834          32.000  
C 2  37383466.091 4 194665486.69632      -792.953          33.000  
G 1  20622273.369 1 108370763.044 1      1098.013          41.000  
C 6  38666016.985 9 201344064.93834     -2377.721          30.000  
C16  39139029.122 2 203807167.401 1     -2465.662          34.000  
G30  22935037.034 8 120524293.881 3      2012.990          31.000  
C13  38826876.617 4 202181754.124 3       751.007          29.000  
G17  24124191.423 9                      1113.575          25.000  
C10  37540091.436 2 195481064.353 1      -517.483          36.000  
G 9  24279708.811 8 127590612.921 4     -3082.196          28.000  
C 7  36966201.335 4 192492669.003 2      -435.398          35.000  
C 9  37611381.256 4 195852284.042 3     -2367.647          32.000  
> 2021  5 18  3  9 56.0010000  0 19                     
G 7  20586453.324 1 108182535.846 1       105.461          39.000  
C28  22479749.238 2 117057938.818 1     -2412.445          36.000  
G21  20826487.761 2 109443935.601 1     -1546.235          36.000  
C 3  36734046.631 4 191283789.32822      -768.584          34.000  
G 8  22315635.422 1 117269438.724 1     -3070.462          41.000  
C27  22492680.268 1 117125267.755 1       354.236          41.000  
C 1  37678447.913 4 196201533.97033      -798.158          32.000  
C23  23413636.030 4 121920932.105 2     -2500.995          32.000  
C 2  37383618.405 4 194666279.15122      -793.357          33.000  
G 1  20622064.254 1 108369665.259 1      1097.234          41.000  
C 6  38666470.089 8 201346442.52924     -2377.943          30.000  
C16  39139502.634 2 203809632.877 2     -2465.869          35.000  
G30  22934654.927 4 120522280.844 2      2012.559          32.000  
C13  38826736.710 2 202181003.284 3       750.827          29.000  
G17  24123981.768 9                      1112.041          25.000  
C10  37540190.833 2 195481581.773 1      -516.866          36.000  
G 9  24280296.176 4 127593695.108 4     -3081.952          29.000  
C 7  36966284.774 2 192493104.321 1      -435.905          35.000  
C 9  37611836.227 4 195854652.344 2     -2368.449          32.000  
> 2021  5 18  3  9 57.0010000  0 19                     
G 7  20586433.370 1 108182430.583 1       104.920          39.000  
C28  22480212.602 2 117060351.650 1     -2412.986          36.000  
G21  20826782.016 2 109445482.424 1     -1546.898          36.000  
C 3  36734194.155 4 191284557.45032      -767.716          34.000  
G 8  22316219.542 1 117272509.200 1     -3070.521          40.000  
C27  22492612.299 1 117124913.570 1       354.107          41.000  
C 1  37678601.100 4 196202331.83533      -798.264          32.000  
C23  23414116.016 4 121923433.010 2     -2500.504          32.000  
C 2  37383770.885 4 194667073.74532      -792.805          33.000  
G 1  20621855.122 1 108368568.264 1      1096.629          41.000  
C 6  38666927.974 8 201348820.26223     -2377.658          30.000  
C16  39139976.085 2 203812098.532 1     -2465.521          35.000  
G30  22934273.762 4 120520268.345 2      2012.757          32.000  
C13  38826594.439 2 202180252.640 2       750.513          29.000  
G17  24123772.958 9                      1111.700          25.000  
C10  37540290.168 2 195482099.364 1      -517.990          36.000  
G 9  24280886.386 8 127596777.437 4     -3082.397          28.000  
C 7  36966368.308 2 192493539.713 1      -435.883          35.000  
C 9  37612291.189 4 195857020.822 2     -2368.779          32.000  
> 2021  5 18  3  9 58.0010000  0 19                     
G 7  20586413.764 1 108182326.068 1       104.180          39.000  
C28  22480676.167 2 117062764.854 1     -2413.316          36.000  
G21  20827076.593 2 109447029.995 1     -1547.686          36.000  
C 3  36734341.645 4 191285324.68522      -768.221          34.000  
G 8  22316803.758 1 117275579.839 1     -3070.793          40.000  
C27  22492544.427 1 117124559.934 1       353.126          41.000  
C 1  37678754.295 4 196203129.72923      -797.320          32.000  
C23  23414596.098 8 121925934.378 3     -2501.161          32.000  
C 2  37383923.348 4 194667867.49332      -793.944          33.000  
G 1  20621646.583 1 108367471.999 1      1095.872          41.000  
C 6  38667383.904 8 201351198.08824     -2377.424          30.000  
C16  39140449.509 4 203814564.296 2     -2465.723          34.000  
G30  22933892.248 4 120518256.334 2      2011.758          32.000  
C13  38826449.785 2 202179502.143 3       750.272          29.000  
G17  24123563.468 9                      1113.168          25.000  
C10  37540389.486 2 195482616.914 1      -517.665          36.000  
G 9  24281471.405 8 127599859.899 4     -3082.172          28.000  
C 7  36966451.947 2 192493975.130 1      -435.508          35.000  
C 9  37612745.985 4 195859389.449 2     -2368.867          32.000  
> 2021  5 18  3  9 59.0010000  0 18                     
G 7  20586394.107 1 108182222.139 1       103.945          39.000  
C28  22481139.680 2 117065178.209 1     -2413.122          36.000  
G21  20827371.048 4 109448578.176 2     -1548.332          36.000  
C 3  36734489.151 4 191286093.08322      -768.392          34.000  
G 8  22317387.886 1 117278650.355 1     -3069.824          39.000  
C27  22492476.571 1 117124206.756 1       352.887          42.000  
C 1  37678907.744 4 196203927.83123      -797.518          32.000  
C23  23415076.450 4 121928436.299 2     -2502.774          33.000  
C 2  37384075.758 4 194668661.33022      -794.135          33.000  
G 1  20621438.297 1 108366376.469 1      1094.939          43.000  
C 6  38667839.041 8 201353576.23024     -2378.755          30.000  
C16  39140923.187 2 203817030.332 2     -2466.632          35.000  
G30  22933509.617 4 120516244.479 2      2011.569          32.000  
C13  38826316.369 4 202178751.889 3       749.702          31.000  
C10  37540488.586 2 195483134.182 1      -516.363          36.000  
G 9  24282063.020 4 127602942.205 4     -3081.683          28.000  
C 7  36966535.751 2 192494410.361 1      -434.554          36.000  
C 9  37613200.781 4 195861758.424 2     -2369.748          33.000  
> 2021  5 18  3 10  0.0010000  0 18                     
G 7  20586374.231 2 108182118.361 1       103.593          39.000  
C28  22481603.419 1 117067590.711 1     -2410.660          37.000  
G21  20827665.939 4 109450127.029 2     -1549.106          38.000  
C 3  36734636.815 2 191286862.44831      -770.184          35.000  
G 8  22317971.561 1 117281719.141 1     -3066.888          41.000  
C27  22492408.830 1 117123854.204 1       352.599          42.000  
C 1  37679061.314 8 196204726.96423      -798.714          33.000  
C23  23415557.657 2 121930939.712 1     -2504.483          36.000  
C 2  37384228.456 4 194669455.81132      -794.736          34.000  
G 1  20621230.212 1 108365282.678 1      1091.826          41.000  
C 6  38668297.450 8 201355956.38825     -2382.376          29.000  
C16  39141397.239 4 203819498.143 2     -2469.806          35.000  
G30  22933122.632 8 120514230.998 3      2015.841          31.000  
C13  38826168.749 8 202178003.869 3       745.287          30.000  
C10  37540587.511 2 195483649.795 1      -513.949          36.000  
G 9  24282644.461 9                     -3083.031          26.000  
C 7  36966619.041 2 192494844.302 1      -431.983          36.000  
C 9  37613656.180 4 195864128.574 2     -2371.954          36.000  
> 2021  5 18  3 10  1.0010000  0 18                     
G 7  20586354.198 2 108182014.035 1       105.178          39.000  
C28  22482066.731 1 117070000.786 1     -2408.988          39.000  
G21  20827961.083 2 109451676.810 1     -1549.962          39.000  
C 3  36734785.238 4 191287634.64332      -773.992          35.000  
G 8  22318554.617 2 117284784.052 1     -3064.127          37.000  
C27  22492341.315 1 117123502.860 1       350.574          42.000  
C 1  37679215.505 8 196205531.26434      -804.285          33.000  
C23  23416039.711 4 121933446.639 2     -2508.126          35.000  
C 2  37384381.320 8 194670252.06133      -796.242          33.000  
G 1  20621022.633 2 108364192.385 1      1088.763          40.000  
C 6  38668757.272 8 201358341.94925     -2389.657          28.000  
C16  39141872.103 8 203821971.073 3     -2475.891          34.000  
G30  22932739.181 9                      2020.284          23.000  
C13  38826024.419 8 202177261.106 4       740.089          31.000  
C10  37540685.878 2 195484161.329 1      -509.599          36.000  
G 9  24283222.255 9                     -3091.272          26.000  
C 7  36966701.720 4 192495275.180 2      -429.384          36.000  
C 9  37614112.136 4 195866502.100 2     -2375.727          36.000  
> 2021  5 18  3 10  2.0010000  0 18                     
G 7  20586334.122 2 108181909.164 2       105.908          36.000  
C28  22482529.319 2 117072408.064 1     -2406.094          34.000  
G21  20828256.289 4 109453227.064 2     -1549.301          34.000  
C 3  36734933.792 8 191288408.37923      -774.639          30.000  
G 8  22319135.831 9                     -3064.893          23.000  
C27  22492273.756 2 117123152.633 1       349.787          38.000  
C 1  37679369.634 9                      -805.616          28.000  
C23  23416522.052 4 121935956.742 3     -2512.481          31.000  
C 2  37384534.585 4 194671050.26723      -799.288          33.000  
G 1  20620816.092 2 108363105.531 1      1085.028          36.000  
C 6  38669215.436 8                     -2393.889          27.000  
C16  39142347.883 8 203824448.983 3     -2480.609          30.000  
G30  22932356.856 9                      2019.552          21.000  
C13  38825883.578 8 202176523.676 5       734.258          30.000  
C10  37540783.224 4 195484668.679 2      -504.925          31.000  
G 9  24283799.971 9                     -3067.229          25.000  
C 7  36966783.248 4 192495702.669 2      -424.830          31.000  
C 9  37614571.042 8 195868878.882 4     -2378.170          32.000  
> 2021  5 18  3 10  3.0010000  0 18                     
G 7  20586313.941 4 108181803.589 3       105.334          32.000  
C28  22482991.357 4 117074812.745 2     -2404.391          33.000  
G21  20828553.684 8 109454778.114 3     -1551.434          31.000  
C 3  36735082.878 9                      -770.605          29.000  
G 8  22319719.994 9                     -3078.283          22.000  
C27  22492206.547 4 117122803.422 2       348.450          35.000  
C 1  37679522.489 9                      -757.568          28.000  
C23  23417004.097 8 121938470.123 5     -2515.737          31.000  
C 2  37384687.938 9                      -788.073          29.000  
G 1  20620609.595 4 108362021.946 2      1082.703          33.000  
C 6  38669676.270 9                     -2396.966          25.000  
C16  39142822.398 9                     -2490.494          22.000  
G30  22931973.169 9                      2020.581          19.000  
C13  38825740.538 9                       731.137          25.000  
C10  37540880.038 8 195485171.922 4      -501.122          30.000  
G 9  24284384.387 9                     -3070.597          22.000  
C 7  36966864.932 8 192496127.019 3      -423.818          31.000  
C 9  37615025.184 8 195871258.737 4     -2379.882          27.000  
> 2021  5 18  3 10  4.0010000  0 20                     
G 7  20586290.740 8 108181697.762 3       105.464          33.000  
C28  22483454.233 8 117077216.046 3     -2403.477          33.000  
G21  20828846.071 8 109456329.391 3     -1551.316          32.000  
C 3  36735231.702 9                      -777.941          29.000  
G 8  22320302.020 9                     -3057.790          19.000  
C27  22492138.482 4 117122454.752 2       348.776          34.000  
C 1  37679661.872 9                      -685.449          27.000  
C23  23417490.618 8 121940985.098 4     -2515.889          29.000  
C 2  37384841.473 9                      -793.896          28.000  
G 1  20620403.552 8 108360940.031 3      1081.519          35.000  
C25  27641077.722 9                     -3894.552          10.000  
C 6  38670132.323 9                     -2394.880          24.000  
C16  39143301.695 9                     -2486.636          24.000  
G30  22931587.999 9                      2034.702          17.000  
C13  38825600.396 9                       727.891          24.000  
G17  24122293.023 9                      1104.731          29.000  
C10  37540975.473 8 195485673.059 4      -500.908          30.000  
G 9  24284968.926 9                     -3068.769          19.000  
C 7  36966947.489 8                      -422.665          30.000  
C 9  37615482.083 8 195873640.272 5     -2382.254          27.000  
> 2021  5 18  3 10  5.0010000  0 18                     
G 7  20586272.304 4 108181592.738 2       105.149          33.000  
C28  22483916.638 4 117079619.291 2     -2404.155          33.000  
G21  20829142.690 4 109457881.869 2     -1553.343          33.000  
C 3  36735381.032 9                      -777.594          29.000  
G 8  22320884.945 9                     -3046.015          17.000  
C27  22492071.194 4 117122107.027 2       348.350          34.000  
C23  23417974.696 8 121943501.561 4     -2517.094          29.000  
C 2  37384995.454 9                      -826.855          27.000  
G 1  20620195.816 4 108359859.817 2      1080.615          35.000  
C 6  38670592.083 9                     -2406.922          23.000  
C16  39143778.382 9                     -2486.532          26.000  
G30  22931199.103 9                      2029.813          21.000  
C13  38825460.218 9                       728.405          25.000  
G17  24122056.206 9 126762260.09135      1106.689          30.000  
C10  37541073.316 8 195486173.478 3      -499.825          30.000  
G 9  24285553.273 9                     -3104.327          19.000  
C 7  36967024.087 8 192496987.28135      -422.867          28.000  
C 9  37615940.998 8 195876022.908 5     -2382.426          27.000  
> 2021  5 18  3 10  6.0010000  0 18                     
G 7  20586251.713 4 108181489.294 2       102.610          34.000  
C28  22484378.868 4 117082023.691 2     -2405.613          32.000  
G21  20829436.839 4 109459435.594 2     -1554.342          33.000  
C 3  36735530.999 9                      -784.619          29.000  
G 8  22321465.138 9                     -3054.310          18.000  
C27  22492007.824 4 117121760.496 2       344.796          35.000  
C23  23418456.627 8 121946018.754 3     -2518.021          31.000  
C 2  37385150.421 9                      -800.732          28.000  
G 1  20619990.871 4 108358780.875 2      1078.421          36.000  
C 6  38671053.432 9                     -2396.593          22.000  
C16  39144256.571 8                     -2487.667          27.000  
G30  22930814.719 9                      2031.544          22.000  
C13  38825320.616 9                       728.041          25.000  
G17  24121840.827 8 126761156.90024      1102.917          31.000  
C10  37541168.917 8 195486674.666 4      -502.230          29.000  
G 9  24286114.105 9 127624390.04335     -3098.540          32.000  
C 7  36967108.755 8 192497410.12725      -422.358          27.000  
C 9  37616400.514 8 195878406.072 5     -2384.255          28.000  
> 2021  5 18  3 10  8.0010000  0 19                     
G 7  20586214.265 4 108181284.195 2       101.612          35.000  
C28  22485301.373 4 117086835.015 2     -2408.226          35.000  
G21  20830029.257 9                     -1558.849          24.000  
C 3  36735830.646 8 191293078.22533      -777.655          31.000  
G 8  22322631.808 9                     -3060.546          19.000  
C27  22491872.323 4 117121067.145 2       348.029          38.000  
C23  23419425.873 9                     -2511.540          23.000  
C 2  37385458.103 9                      -794.397          31.000  
G 1  20619581.725 4 108356622.857 1      1079.788          37.000  
C 6  38671972.649 9                     -2397.618          23.000  
C16  39145208.437 8 203839354.14835     -2481.793          31.000  
C 8  38042638.355 9                       719.621          30.000  
G30  22930047.947 9                      2019.729          19.000  
C13  38825041.928 9                       732.181          27.000  
G17  24121418.331 8 126758949.53724      1103.607          31.000  
C10  37541360.608 8                      -504.671          28.000  
G 9  24287275.627 9 127630494.15525     -3096.327          33.000  
C 7  36967268.826 9                      -425.736          33.000  
C 9  37617317.959 9                     -2377.979          31.000  
> 2021  5 18  3 10  9.0010000  0 19                     
G 7  20586195.724 4 108181184.205 2        98.499          36.000  
C28  22485764.746 4 117089244.415 1     -2411.251          35.000  
G21  20830324.366 9                     -1548.939          21.000  
C 3  36735979.889 8 191293855.46533      -775.654          34.000  
G 8  22323214.497 9                     -3058.681          19.000  
C27  22491806.823 4 117120720.586 2       347.702          41.000  
C23  23419915.378 9                     -2518.085          22.000  
C 2  37385611.831 9                      -798.925          35.000  
G 1  20619375.647 4 108355541.906 1      1081.955          37.000  
C 6  38672434.765 9                     -2390.229          29.000  
C16  39145685.491 9 203841825.09335     -2476.312          32.000  
C 8  38042496.441 9 198097241.85135       725.005          29.000  
G30  22929664.060 9                      2019.729          17.000  
C13  38824901.576 9                       737.998          32.000  
G17  24121204.574 9                      1104.700          29.000  
C10  37541456.514 8                      -509.086          28.000  
G 9  24287864.824 8 127633591.09634     -3091.146          34.000  
C 7  36967351.776 9 192498665.14433      -429.348          35.000  
C 9  37617773.907 9 195885588.75235     -2377.184          33.000  
> 2021  5 18  3 10 10.0010000  0 19                     
G 7  20586177.846 2 108181086.302 1        97.003          38.000  
C28  22486228.739 4 117091657.963 2     -2414.751          36.000  
G21  20830621.718 9                     -1553.010          21.000  
C 3  36736128.372 8 191294629.05433      -772.444          33.000  
G 8  22323798.573 9                     -3068.483          22.000  
C27  22491739.963 4 117120373.586 2       348.080          41.000  
C23  23420398.540 9                     -2512.224          22.000  
C 2  37385764.729 9 194677455.95035      -793.228          35.000  
G 1  20619170.249 2 108354457.463 1      1085.968          39.000  
C 6  38672894.203 9                     -2382.293          28.000  
C16  39146162.492 9                     -2466.150          32.000  
C 8  38042354.030 8 198096514.01125       730.961          29.000  
G30  22929280.923 9                      2017.220          15.000  
C13  38824757.995 9                       744.125          30.000  
G17  24120997.196 8 126756680.18035      1106.018          29.000  
C10  37541555.038 8 195488702.82235      -514.778          29.000  
G 9  24288458.245 8 127636709.45134     -3084.378          36.000  
C 7  36967435.223 8 192499096.32522      -432.476          35.000  
C 9  37618227.578 9                     -2373.022          32.000  
> 2021  5 18  3 10 11.0010000  0 19                     
G 7  20586158.983 2 108180989.580 1        96.981          36.000  
C28  22486692.339 2 117094073.548 1     -2415.459          38.000  
G21  20830920.527 9                     -1559.318          22.000  
C 3  36736276.315 4 191295399.18623      -770.693          30.000  
G 8  22324382.326 9                     -3070.312          22.000  
C27  22491673.006 2 117120026.028 1       348.155          41.000  
C23  23420882.260 9                     -2510.252          23.000  
C 2  37385917.366 9 194678250.35135      -793.474          30.000  
G 1  20618963.280 2 108353371.088 1      1086.986          36.000  
C25  27646312.412 9                     -3894.552          10.000  
C 6  38673351.696 9                     -2380.234          27.000  
C16  39146637.016 9                     -2469.122          32.000  
C 8  38042215.449 8 198095782.66824       732.946          30.000  
G30  22928900.779 9                      2010.361          19.000  
C13  38824615.802 9 202169931.50635       746.720          31.000  
C10  37541657.462 8 195489217.07324      -514.172          29.000  
G 9  24289044.869 8 127639794.49125     -3086.755          30.000  
C 7  36967520.528 4 192499529.34122      -433.576          35.000  
C 9  37618683.186 9                     -2369.613          28.000  
> 2021  5 18  3 10 12.0010000  0 20                     
G 7  20586140.730 2 108180893.644 1        95.250          39.000  
C28  22487156.227 2 117096489.782 1     -2416.140          38.000  
G21  20831216.395 9                     -1547.358          23.000  
C 3  36736424.407 4 191296170.78032      -768.619          34.000  
G 8  22324967.284 9                     -3068.882          23.000  
C27  22491606.338 2 117119678.853 1       347.179          39.000  
C23  23421364.592 9                     -2493.966          22.000  
C 2  37386069.419 9 194679042.51935      -794.755          30.000  
G 1  20618756.504 2 108352284.746 1      1086.347          40.000  
C 6  38673809.930 9                     -2378.182          27.000  
C16  39147111.121 8                     -2467.090          34.000  
C 8  38042075.629 8 198095050.73624       731.828          29.000  
G30  22928520.504 9                      2006.629          20.000  
C13  38824473.661 8 202169184.12924       746.075          29.000  
G17  24120578.190 9                      1104.906          27.000  
C10  37541757.051 4 195489732.07523      -515.424          30.000  
G 9  24289628.474 8 127642878.45525     -3082.479          30.000  
C 7  36967599.543 4 192499962.66322      -433.386          34.000  
G22  24414309.835 9                      1055.452          22.000  
C 9  37619141.315 9 195892709.51835     -2370.885          35.000  
> 2021  5 18  3 10 13.0010000  0 19                     
G 7  20586122.922 2 108180798.551 1        94.461          39.000  
C28  22487620.272 2 117098907.272 1     -2417.210          38.000  
G21  20831513.738 9                     -1556.404          24.000  
C 3  36736572.219 4 191296940.26332      -768.257          35.000  
G 8  22325550.845 9                     -3075.127          21.000  
C27  22491539.626 1 117119331.426 1       347.457          42.000  
C23  23421844.787 9                     -2495.695          20.000  
C 2  37386220.032 9                      -803.174          29.000  
G 1  20618549.483 1 108351197.814 1      1087.097          39.000  
C 6  38674272.448 9                     -2378.948          29.000  
C16  39147583.176 8 203851715.23033     -2465.845          31.000  
C 8  38041934.780 8 198094317.06223       733.087          30.000  
G30  22928139.033 9                      2004.135          28.000  
C13  38824327.620 9                       749.507          29.000  
G17  24120367.339 9                      1106.445          27.000  
C10  37541854.187 8 195490248.21624      -516.301          30.000  
G 9  24290210.334 9                     -3082.444          24.000  
C 7  36967684.386 4 192500397.06921      -434.201          35.000  
C 9  37619594.873 8 195895079.80624     -2369.660          32.000  
> 2021  5 18  3 10 14.0010000  0 20                     
G 7  20586104.992 1 108180704.066 1        94.115          39.000  
C28  22488084.517 2 117101325.151 1     -2417.809          38.000  
G21  20831811.090 9                     -1558.367          24.000  
C 3  36736720.013 2 191297709.48121      -767.854          36.000  
G 8  22326134.520 9                     -3075.338          20.000  
C27  22491472.817 1 117118984.311 1       346.971          42.000  
C23  23422325.515 9                     -2520.811          18.000  
C 2  37386370.182 9                      -762.256          28.000  
G 1  20618342.794 1 108350111.273 1      1086.070          39.000  
C 6  38674733.064 8 201389431.75334     -2378.018          30.000  
C16  39148057.202 8 203854180.77323     -2465.125          31.000  
C 8  38041794.881 8 198093583.15023       733.958          31.000  
G30  22927757.571 9                      2010.195          24.000  
C13  38824184.241 8 202167680.77335       749.583          29.000  
G17  24120158.137 8 126752279.64935      1105.841          26.000  
C10  37541955.119 8 195490764.44224      -516.187          30.000  
G 9  24290791.706 9 127648998.47735     -3081.569          25.000  
C 7  36967767.475 4 192500831.45422      -434.637          35.000  
G22  24413910.120 9                      1055.452          25.000  
C 9  37620051.414 8 195897449.64423     -2369.804          32.000  
> 2021  5 18  3 10 15.0010000  0 19                     
G 7  20586087.332 1 108180610.187 1        93.415          39.000  
C28  22488548.702 2 117103743.276 1     -2418.219          38.000  
G21  20832110.728 9                     -1559.757          24.000  
C 3  36736867.808 2 191298477.70221      -768.230          36.000  
G 8  22326719.190 9                     -3070.971          22.000  
C27  22491406.227 1 117118637.598 1       346.544          42.000  
C23  23422809.078 9                     -2520.811          16.000  
C 2  37386522.043 9                      -799.072          28.000  
G 1  20618136.149 1 108349025.304 1      1085.817          39.000  
C 6  38675189.902 8 201391809.37524     -2378.855          30.000  
C16  39148527.983 8 203856626.39134     -2465.424          31.000  
C 8  38041653.796 8 198092849.37723       734.572          31.000  
G30  22927376.729 9                      2006.210          25.000  
C13  38824034.178 8 202166902.01634       749.319          28.000  
G17  24119949.293 9                      1105.761          26.000  
C10  37542051.244 8 195491280.537 3      -516.197          30.000  
G 9  24291382.588 8 127652080.45124     -3081.430          27.000  
C 7  36967851.934 4 192501265.700 2      -434.024          35.000  
C 9  37620508.016 8 195899819.52423     -2369.908          32.000  
> 2021  5 18  3 10 16.0010000  0 20                     
G 7  20586069.402 2 108180516.989 1        92.849          39.000  
C28  22489013.166 4 117106161.787 2     -2419.047          32.000  
G21  20832408.769 9                     -1555.576          23.000  
C 3  36737015.672 4 191299248.96232      -769.088          32.000  
G 8  22327303.327 9                     -3070.371          21.000  
C27  22491339.533 2 117118291.332 1       345.727          37.000  
C23  23423292.108 9                     -2505.497          14.000  
C 2  37386674.261 9                      -778.076          27.000  
G 1  20617929.582 2 108347940.015 1      1084.968          39.000  
C 6  38675642.665 8                     -2377.876          23.000  
C16  39149002.690 9                     -2464.671          25.000  
C 8  38041514.700 8 198092115.80423       732.825          24.000  
G30  22926995.634 9                      2005.650          25.000  
C13  38823890.545 9                       749.558          26.000  
G17  24119741.295 9                      1105.746          26.000  
C10  37542154.445 9                      -492.875          22.000  
G 9  24291976.593 9                     -3082.365          26.000  
C 7  36967936.690 9                      -435.013          30.000  
G22  24413513.320 9                      1059.969          25.000  
C 9  37620962.053 8 195902189.52624     -2369.720          27.000  
> 2021  5 18  3 10 17.0010000  0 20                     
G 7  20586051.838 1 108180424.328 1        92.215          39.000  
C28  22489477.725 2 117108580.432 1     -2419.007          36.000  
G21  20832705.597 9                     -1557.299          24.000  
C 3  36737163.249 4 191300018.11022      -768.843          33.000  
G 8  22327886.941 9                     -3071.069          22.000  
C27  22491273.012 1 117117945.378 1       345.666          40.000  
C23  23423774.895 9                     -2505.497          15.000  
C 2  37386825.136 9                      -802.881          27.000  
G 1  20617723.189 1 108346855.236 1      1084.033          39.000  
C 6  38676097.941 8 201396564.37024     -2377.608          26.000  
C16  39149475.093 8 203861558.47235     -2465.061          27.000  
C 8  38041373.607 4 198091382.21223       733.160          27.000  
G30  22926614.713 9                      2005.069          25.000  
C13  38823748.203 9                       750.629          25.000  
G17  24119532.878 9                      1104.747          26.000  
C10  37542248.222 9                      -516.641          25.000  
G 9  24292569.831 9                     -3081.490          26.000  
C 7  36968018.802 8 192502150.07733      -434.076          32.000  
G22  24413309.318 9                      1059.969          25.000  
C 9  37621415.829 8 195904559.54923     -2370.241          29.000  
> 2021  5 18  3 10 18.0010000  0 20                     
G 7  20586034.344 1 108180332.189 1        92.132          39.000  
C28  22489942.486 2 117110999.349 1     -2419.451          37.000  
G21  20833003.088 9                     -1567.476          23.000  
C 3  36737310.886 4 191300786.17732      -768.048          34.000  
G 8  22328471.863 9                     -3068.279          23.000  
C27  22491206.745 1 117117599.770 1       345.509          41.000  
C23  23424257.454 9                     -2507.156          17.000  
C 2  37386976.368 9                      -801.758          27.000  
G 1  20617516.893 1 108345771.009 1      1083.796          39.000  
C 6  38676558.252 4 201398941.81424     -2377.531          28.000  
C16  39149948.823 8 203864024.00224     -2467.087          29.000  
C 8  38041232.818 4 198090648.65923       733.581          29.000  
G30  22926233.871 9                      2004.723          25.000  
C13  38823603.288 9                       738.105          25.000  
G17  24119322.629 9                      1104.175          27.000  
C10  37542348.552 9 195492829.20135      -515.779          27.000  
G 9  24293159.639 9 127661415.22635     -3081.873          27.000  
C 7  36968103.523 4 192502584.05123      -433.687          33.000  
G22  24413105.281 9                      1059.969          25.000  
C 9  37621873.339 8 195906929.54124     -2369.370          30.000  
> 2021  5 18  3 10 19.0010000  0 20                     
G 7  20586017.060 1 108180240.966 1        91.426          39.000  
C28  22490407.037 2 117113418.731 1     -2418.407          37.000  
G21  20833299.785 9                     -1566.542          22.000  
C 3  36737458.472 4 191301555.50722      -768.206          35.000  
G 8  22329057.117 9                     -3064.631          22.000  
C27  22491140.434 1 117117254.846 1       344.881          41.000  
C23  23424741.061 9                     -2515.962          17.000  
C 2  37387129.781 9                      -790.493          28.000  
G 1  20617310.954 1 108344687.622 1      1083.411          39.000  
C 6  38677013.292 8 201401319.48124     -2377.632          29.000  
C16  39150423.181 8 203866489.61624     -2465.796          30.000  
C 8  38041091.454 4 198089915.49023       733.246          30.000  
G30  22925853.517 9                      2005.429          25.000  
C13  38823459.917 9                       748.713          26.000  
G17  24119110.068 8 126746790.65635      1104.413          26.000  
C10  37542449.336 8 195493345.13923      -516.071          28.000  
G 9  24293756.245 8 127664497.26924     -3082.686          28.000  
C 7  36968185.530 4 192503018.20922      -434.254          33.000  
G22  24412901.053 9                      1059.969          25.000  
C 9  37622328.667 8 195909299.92724     -2371.069          30.000  
> 2021  5 18  3 10 20.0010000  0 20                     
G 7  20585999.871 1 108180150.639 1        90.025          41.000  
C28  22490871.666 2 117115838.632 1     -2419.790          37.000  
G21  20833596.832 9                     -1562.194          22.000  
C 3  36737606.406 4 191302324.30022      -769.088          35.000  
G 8  22329640.504 9                     -3069.919          22.000  
C27  22491074.411 1 117116910.682 1       343.883          42.000  
C23  23425224.860 9                     -2503.479          17.000  
C 2  37387282.645 9 194685360.39335      -794.343          33.000  
G 1  20617104.754 1 108343605.329 1      1081.757          41.000  
C 6  38677467.190 4 201403697.69424     -2379.241          28.000  
C16  39150897.766 4 203868955.79723     -2466.351          31.000  
C 8  38040951.416 8 198089182.92923       732.328          30.000  
G30  22925472.561 9                      2004.777          25.000  
C13  38823315.080 9                       748.647          26.000  
G17  24118898.179 8                      1104.395          27.000  
C10  37542546.350 8 195493861.07823      -515.805          28.000  
G 9  24294333.742 8 127667579.78724     -3082.449          32.000  
C 7  36968267.729 4 192503452.38022      -433.645          33.000  
G22  24412697.042 9                      1059.969          25.000  
C 9  37622781.902 8 195911670.69623     -2370.963          34.000  
> 2021  5 18  3 10 21.0010000  0 20                     
G 7  20585982.735 2 108180060.910 1        89.267          37.000  
C28  22491336.427 2 117118258.604 1     -2420.207          37.000  
G21  20833894.524 9                     -1562.667          22.000  
C 3  36737754.096 8 191303094.68434      -768.744          32.000  
G 8  22330225.689 9                     -3072.119          24.000  
C27  22491008.519 1 117116566.961 1       343.281          40.000  
C23  23425706.948 9                     -2503.479          15.000  
C 2  37387435.588 8 194686156.63532      -794.609          35.000  
G 1  20616898.614 2 108342523.640 1      1081.243          35.000  
C 6  38677918.767 9                     -2375.526          27.000  
C16  39151372.010 8 203871422.29623     -2466.370          30.000  
C 8  38040807.242 4 198088450.60523       732.393          29.000  
G30  22925089.756 9                      2010.193          21.000  
C13  38823173.254 8 202162419.45935       749.150          26.000  
G17  24118688.488 9                      1103.379          26.000  
C10  37542647.658 4 195494386.78033      -515.963          30.000  
G 9  24294910.140 8 127670662.56024     -3083.090          24.000  
C 7  36968353.174 4 192503886.35422      -434.565          33.000  
G22  24412494.768 9                      1057.040          23.000  
C 9  37623238.766 9                     -2366.340          23.000  
> 2021  5 18  3 10 22.0010000  0 20                     
G 7  20585965.599 2 108179971.646 1        89.582          37.000  
C28  22491801.169 2 117120678.360 1     -2419.048          38.000  
G21  20834193.577 9                     -1557.053          21.000  
C 3  36737901.707 4 191303863.65033      -767.550          32.000  
G 8  22330809.887 8 117349198.58334     -3071.136          24.000  
C27  22490942.497 2 117116223.893 1       343.135          36.000  
C23  23426186.916 9                     -2503.479          14.000  
C 2  37387588.452 8 194686952.37224      -795.688          30.000  
G 1  20616692.990 2 108341442.736 1      1081.197          36.000  
C 6  38678377.655 9                     -2379.192          26.000  
C16  39151844.894 8                     -2467.362          30.000  
C 8  38040666.079 4 198087718.13013       731.802          29.000  
G30  22924708.556 9                      1997.042          20.000  
C13  38823036.139 9                       749.104          27.000  
G17  24118483.003 9 126743483.24635      1102.234          27.000  
C10  37542744.646 4 195494901.83822      -514.667          31.000  
G 9  24295493.292 8                     -3083.140          25.000  
C 7  36968434.911 4 192504319.71322      -433.045          34.000  
G22  24412292.616 9                      1061.143          22.000  
C 9  37623690.308 9                     -2371.775          29.000  
> 2021  5 18  3 10 23.0010000  0 20                     
G 7  20585948.769 2 108179882.711 1        88.392          39.000  
C28  22492266.035 1 117123097.673 1     -2419.323          39.000  
G21  20834491.923 9                     -1562.850          22.000  
C 3  36738049.650 4 191304633.25222      -769.469          35.000  
G 8  22331396.921 9                     -3069.466          22.000  
C27  22490876.622 2 117115881.475 1       341.938          41.000  
C23  23426671.788 9                     -2510.645          18.000  
C 2  37387741.394 8 194687747.44223      -794.197          31.000  
G 1  20616487.670 2 108340362.852 2      1079.441          36.000  
C 6  38678832.216 9                     -2382.000          25.000  
C16  39152320.159 9                     -2468.312          26.000  
C 8  38040524.907 4 198086986.855 4       731.733          29.000  
G30  22924328.263 9                      2006.037          18.000  
C13  38822892.157 8                       745.094          28.000  
G17  24118273.322 9                      1101.080          25.000  
C10  37542844.042 8 195495416.09523      -514.647          32.000  
G 9  24296079.654 9                     -3083.439          31.000  
C 7  36968518.890 4 192504752.16822      -432.082          34.000  
G22  24412088.632 9                      1057.006          29.000  
C 9  37624148.376 9 195918781.93335     -2372.982          34.000  
> 2021  5 18  3 10 24.0010000  0 20                     
G 7  20585932.217 2 108179794.339 1        88.829          38.000  
C28  22492730.839 1 117125516.596 1     -2418.598          39.000  
G21  20834788.708 9                     -1574.510          23.000  
C 3  36738197.506 4 191305403.40232      -770.575          33.000  
G 8  22331981.608 9                     -3067.642          22.000  
C27  22490810.904 2 117115539.797 1       339.384          38.000  
C23  23427154.976 9                     -2509.824          18.000  
C 2  37387894.162 9                      -796.146          31.000  
G 1  20616282.508 4 108339284.180 2      1077.585          35.000  
C 6  38679289.699 9                     -2376.204          23.000  
C16  39152795.189 9                     -2471.369          27.000  
C 8  38040387.870 8 198086256.685 4       729.509          30.000  
G30  22923947.107 9                      1997.922          19.000  
C13  38822747.163 9                       744.834          29.000  
G17  24118064.364 9                      1098.452          25.000  
C10  37542942.331 4 195495929.48422      -512.833          36.000  
G 9  24296668.669 9                     -3084.066          32.000  
C 7  36968601.691 4 192505183.92022      -431.537          34.000  
G22  24411884.691 9 128285333.63235      1056.252          30.000  
C 9  37624602.980 9 195921155.29925     -2373.656          29.000  
> 2021  5 18  3 10 25.0010000  0 20                     
G 7  20585915.386 4 108179706.325 2        88.630          34.000  
C28  22493195.163 2 117127935.111 1     -2418.587          38.000  
G21  20835088.049 9                     -1556.322          22.000  
C 3  36738345.501 4 191306174.33632      -771.157          34.000  
G 8  22332569.000 9                     -3065.367          22.000  
C27  22490745.571 4 117115198.525 2       342.245          41.000  
C23  23427637.727 9                     -2509.824          17.000  
C 2  37388047.506 9                      -793.829          30.000  
G 1  20616077.416 2 108338206.851 1      1077.333          36.000  
C 6  38679747.166 9                     -2376.988          21.000  
C16  39153265.507 8                     -2471.171          27.000  
C 8  38040246.506 8 198085527.928 4       728.684          30.000  
G30  22923565.235 9                      1999.399          21.000  
C13  38822602.379 8 202159456.87835       742.428          30.000  
G17  24117855.459 9                      1100.845          24.000  
C10  37543041.902 4 195496441.72422      -510.637          35.000  
G 9  24297253.225 9 127682926.55735     -3089.663          32.000  
C 7  36968684.711 4 192505614.77422      -430.526          35.000  
G22  24411684.895 8 128284277.29025      1055.409          29.000  
C 9  37625055.630 8 195923529.56725     -2372.814          33.000  
> 2021  5 18  3 10 26.0010000  0 19                     
G 7  20585898.076 4 108179618.267 2        88.378          30.000  
C28  22493659.583 2 117130353.381 1     -2418.556          39.000  
G21  20835386.962 9                     -1567.803          20.000  
C 3  36738493.339 4 191306944.31222      -769.542          36.000  
G 8  22333149.691 9                     -3069.778          23.000  
C27  22490679.696 4 117114857.918 3       335.923          31.000  
C 2  37388200.553 8 194690139.18334      -796.166          34.000  
G 1  20615872.480 4 108337130.389 2      1076.733          36.000  
C 6  38680203.628 9                     -2382.577          22.000  
C16  39153743.085 8                     -2471.069          32.000  
C 8  38040105.979 8 198084799.530 4       729.242          31.000  
G30  22923184.567 9                      2006.840          22.000  
C13  38822460.883 8 202158712.85625       744.113          33.000  
G17  24117645.820 9                      1110.838          22.000  
C10  37543140.487 4 195496953.20321      -512.179          39.000  
G 9  24297843.557 9                     -3087.344          31.000  
C 7  36968767.460 2 192506045.14821      -430.762          40.000  
G22  24411486.023 9                      1056.912          28.000  
C 9  37625512.381 9 195925884.96235     -2373.000          40.000  
> 2021  5 18  3 10 29.0010000  0 17                     
G 7  20585847.662 4 108179359.195 1        85.360          38.000  
C28  22495054.047 1 117137613.180 1     -2421.175          41.000  
G21  20836280.728 9                     -1579.588          23.000  
C 3  36738936.933 4 191309253.83632      -770.211          37.000  
G 8  22334899.075 9                     -3073.110          23.000  
C27  22490485.816 2 117113836.51531       339.874          40.000  
C 2  37388659.459 4 194692529.72632      -795.866          36.000  
G 1  20615258.364 2 108333902.278 1      1074.617          38.000  
C 6  38681577.903 8 201425104.43434     -2381.751          30.000  
C16  39155164.641 9 203891185.29135     -2468.628          35.000  
C 8  38039687.776 8 198082611.451 3       729.190          34.000  
G30  22922041.718 9                      1999.559          21.000  
C13  38822032.070 9                       745.042          32.000  
C10  37543433.205 2 195498490.16521      -513.096          37.000  
G 9  24299600.689 8 127695262.10533     -3085.113          33.000  
C 7  36969015.881 1 192507338.999 1      -431.447          40.000  
C 9  37626882.302 4 195933013.83322     -2373.396          38.000  
> 2021  5 18  3 10 30.0010000  0 17                     
G 7  20585834.164 2 108179273.953 1        85.220          37.000  
C28  22495518.877 1 117140033.350 1     -2420.204          39.000  
G21  20836575.627 9                     -1568.381          31.000  
C 3  36739084.893 4 191310024.36232      -771.992          36.000  
G 8  22335482.584 9                     -3065.300          30.000  
C27  22490416.975 8 117113496.96023       339.918          33.000  
C 2  37388812.602 2 194693327.00431      -795.355          36.000  
G 1  20615053.856 2 108332827.953 1      1073.975          38.000  
C 6  38682038.859 9                     -2381.347          29.000  
C16  39155637.053 8 203893655.06024     -2469.910          33.000  
C 8  38039548.192 8 198081882.912 3       729.272          33.000  
G30  22921659.855 9                      2004.873          20.000  
C13  38821889.258 9                       743.684          31.000  
C10  37543531.476 4 195499001.88922      -511.917          36.000  
G 9  24300189.058 9                     -3090.211          28.000  
C 7  36969098.543 2 192507769.747 1      -430.365          39.000  
C 9  37627337.735 4 195935387.70322     -2373.681          38.000  
> 2021  5 18  3 10 31.0010000  0 17                     
G 7  20585815.946 4 108179189.087 1        84.981          38.000  
C28  22495983.428 2 117142453.135 1     -2419.817          40.000  
G21  20836863.303 8 109498511.84733     -1568.710          34.000  
C 3  36739233.115 4 191310796.44222      -770.328          37.000  
G 8  22336062.298 9 117376799.49533     -3069.241          34.000  
C27  22490360.427 9                       339.619          32.000  
C 2  37388965.623 8 194694123.45835      -793.757          26.000  
G 1  20614849.627 2 108331754.779 1      1073.342          38.000  
C 6  38682492.992 9                     -2382.147          29.000  
C16  39156111.751 8 203896117.76834     -2470.300          36.000  
C 8  38039409.323 8 198081155.445 4       728.482          32.000  
G30  22921277.983 9                      2003.943          18.000  
C13  38821742.842 9                       743.723          31.000  
C10  37543629.573 8 195499512.58323      -509.747          32.000  
G 9  24300776.877 9 127701443.87634     -3085.681          32.000  
C 7  36969181.231 2 192508199.869 1      -429.895          39.000  
C 9  37627791.964 4 195937762.32322     -2373.711          34.000  
> 2021  5 18  3 10 32.0010000  0 16                     
G 7  20585801.393 4 108179104.851 1        83.329          38.000  
C28  22496448.014 2 117144873.171 1     -2420.259          41.000  
G21  20837166.064 8 109500080.70423     -1569.315          31.000  
C 3  36739381.076 4 191311566.50732      -770.511          34.000  
G 8  22336643.783 8 117379867.20923     -3066.981          35.000  
C27  22490297.938 9                       343.250          26.000  
G 1  20614645.564 2 108330682.215 1      1072.426          38.000  
C 6  38682949.542 9                     -2383.714          29.000  
C16  39156587.697 8 203898588.51823     -2470.227          34.000  
C 8  38039271.719 9 198080438.58635       726.766          32.000  
G30  22920895.657 9                      2004.603          20.000  
C13  38821601.949 8 202154245.49734       742.578          31.000  
C10  37543728.864 8                      -511.708          30.000  
G 9  24301366.102 9                     -3081.605          26.000  
C 7  36969263.979 2 192508629.788 1      -429.751          37.000  
C 9  37628250.416 4 195940137.01522     -2374.575          36.000  
> 2021  5 18  3 10 33.0010000  0 16                     
G 7  20585785.949 4 108179021.087 1        83.780          38.000  
C28  22496913.158 2 117147293.603 1     -2421.862          41.000  
G21  20837460.205 8 109501650.25324     -1570.097          31.000  
C 3  36739529.237 4 191312338.58532      -770.422          36.000  
G 8  22337232.553 8 117382935.18723     -3066.929          31.000  
C27  22490237.115 9                       341.496          26.000  
G 1  20614441.484 2 108329610.256 1      1072.209          40.000  
C 6  38683406.171 9                     -2384.402          30.000  
C16  39157064.306 8 203901059.32622     -2469.879          35.000  
C 8  38039130.940 8 198079711.30023       727.653          33.000  
G30  22920514.771 9                      2001.918          21.000  
C13  38821454.163 8 202153502.20824       741.579          31.000  
C10  37543829.604 8 195500526.88934      -512.539          30.000  
G 9  24301950.186 9                     -3084.566          33.000  
C 7  36969346.336 2 192509059.658 1      -429.345          38.000  
C 9  37628708.004 9                     -2394.199          27.000  
> 2021  5 18  3 10 34.0010000  0 16                     
G 7  20585770.759 2 108178938.174 1        83.035          33.000  
C28  22497377.962 4 117149714.250 2     -2419.827          40.000  
G21  20837760.707 8 109503220.28925     -1571.147          30.000  
C 3  36739677.389 4 191313109.76232      -771.503          36.000  
G 8  22337816.272 9                     -3072.120          25.000  
C27  22490174.574 9                       338.571          25.000  
G 1  20614237.727 2 108328538.961 1      1071.281          40.000  
C 6  38683864.859 9                     -2383.741          28.000  
C16  39157535.672 8 203903530.13123     -2470.636          32.000  
C 8  38038990.657 8 198078984.21722       725.806          33.000  
G30  22920132.201 9                      2003.726          23.000  
C13  38821315.783 8 202152758.86425       743.705          31.000  
C10  37543926.261 8 195501037.35225      -510.038          30.000  
G 9  24302538.233 9                     -3085.133          31.000  
C 7  36969428.989 2 192509489.553 1      -430.152          37.000  
C 9  37629168.716 9                     -2378.204          23.000  
> 2021  5 18  3 10 35.0010000  0 16                     
G 7  20585754.914 2 108178855.579 1        83.142          36.000  
C28  22497842.749 4 117152135.218 2     -2421.151          41.000  
G21  20838058.416 8 109504791.06924     -1570.295          31.000  
C 3  36739825.568 4 191313880.57622      -770.507          36.000  
G 8  22338398.612 9                     -3082.967          25.000  
C27  22490104.502 9                       340.027          31.000  
G 1  20614033.873 2 108327467.980 1      1070.881          39.000  
C 6  38684319.986 9                     -2382.080          29.000  
C16  39158011.051 8                     -2467.943          28.000  
C 8  38038850.803 8 198078256.93023       726.902          32.000  
G30  22919750.757 9                      2002.149          22.000  
C13  38821174.139 8 202152015.20124       744.295          32.000  
C10  37544024.087 9                      -512.701          28.000  
G 9  24303130.301 9                     -3086.095          26.000  
C 7  36969511.589 4 192509919.372 2      -430.723          37.000  
C 9  37629624.804 9                     -2381.548          24.000  
> 2021  5 18  3 10 36.0010000  0 17                     
G 7  20585739.296 4 108178773.596 2        82.123          36.000  
C28  22498307.134 4 117154556.019 2     -2420.040          38.000  
G21  20838359.555 8 109506362.61224     -1573.402          31.000  
C 3  36739973.720 4 191314652.84432      -770.485          36.000  
G 8  22338987.783 9                     -3074.273          26.000  
C27  22490039.474 9 117111505.29634       336.252          35.000  
C23  23432946.939 9 122021472.34935     -2511.801          33.000  
G 1  20613830.273 1 108326398.093 1      1069.976          40.000  
C 6  38684782.740 9                     -2379.814          28.000  
C16  39158487.223 8 203908487.19134     -2470.496          34.000  
C 8  38038710.075 8 198077530.41524       725.969          32.000  
G30  22919369.112 9                      2009.896          21.000  
C13  38821029.093 8 202151272.47724       742.409          32.000  
C10  37544119.959 9                      -515.271          26.000  
G 9  24303724.411 9                     -3087.572          24.000  
C 7  36969593.928 2 192510348.684 1      -429.586          38.000  
C 9  37630083.666 9                     -2374.209          20.000  
> 2021  5 18  3 10 37.0010000  0 17                     
G 7  20585723.373 8 108178692.393 3        79.725          35.000  
C28  22498772.209 4 117156977.353 2     -2422.369          39.000  
G21  20838656.767 8 109507934.08915     -1572.741          31.000  
C 3  36740121.750 4 191315423.13632      -771.774          35.000  
G 8  22339574.704 9                     -3070.481          25.000  
C27  22489979.018 9                       337.164          26.000  
C23  23433430.135 8 122023984.84123     -2513.557          33.000  
G 1  20613627.030 1 108325328.784 1      1069.624          41.000  
C 6  38685240.695 9                     -2382.204          28.000  
C16  39158959.130 8 203910958.21523     -2470.850          33.000  
C 8  38038569.540 8 198076803.81323       728.143          32.000  
G30  22918987.345 9                      2005.617          23.000  
C13  38820886.193 8 202150529.73324       742.963          32.000  
C10  37544219.329 9                      -511.039          27.000  
G 9  24304313.618 9                     -3076.785          24.000  
C 7  36969676.241 4 192510778.107 2      -430.948          39.000  
C 9  37630539.684 9                     -2360.280          21.000  
> 2021  5 18  3 10 38.0010000  0 16                     
G 7  20585707.694 2 108178612.035 2        80.077          40.000  
C28  22499237.597 4 117159399.909 3     -2422.282          39.000  
G21  20838960.243 8 109509506.667 4     -1571.828          31.000  
C 3  36740269.536 4 191316193.36822      -771.176          35.000  
G 8  22340161.764 9                     -3073.892          24.000  
C27  22489918.221 9                       337.460          26.000  
C23  23433912.660 8 122026499.07322     -2515.766          35.000  
G 1  20613423.534 1 108324259.094 1      1068.870          39.000  
C 6  38685699.243 9                     -2380.156          28.000  
C16  39159437.056 8 203913433.34835     -2469.745          33.000  
C 8  38038431.177 8 198076075.89623       729.168          32.000  
G30  22918605.691 9                      1995.555          22.000  
C13  38820748.336 8 202149784.90624       745.195          31.000  
C10  37544315.096 9                      -511.595          27.000  
G 9  24304904.535 9                     -3077.620          22.000  
C 7  36969759.016 4 192511208.397 2      -431.140          37.000  
> 2021  5 18  3 10 39.0010000  0 17                     
G 7  20585692.346 1 108178532.512 1        79.268          41.000  
C28  22499702.811 4 117161823.104 2     -2423.263          41.000  
G21  20839263.118 9                     -1572.003          30.000  
C 3  36740417.252 4 191316962.31932      -769.065          37.000  
G 8  22340747.742 9                     -3070.141          23.000  
C27  22489849.781 9                       337.574          25.000  
C23  23434394.024 8 122029014.07424     -2511.999          29.000  
G 1  20613220.047 2 108323189.641 1      1069.195          40.000  
C 6  38686153.376 9                     -2380.798          28.000  
C16  39159909.817 8 203915901.99724     -2469.263          31.000  
C 8  38038291.846 8 198075347.15213       728.779          34.000  
G30  22918223.959 9                      2001.103          22.000  
C13  38820605.114 8 202149039.74725       744.600          31.000  
C10  37544413.114 9                      -511.549          27.000  
G 9  24305494.448 9                     -3075.549          22.000  
C 7  36969841.913 4 192511639.056 2      -429.307          36.000  
C 9  37631449.111 9                     -2365.156          23.000  
> 2021  5 18  3 10 40.0010000  0 17                     
G 7  20585677.426 1 108178453.336 1        78.552          41.000  
C28  22500168.060 2 117164246.009 1     -2422.271          38.000  
G21  20839559.161 9 109512621.91134     -1574.175          35.000  
C 3  36740565.221 9                      -770.264          31.000  
G 8  22341333.206 9                     -3078.391          28.000  
C27  22489785.626 9                       336.968          24.000  
C23  23434881.854 8 122031529.12624     -2515.445          30.000  
G 1  20613016.656 2 108322121.230 1      1068.545          40.000  
C 6  38686613.189 9 201451302.00935     -2380.896          28.000  
C16  39160382.928 8 203918371.44325     -2469.420          24.000  
C 8  38038151.834 8 198074619.667 4       727.269          29.000  
G30  22917843.143 9                      1999.954          22.000  
C13  38820457.878 8 202148295.35624       744.562          30.000  
C10  37544513.897 9                      -510.343          26.000  
G 9  24306078.829 9                     -3080.623          24.000  
C 7  36969924.697 4 192512069.100 2      -429.003          34.000  
C 9  37631905.347 9                     -2382.021          23.000  
> 2021  5 18  3 10 41.0010000  0 18                     
G 7  20585662.445 2 108178374.898 1        78.156          39.000  
C28  22500633.597 2 117166669.583 1     -2423.638          41.000  
G21  20839857.507 8 109514196.37322     -1574.035          37.000  
C 3  36740713.059 8 191318502.34134      -771.506          33.000  
G 8  22341917.692 9                     -3071.135          27.000  
C27  22489718.599 9                       331.067          24.000  
C23  23435362.276 8 122034044.47823     -2514.458          26.000  
G 1  20612813.693 2 108321053.269 1      1067.209          40.000  
C25  27667159.690 9                     -3659.388          10.000  
C 6  38687068.483 8                     -2379.943          28.000  
C16  39160858.752 9                     -2465.807          25.000  
C 8  38038012.302 8 198073892.007 3       727.114          31.000  
G30  22917462.842 9                      1991.181          23.000  
C13  38820313.625 8 202147550.55223       746.019          31.000  
C10  37544611.086 9                      -510.705          28.000  
G 9  24306666.352 9                     -3083.920          29.000  
C 7  36970007.411 4 192512499.466 2      -431.231          36.000  
C 9  37632363.171 9                     -2380.531          23.000  
> 2021  5 18  3 10 42.0010000  0 17                     
G 7  20585647.639 2 108178296.910 1        76.913          40.000  
C28  22501098.986 2 117169093.151 1     -2423.621          40.000  
G21  20840156.552 4 109515771.47021     -1574.626          41.000  
C 3  36740860.793 8 191319271.50433      -770.403          33.000  
G 8  22342500.931 9                     -3076.839          27.000  
C27  22489651.355 9                       350.367          23.000  
C23  23435847.732 8                     -2515.345          26.000  
G 1  20612610.459 2 108319986.084 1      1066.485          40.000  
C 6  38687525.653 9                     -2380.024          27.000  
C16  39161335.814 9                     -2434.529          24.000  
C 8  38037871.723 4 198073164.561 2       728.163          32.000  
G30  22917081.083 9                      2005.311          24.000  
C13  38820174.041 8 202146806.22924       745.828          31.000  
C10  37544707.979 8 195505121.09635      -510.263          27.000  
G 9  24307251.903 9                     -3084.978          18.000  
C 7  36970089.924 8 192512929.354 3      -429.124          34.000  
C 9  37632820.349 9                     -2372.275          21.000  
> 2021  5 18  3 10 43.0010000  0 16                     
G 7  20585632.824 2 108178219.611 1        77.002          40.000  
C28  22501564.444 2 117171516.947 1     -2426.086          38.000  
G21  20840458.353 4 109517347.36321     -1575.956          43.000  
C 3  36741008.858 8 191320043.26334      -771.815          32.000  
G 8  22343084.449 9                     -3082.533          25.000  
C27  22489587.766 9                       336.210          23.000  
G 1  20612407.382 2 108318919.855 1      1066.113          41.000  
C 6  38687981.932 9                     -2385.143          25.000  
C16  39161812.833 9                     -2459.264          22.000  
C 8  38037731.415 8 198072437.947 3       726.349          31.000  
G30  22916703.085 9                      1986.522          23.000  
C13  38820030.880 8 202146062.63324       743.206          30.000  
C10  37544809.783 8 195505631.08824      -509.737          30.000  
G 9  24307839.434 9                     -3076.345          27.000  
C 7  36970172.324 4 192513359.137 3      -429.967          34.000  
C 9  37633277.553 9                     -2374.352          19.000  
> 2021  5 18  3 10 44.0010000  0 17                     
G 7  20585618.052 4 108178142.802 2        77.603          35.000  
C28  22502029.850 2 117173940.589 1     -2423.636          37.000  
G21  20840758.480 2 109518923.79121     -1577.118          39.000  
C 3  36741156.679 8 191320814.01623      -770.828          33.000  
G 8  22343675.078 9                     -3079.373          25.000  
C27  22489522.145 9                       341.210          24.000  
G 1  20612204.794 2 108317854.369 1      1064.830          39.000  
C25  27669267.833 9                     -3659.388          11.000  
C 6  38688440.061 9                     -2372.765          24.000  
C16  39162288.989 9                     -2462.810          21.000  
C 8  38037594.614 8 198071711.458 3       726.316          32.000  
G30  22916325.244 9                      2000.135          23.000  
C13  38819887.543 8 202145319.12123       743.673          32.000  
C10  37544906.091 8 195506140.90424      -508.978          31.000  
G 9  24308426.337 9                     -3085.715          27.000  
C 7  36970254.654 4 192513788.504 2      -428.331          37.000  
C 9  37633733.475 9                     -2366.904          20.000  
> 2021  5 18  3 10 45.0010000  0 17                     
G 7  20585602.792 4 108178066.519 2        76.821          34.000  
C28  22502495.431 2 117176364.557 1     -2424.208          41.000  
G21  20841054.950 2 109520500.74321     -1577.937          37.000  
C 3  36741304.386 4 191321581.65733      -770.435          33.000  
G 8  22344256.597 9                     -3076.164          25.000  
C27  22489456.707 9                       338.472          25.000  
G 1  20612002.232 2 108316789.415 1      1064.944          39.000  
C25  27669971.208 9                     -3659.388          13.000  
C 6  38688897.807 9                     -2382.608          21.000  
C16  39162764.734 9                     -2466.368          21.000  
C 8  38037455.527 8 198070985.046 4       727.960          31.000  
G30  22915941.575 9                      2001.143          30.000  
C13  38819744.391 8 202144575.693 4       745.195          32.000  
C10  37545003.289 4 195506650.45822      -509.766          33.000  
G 9  24309012.621 9                     -3082.658          27.000  
C 7  36970337.028 2 192514217.742 1      -429.370          38.000  
C 9  37634190.601 9                     -2371.580          20.000  
> 2021  5 18  3 10 46.0010000  0 17                     
G 7  20585589.224 4 108177991.223 2        75.692          36.000  
C28  22502960.915 2 117178789.616 1     -2426.008          39.000  
G21  20841355.338 2 109522078.21621     -1577.833          41.000  
C 3  36741452.172 4 191322351.45132      -769.906          34.000  
G 8  22344840.447 9                     -3073.533          25.000  
C27  22489391.949 9                       334.322          24.000  
G 1  20611799.408 2 108315724.035 1      1065.571          39.000  
C25  27670674.391 9                     -3659.388          10.000  
C 6  38689355.910 9                     -2382.608          19.000  
C16  39163239.049 9                     -2469.708          20.000  
C 8  38037314.154 8 198070257.425 4       728.257          31.000  
G30  22915560.052 9                      1997.476          24.000  
C13  38819600.618 8 202143830.524 3       745.327          29.000  
C10  37545100.574 8 195507161.21623      -510.347          33.000  
G 9  24309599.873 9                     -3070.311          24.000  
C 7  36970419.437 4 192514647.898 2      -431.313          36.000  
C 9  37634647.378 9                     -2368.801          18.000  
> 2021  5 18  3 10 47.0010000  0 17                     
G 7  20585573.589 4 108177916.496 2        74.263          36.000  
C28  22503426.566 1 117181214.854 1     -2425.184          41.000  
G21  20841653.737 4 109523656.38622     -1577.871          32.000  
C 3  36741599.993 4 191323121.25322      -770.535          34.000  
G 8  22345424.008 9                     -3078.059          25.000  
C27  22489327.278 9                       332.698          22.000  
G 1  20611596.898 2 108314659.415 1      1064.657          42.000  
C25  27671376.980 9                     -3659.388          11.000  
C 6  38689814.039 9                     -2374.622          17.000  
C16  39163714.419 9                     -2459.211          19.000  
C 8  38037174.081 8 198069530.005 4       726.139          31.000  
G30  22915172.352 9                      1998.264          30.000  
C13  38819458.582 8 202143085.585 4       744.585          29.000  
C10  37545198.670 4 195507671.76622      -510.781          34.000  
G 9  24310187.117 9                     -3082.146          24.000  
C 7  36970501.985 2 192515077.748 1      -430.082          37.000  
C 9  37635104.382 9                     -2372.317          19.000  
> 2021  5 18  3 10 48.0010000  0 17                     
G 7  20585561.234 4 108177842.184 2        74.252          36.000  
C28  22503892.260 1 117183639.639 1     -2424.267          41.000  
G21  20841950.853 4 109525235.07422     -1579.656          36.000  
C 3  36741748.032 4 191323891.96432      -772.045          36.000  
G 8  22346006.566 9                     -3071.197          31.000  
C27  22489265.391 9                       335.931          21.000  
G 1  20611394.554 2 108313596.286 1      1062.367          40.000  
C25  27672080.049 9                     -3659.388          12.000  
C 6  38690268.853 9                     -2368.701          17.000  
C16  39164188.323 9                     -2470.573          20.000  
C 8  38037033.912 8 198068803.892 4       725.160          28.000  
G30  22914792.286 9                      1992.742          23.000  
C13  38819315.202 8 202142342.177 4       744.454          29.000  
C10  37545296.252 4 195508181.12322      -508.792          35.000  
G 9  24310775.739 9                     -3075.101          24.000  
C 7  36970584.184 2 192515506.790 1      -428.910          38.000  
C 9  37635562.459 9                     -2380.406          18.000  
> 2021  5 18  3 10 49.0010000  0 18                     
G 7  20585546.611 4 108177768.286 2        74.534          39.000  
C28  22504358.198 1 117186064.730 1     -2426.054          41.000  
G21  20842254.975 4 109526814.429 2     -1581.650          33.000  
C 3  36741895.879 4 191324661.37632      -770.551          34.000  
G 8  22346590.826 9                     -3077.702          30.000  
C27  22489202.518 9                       336.555          19.000  
C 1  37686634.918 9                      -828.922          28.000  
G 1  20611192.559 2 108312533.529 1      1063.190          40.000  
C25  27672782.525 9                     -3659.388          11.000  
C 6  38690725.752 9                     -2376.683          18.000  
C16  39164664.251 9                     -2458.496          19.000  
C 8  38036894.145 8 198068077.610 3       726.784          31.000  
G30  22914411.741 9                      1997.418          23.000  
C13  38819171.962 9                       743.475          30.000  
C10  37545395.334 4 195508690.33322      -509.172          36.000  
G 9  24311358.969 9                     -3082.603          23.000  
C 7  36970666.471 4 192515935.725 2      -429.982          36.000  
C 9  37636021.775 9                     -2383.323          19.000  
> 2021  5 18  3 10 50.0010000  0 18                     
G 7  20585533.898 2 108177695.283 1        72.575          38.000  
C28  22504823.962 2 117188490.368 1     -2425.156          41.000  
G21  20842557.405 8 109528394.430 3     -1580.221          33.000  
C 3  36742043.804 4 191325431.52322      -769.895          36.000  
G 8  22347173.541 9                     -3076.844          28.000  
C27  22489139.793 9                       338.326          19.000  
C 1  37686772.356 9                      -794.532          28.000  
C23  23439731.723 9                     -2523.218          25.000  
G 1  20610990.407 2 108311471.064 1      1061.746          40.000  
C 6  38691183.707 9                     -2367.772          19.000  
C16  39165140.791 9                     -2462.329          19.000  
C 8  38036753.775 8 198067351.050 4       726.930          31.000  
G30  22914034.310 9                      1999.422          23.000  
C13  38819031.122 8                       743.865          29.000  
C10  37545492.130 2 195509200.02021      -509.457          37.000  
G 9  24311945.793 9                     -3087.545          22.000  
C 7  36970749.063 2 192516364.991 1      -429.445          38.000  
C 9  37636480.497 9                     -2384.131          18.000  
> 2021  5 18  3 10 51.0010000  0 19                     
G 7  20585520.619 4 108177623.196 1        71.160          38.000  
C28  22505290.127 2 117190917.030 1     -2427.063          40.000  
G21  20842859.294 8 109529975.179 3     -1580.115          35.000  
C 3  36742191.643 4 191326202.37832      -769.984          35.000  
G 8  22347758.455 9                     -3073.242          21.000  
C27  22489076.396 9                       337.551          20.000  
C 1  37686917.786 9 196245638.68035      -799.517          30.000  
C23  23440212.930 9                     -2523.749          26.000  
C 4  38622876.714 9                      -764.914          29.000  
G 1  20610788.168 1 108310408.897 1      1062.300          41.000  
C 6  38691642.333 9                     -2388.755          20.000  
C16  39165614.887 9                     -2464.803          19.000  
C 8  38036616.957 8 198066624.071 4       726.700          31.000  
G30  22913654.026 9                      1993.377          22.000  
C13  38818886.189 8 202140095.83235       744.108          29.000  
C10  37545590.323 2 195509709.88011      -510.014          37.000  
G 9  24312534.145 9                     -3075.820          21.000  
C 7  36970831.585 2 192516794.858 1      -430.050          38.000  
C 9  37636938.565 9                     -2372.282          19.000  
> 2021  5 18  3 10 52.0010000  0 19                     
G 7  20585505.760 2 108177551.458 1        71.810          38.000  
C28  22505756.178 2 117193343.489 1     -2427.053          38.000  
G21  20843159.219 8 109531556.405 3     -1581.776          37.000  
C 3  36742339.455 4 191326971.48332      -770.166          35.000  
G 8  22348340.908 9 117441323.87335     -3075.990          35.000  
C27  22489012.625 9                       328.025          22.000  
C 1  37687066.672 9                      -802.665          30.000  
C23  23440694.251 8 122061832.05133     -2523.227          33.000  
C 4  38623020.870 9                      -775.146          28.000  
G 1  20610586.120 2 108309347.656 1      1061.195          42.000  
C 6  38692100.864 9                     -2390.074          19.000  
C16  39166088.433 9                     -2469.710          20.000  
C 8  38036475.435 8                       727.304          31.000  
G30  22913268.778 9                      1997.810          30.000  
C13  38818746.003 9                       743.038          28.000  
C10  37545688.149 2 195510219.579 1      -509.190          37.000  
G 9  24313120.725 9                     -3083.114          21.000  
C 7  36970914.124 4 192517224.200 2      -431.210          35.000  
C 9  37637394.496 9                     -2374.443          18.000  
> 2021  5 18  3 10 53.0010000  0 19                     
G 7  20585492.376 2 108177480.284 1        70.195          39.000  
C28  22506222.134 2 117195769.923 1     -2426.985          40.000  
G21  20843462.033 8 109533138.301 3     -1583.021          34.000  
C 3  36742487.363 9                      -769.092          32.000  
G 8  22348932.104 8 117444430.54835     -3077.870          31.000  
C27  22488949.830 9                       339.303          21.000  
C 1  37687217.834 9 196247214.60534      -801.502          35.000  
C23  23441171.095 9                     -2526.459          32.000  
C 4  38623178.332 9 201120993.05235      -793.194          32.000  
G 1  20610384.239 1 108308286.993 1      1059.962          43.000  
C 6  38692560.686 9                     -2386.756          20.000  
C16  39166561.099 9                     -2462.805          21.000  
C 8  38036337.360 8 198065157.88234       726.179          32.000  
G30  22912889.681 9                      1996.497          30.000  
C13  38818602.527 8                       742.675          28.000  
C10  37545785.957 2 195510728.924 1      -508.412          38.000  
G 9  24313706.006 9                     -3055.635          26.000  
C 7  36970996.376 4 192517653.108 2      -428.612          35.000  
C 9  37637850.208 9                     -2376.236          19.000  
> 2021  5 18  3 10 54.0010000  0 18                     
G 7  20585478.686 2 108177409.636 1        70.263          39.000  
C28  22506687.854 2 117198196.728 1     -2426.385          38.000  
G21  20843759.699 4 109534720.162 2     -1581.354          36.000  
C 3  36742635.201 8 191328511.57533      -770.214          35.000  
G 8  22349520.578 9                     -3082.136          27.000  
C27  22488886.215 9                       329.022          21.000  
C 1  37687373.647 4 196248014.40322      -799.075          37.000  
C23  23441657.442 9 122066830.55734     -2523.845          37.000  
C 4  38623332.156 9                      -805.225          27.000  
G 1  20610182.462 1 108307226.775 1      1060.173          43.000  
C 6  38693019.662 9                     -2370.437          19.000  
C 8  38036195.263 8                       727.543          31.000  
G30  22912500.898 9                      2002.348          20.000  
C13  38818457.760 8                       744.421          27.000  
C10  37545883.914 2 195511238.189 1      -509.309          38.000  
G 9  24314291.914 9                     -3080.547          24.000  
C 7  36971078.532 4 192518082.004 3      -426.413          32.000  
C 9  37638308.059 9                     -2372.943          20.000  
> 2021  5 18  3 10 55.0010000  0 18                     
G 7  20585465.232 2 108177339.514 1        70.207          41.000  
C28  22507153.906 2 117200623.782 1     -2427.613          40.000  
G21  20844060.113 9                     -1585.247          32.000  
C 3  36742782.996 4 191329281.14932      -770.223          35.000  
G 8  22350107.577 9                     -3078.298          27.000  
C27  22488824.651 9                       324.078          22.000  
C 1  37687527.192 4 196248813.94622      -801.229          33.000  
C23  23442138.352 8 122069355.39423     -2524.200          38.000  
C 4  38623484.453 9                      -784.180          29.000  
G 1  20609980.763 2 108306166.888 1      1059.859          39.000  
C16  39167510.399 9                     -2460.827          21.000  
C 8  38036057.476 8 198063691.82333       726.663          29.000  
G30  22912128.424 9                      1994.262          28.000  
C13  38818313.857 9                       744.932          27.000  
C10  37545981.932 2 195511747.474 1      -508.615          38.000  
G 9  24314879.271 9                     -3080.547          19.000  
C 7  36971160.530 8 192518511.104 4      -428.938          34.000  
C 9  37638765.848 9                     -2374.145          20.000  
> 2021  5 18  3 10 56.0010000  0 19                     
G 7  20585451.987 2 108177270.194 1        68.945          37.000  
C28  22507620.027 4 117203051.091 2     -2427.133          40.000  
G21  20844362.883 9                     -1581.888          32.000  
C 3  36742931.122 4 191330051.17722      -769.188          35.000  
G 8  22350685.580 9                     -3079.427          25.000  
C27  22488760.164 9                       328.660          23.000  
C 1  37687681.041 9                      -801.103          30.000  
C23  23442628.843 8 122071881.00823     -2524.640          32.000  
C 4  38623625.573 9                      -706.348          27.000  
G 1  20609779.117 2 108305107.887 1      1060.008          42.000  
C 6  38693936.051 9                     -2377.918          19.000  
C16  39167983.963 9                     -2468.169          21.000  
C 8  38035916.941 8 198062965.73523       726.705          34.000  
G30  22911749.091 9                      1996.184          27.000  
C13  38818172.702 9                       744.211          25.000  
C10  37546079.644 2 195512256.571 1      -508.785          37.000  
G 9  24315465.345 9                     -3081.392          20.000  
C 7  36971244.492 8 192518940.007 5      -430.112          33.000  
C 9  37639221.211 9                     -2379.922          21.000  
> 2021  5 18  3 10 57.0010000  0 18                     
G 7  20585438.664 2 108177201.629 1        67.295          39.000  
C28  22508086.341 2 117205479.319 1     -2428.641          38.000  
G21  20844661.221 9                     -1587.631          26.000  
C 3  36743078.881 4 191330820.59722      -770.032          35.000  
G 8  22351273.365 9                     -3074.503          27.000  
C27  22488696.200 9                       330.971          24.000  
C 1  37687834.813 9                      -791.268          28.000  
C23  23443116.542 9                     -2523.366          28.000  
G 1  20609577.620 2 108304048.996 1      1058.728          41.000  
C 6  38694393.596 9                     -2374.826          20.000  
C16  39168459.787 9                     -2468.604          21.000  
C 8  38035775.324 8 198062238.82823       727.960          32.000  
G30  22911377.890 9                      1992.955          26.000  
C13  38818028.642 9                       738.162          25.000  
C10  37546177.627 1 195512766.392 1      -510.685          37.000  
G 9  24316053.749 9                     -3085.802          19.000  
C 7  36971328.209 9                      -430.421          30.000  
C 9  37639674.856 9                     -2368.757          22.000  
> 2021  5 18  3 10 58.0010000  0 17                     
G 7  20585425.803 1 108177133.796 1        67.767          42.000  
C28  22508552.933 2 117207908.060 1     -2429.780          36.000  
G21  20844974.478 9                     -1585.909          26.000  
C 3  36743226.467 2 191331590.87431      -769.447          36.000  
G 8  22351868.705 9                     -3076.556          31.000  
C27  22488633.650 9                       328.038          25.000  
C23  23443595.507 9                     -2526.411          26.000  
G 1  20609376.340 1 108302990.595 1      1057.334          42.000  
C 6  38694848.497 9                     -2369.698          20.000  
C16  39168933.482 9                     -2468.383          20.000  
C 8  38035639.404 8 198061511.88824       727.215          32.000  
G30  22910995.512 9                      1992.220          26.000  
C13  38817887.234 9                       747.978          25.000  
C10  37546275.680 2 195513276.408 1      -509.485          37.000  
G 9  24316642.013 9                     -3073.268          21.000  
C 7  36971410.662 9                      -430.941          25.000  
C 9  37640131.004 9                     -2386.260          22.000  
> 2021  5 18  3 10 59.0010000  0 18                     
G 7  20585412.968 2 108177066.578 1        66.246          39.000  
C28  22509019.299 4 117210337.095 2     -2429.610          33.000  
G21  20845280.834 9                     -1584.381          24.000  
C 3  36743373.999 2 191332359.89021      -767.897          37.000  
G 8  22352450.024 9                     -3078.220          23.000  
C27  22488570.916 9                       325.124          26.000  
C23  23444090.360 9                     -2524.013          27.000  
C 4  38624092.017 9                      -753.047          29.000  
G 1  20609175.226 2 108301932.480 1      1058.481          40.000  
C 6  38695304.995 9                     -2356.714          20.000  
C16  39169406.261 9                     -2463.564          21.000  
C 8  38035501.329 8 198060784.71723       724.433          33.000  
G30  22910613.745 9                      2017.753          26.000  
C13  38817745.285 9                       739.565          25.000  
C10  37546373.715 2 195513786.456 1      -510.196          37.000  
G 9  24317230.635 9                     -3081.474          29.000  
C 7  36971493.541 9                      -428.764          24.000  
C 9  37640588.985 9                     -2377.646          21.000  
> 2021  5 18  3 11  0.0010000  0 18                     
G 7  20585400.439 1 108177000.125 1        65.665          40.000  
C28  22509485.717 2 117212767.014 2     -2431.141          37.000  
G21  20845581.475 9                     -1585.876          29.000  
C 3  36743521.506 2 191333127.21531      -768.478          37.000  
G 8  22353036.544 9                     -3072.194          22.000  
C27  22488507.816 9                       333.668          25.000  
C23  23444565.102 9                     -2526.339          27.000  
C 4  38624246.242 9                      -797.852          27.000  
G 1  20608973.799 1 108300874.222 1      1057.826          42.000  
C 6  38695759.608 9                     -2367.096          20.000  
C16  39169878.254 9                     -2473.209          22.000  
C 8  38035362.487 4 198060056.38422       728.705          34.000  
G30  22910233.408 9                      1990.675          22.000  
C13  38817602.263 9                       745.026          26.000  
C10  37546471.768 2 195514297.164 1      -510.712          37.000  
G 9  24317817.914 9 127790989.55935     -3081.417          28.000  
C 7  36971573.786 9                      -429.774          25.000  
C 9  37641044.200 9                     -2384.769          20.000  
> 2021  5 18  3 11  1.0010000  0 17                     
G 7  20585388.049 2 108176934.528 1        64.992          38.000  
C28  22509952.083 4 117215197.212 2     -2430.693          35.000  
G21  20845877.579 9                     -1586.837          30.000  
C 3  36743669.091 9                      -768.897          33.000  
G 8  22353615.838 9                     -3070.643          21.000  
C27  22488445.301 9                       328.178          24.000  
C 4  38624405.493 9                      -788.379          27.000  
G 1  20608772.999 1 108299817.216 1      1056.734          42.000  
C 6  38696217.493 9                     -2370.634          20.000  
C16  39170353.572 9                     -2478.800          21.000  
C 8  38035221.716 8 198059329.23524       726.168          30.000  
G30  22909853.482 9                      1990.675          17.000  
C13  38817457.409 9                       749.181          24.000  
C10  37546569.995 4 195514807.747 2      -510.528          34.000  
G 9  24318406.274 9                     -3075.228          18.000  
C 7  36971661.927 8 192521113.59034      -427.826          32.000  
C 9  37641500.140 9                     -2378.033          20.000  
> 2021  5 18  3 11  2.0010000  0 17                     
G 7  20585375.477 1 108176869.273 1        65.306          41.000  
C28  22510418.946 4 117217627.049 2     -2430.524          35.000  
G21  20846176.388 8                     -1586.858          30.000  
C 3  36743816.668 8 191334663.51233      -768.713          36.000  
G 8  22354199.156 9                     -3068.964          20.000  
C27  22488381.956 9                       324.723          25.000  
C 4  38624559.700 9                      -780.615          29.000  
G 1  20608571.999 1 108298761.384 1      1055.300          41.000  
C 6  38696674.889 9                     -2380.811          20.000  
C16  39170825.635 9                     -2473.475          21.000  
C 8  38035081.651 8 198058602.80224       726.392          32.000  
G30  22909471.296 9 120390083.69835      1994.020          29.000  
C13  38817313.758 9                       742.086          24.000  
C10  37546667.778 2 195515317.401 1      -509.361          37.000  
G 9  24318992.593 9                     -3084.854          18.000  
C 7  36971739.267 8                      -428.273          26.000  
C 9  37641956.594 9                     -2373.926          19.000  
> 2021  5 18  3 11  3.0010000  0 17                     
G 7  20585362.764 1 108176804.258 1        65.054          39.000  
C28  22510885.635 4 117220056.442 2     -2430.663          35.000  
G21  20846473.155 8 109548955.60134     -1587.557          34.000  
C 3  36743964.593 4 191335434.70232      -770.819          36.000  
G 8  22354784.663 9                     -3074.953          21.000  
C27  22488322.207 9                       327.540          25.000  
C 4  38624711.168 9                      -760.107          28.000  
G 1  20608371.408 1 108297706.911 1      1054.306          40.000  
C 6  38697132.652 9                     -2367.681          20.000  
C16  39171297.620 9                     -2460.628          22.000  
C 8  38034942.399 9                       722.178          32.000  
G30  22909098.376 9                      1992.870          28.000  
C13  38817171.365 9                       761.071          23.000  
C10  37546765.342 2 195515825.761 1      -508.293          37.000  
G 9  24319579.784 9                     -3088.452          18.000  
C 7  36971822.234 8 192521944.59534      -427.396          31.000  
C 9  37642413.423 9                     -2372.558          17.000  
> 2021  5 18  3 11  4.0010000  0 18                     
G 7  20585350.313 2 108176739.961 1        64.477          43.000  
C28  22511352.324 4 117222485.693 2     -2429.354          37.000  
G21  20846777.129 4 109550544.28022     -1589.430          46.000  
C 3  36744112.728 4 191336205.32832      -770.302          37.000  
G 8  22355369.751 9                     -3073.889          19.000  
C27  22488257.257 9                       329.231          26.000  
C 1  37688914.990 9                      -765.203          28.000  
C 4  38624865.166 9                      -820.557          28.000  
G 1  20608171.019 2 108296653.519 1      1054.152          45.000  
C 6  38697588.408 9                     -2380.906          20.000  
C16  39171773.208 9                     -2460.640          22.000  
C 8  38034801.069 9                       728.272          35.000  
G30  22908717.290 9                      1990.533          27.000  
C13  38817030.594 9                       745.261          25.000  
C10  37546862.932 2 195516333.738 1      -508.135          37.000  
G 9  24320168.257 9                     -3098.739          17.000  
C 7  36971900.638 8 192522372.59423      -428.554          35.000  
C 9  37642872.163 9                     -2376.014          18.000  
> 2021  5 18  3 11  5.0010000  0 18                     
G 7  20585338.308 4 108176676.584 2        62.898          33.000  
C28  22511819.422 4 117224916.151 2     -2430.966          41.000  
G21  20847084.236 4 109552133.91122     -1590.068          34.000  
C 3  36744260.732 4 191336975.12822      -769.255          37.000  
G 8  22355954.709 9                     -3073.889          18.000  
C27  22488192.063 9                       325.854          26.000  
C 1  37689068.709 9                      -792.822          29.000  
C23  23447005.061 9                     -2526.566          32.000  
C 4  38625009.192 9                      -659.766          27.000  
G 1  20607970.551 2 108295600.020 1      1052.679          40.000  
C16  39172245.499 9                     -2463.330          21.000  
C 8  38034664.870 9 198056449.62135       726.589          32.000  
G30  22908339.658 9                      1995.220          25.000  
C13  38816890.748 9                       750.068          25.000  
C10  37546960.400 2 195516842.738 1      -508.840          37.000  
G 9  24320754.349 9                     -3076.524          16.000  
C 7  36971979.800 8 192522801.34925      -429.378          25.000  
C 9  37643326.933 9                     -2362.922          17.000  
> 2021  5 18  3 11  6.0010000  0 17                     
C28  22512286.216 2 117227346.943 1     -2430.873          41.000  
G21  20847385.575 8 109553723.68823     -1589.869          28.000  
C 3  36744408.850 4 191337747.74932      -769.062          37.000  
G 8  22356540.748 9                     -3076.778          17.000  
C27  22488127.593 9                       322.996          26.000  
C 1  37689223.615 9                      -790.674          29.000  
C23  23447493.065 9                     -2526.766          32.000  
G 1  20607770.275 2 108294546.764 1      1053.713          41.000  
C 6  38698502.005 9                     -2372.139          22.000  
C16  39172719.490 9                     -2469.968          20.000  
C 8  38034523.480 8 198055723.95724       724.692          33.000  
G30  22907960.771 9                      1993.110          23.000  
C13  38816748.241 9                       742.249          26.000  
C10  37547058.244 2 195517351.707 1      -509.133          37.000  
G 9  24321340.136 9                     -3083.081          17.000  
C 7  36972062.724 8 192523230.01925      -427.863          31.000  
C 9  37643784.242 9                     -2377.202          17.000  
> 2021  5 18  3 11  7.0010000  0 17                     
C28  22512753.436 4 117229777.665 2     -2431.182          41.000  
G21  20847687.289 8 109555335.62035     -1588.610          32.000  
C 3  36744556.941 4 191338518.73432      -770.181          34.000  
G 8  22357125.793 9                     -3075.808          17.000  
C27  22488066.683 9                       328.823          24.000  
C 1  37689376.836 9                      -806.055          28.000  
C23  23447979.952 9                     -2527.694          27.000  
G 1  20607570.059 2 108293494.694 1      1051.721          40.000  
C 6  38698959.629 9                     -2379.695          21.000  
C16  39173191.911 9                     -2467.076          21.000  
C 8  38034382.788 8 198054999.19024       724.237          33.000  
G30  22907579.928 9                      1969.539          24.000  
C13  38816604.625 9                       744.851          27.000  
C10  37547155.843 2 195517860.081 1      -508.157          37.000  
G 9  24321926.821 9                     -3083.081          16.000  
C 7  36972149.434 8 192523658.30523      -428.830          34.000  
C 9  37644240.469 9                     -2371.493          17.000  
> 2021  5 18  3 11  8.0010000  0 16                     
C28  22513220.221 2 117232208.842 1     -2432.688          38.000  
G21  20847993.034 8 109556926.73123     -1591.055          32.000  
C 3  36744704.526 4 191339288.12422      -769.194          35.000  
G 8  22357714.127 9                     -3084.036          18.000  
C 1  37689530.608 9                      -798.969          33.000  
C23  23448465.068 9                     -2528.971          25.000  
G 1  20607369.879 1 108292442.545 1      1051.893          41.000  
C 6  38699416.894 9                     -2366.775          21.000  
C16  39173665.222 9                     -2464.345          22.000  
C 8  38034247.487 8 198054273.50523       727.101          32.000  
G30  22907205.386 9                      1989.475          23.000  
C13  38816459.378 9                       740.955          27.000  
C10  37547253.381 2 195518368.729 1      -510.145          37.000  
G 9  24322513.619 9                     -3083.081          16.000  
C 7  36972232.035 4 192524086.66522      -428.877          35.000  
C 9  37644696.321 9                     -2365.500          16.000  
> 2021  5 18  3 11  9.0010000  0 17                     
G 7  20585295.467 9 108176456.93934        60.075          34.000  
C28  22513687.285 2 117234641.037 1     -2433.189          36.000  
G21  20848297.200 8 109558518.38124     -1592.837          32.000  
C 3  36744852.155 4 191340056.02732      -769.857          35.000  
G 8  22358300.890 9                     -3076.077          18.000  
C 1  37689685.967 9                      -803.711          28.000  
C23  23448952.095 9                     -2528.815          37.000  
G 1  20607169.603 1 108291390.384 1      1051.161          39.000  
C 6  38699874.683 9                     -2379.425          20.000  
C16  39174138.664 9                     -2465.500          24.000  
C 8  38034104.806 8 198053533.15633       726.801          32.000  
G30  22906823.784 9                      1994.091          22.000  
C13  38816314.795 9                       747.318          26.000  
C10  37547351.224 2 195518878.221 1      -509.493          39.000  
G 9  24323101.831 9                     -3076.522          17.000  
C 7  36972313.641 4 192524515.865 2      -428.176          35.000  
C 9  37645154.870 9                     -2372.693          17.000  
> 2021  5 18  3 11 10.0010000  0 17                     
G 7  20585283.505 8 108176396.38622        59.772          34.000  
C28  22514154.183 4 117237072.749 2     -2430.626          38.000  
G21  20848596.576 9                     -1574.003          26.000  
C 3  36744999.845 4 191340825.30022      -770.778          36.000  
G 8  22358885.045 9                     -3075.425          19.000  
C 1  37689839.232 9                      -802.148          29.000  
C23  23449439.096 9                     -2526.680          30.000  
G 1  20606969.475 2 108290339.359 1      1049.740          40.000  
C 6  38700329.348 9                     -2381.100          20.000  
C16  39174612.926 9                     -2474.542          23.000  
C 8  38033966.583 8 198052807.68724       725.022          32.000  
G30  22906444.783 9                      1990.195          24.000  
C13  38816171.869 9                       743.253          27.000  
C10  37547448.841 2 195519386.723 1      -507.797          38.000  
G 9  24323688.691 9                     -3078.272          18.000  
C 7  36972398.117 4 192524944.180 1      -427.216          35.000  
C 9  37645612.214 9                     -2368.805          19.000  
> 2021  5 18  3 11 11.0010000  0 16                     
G 7  20585269.562 8                        58.800          30.000  
C28  22514621.535 2 117239505.484 1     -2433.040          41.000  
G21  20848902.871 9                     -1594.349          31.000  
C 3  36745147.387 4 191341593.72732      -769.519          36.000  
G 8  22359469.488 9                     -3071.668          18.000  
C 1  37689987.035 9                      -774.023          29.000  
C23  23449922.301 9                     -2528.958          37.000  
G 1  20606769.697 2 108289289.077 1      1048.968          39.000  
C 6  38700788.411 9                     -2387.882          20.000  
C16  39175085.460 9                     -2464.906          26.000  
C 8  38033826.292 8 198052082.43123       724.330          32.000  
C13  38816025.976 9                       743.786          28.000  
C10  37547546.754 2 195519895.876 1      -509.116          38.000  
G 9  24324274.948 9                     -3078.272          18.000  
C 7  36972480.238 4 192525373.097 2      -429.135          35.000  
C 9  37646066.565 9                     -2368.805          18.000  
> 2021  5 18  3 11 12.0010000  0 16                     
C28  22515088.878 1 117241938.396 1     -2433.241          43.000  
G21  20849208.390 9                     -1594.110          30.000  
C 3  36745295.356 2 191342364.23931      -768.875          36.000  
G 8  22360053.896 9                     -3078.615          19.000  
C 1  37690140.737 9                      -787.695          33.000  
C23  23450409.764 8 122112395.23235     -2528.541          34.000  
G 1  20606569.926 1 108288239.497 1      1049.439          40.000  
C 6  38701245.389 9                     -2376.666          19.000  
C16  39175561.459 9                     -2453.453          25.000  
C 8  38033690.328 8 198051357.25823       725.795          35.000  
G30  22905685.201 9                      1989.716          29.000  
C13  38815887.351 9                       745.348          27.000  
C10  37547644.309 2 195520404.861 1      -508.765          37.000  
G 9  24324862.532 9                     -3096.843          18.000  
C 7  36972563.205 4 192525801.811 2      -428.533          37.000  
C 9  37646521.937 9                     -2367.258          17.000  
> 2021  5 18  3 11 14.0010000  0 17                     
G 7  20585236.424 8 108176138.82035        57.182          30.000  
C28  22516023.372 4 117246804.678 2     -2433.066          40.000  
G21  20849815.300 9                     -1581.769          24.000  
C 3  36745590.770 2 191343902.33821      -770.009          36.000  
G 8  22361226.219 9                     -3079.660          19.000  
C27  22487626.170 9 117098938.64835       319.034          30.000  
C 1  37690447.547 9                      -796.768          30.000  
C23  23451385.022 9                     -2528.362          25.000  
G 1  20606171.041 2 108286142.255 1      1048.016          39.000  
C 6  38702162.005 9                     -2378.056          18.000  
C16  39176509.232 9                     -2471.250          24.000  
C 8  38033406.274 8 198049907.58423       723.419          31.000  
C13  38815604.056 9                       743.134          27.000  
C10  37547839.691 2 195521421.947 1      -508.023          37.000  
G 9  24326037.734 9                     -3076.982          17.000  
C 7  36972728.188 2 192526658.748 1      -428.280          37.000  
C 9  37647431.634 9                     -2377.501          15.000  
> 2021  5 18  3 11 15.0010000  0 17                     
G 7  20585228.371 8 108176104.56835        57.742          30.000  
C28  22516490.619 1 117249238.357 1     -2433.919          41.000  
G21  20850115.086 9                     -1596.278          30.000  
C 3  36745738.425 2 191344670.74531      -768.788          38.000  
G 8  22361810.461 9                     -3075.648          18.000  
C27  22487563.628 8 117098616.53323       322.767          32.000  
C 1  37690600.934 9                      -796.427          29.000  
C23  23451866.360 9                     -2529.895          32.000  
G 1  20605971.558 2 108285094.340 1      1048.754          41.000  
C 6  38702620.257 9                     -2374.938          21.000  
C16  39176983.512 9                     -2470.186          22.000  
C 8  38033269.115 4 198049182.62322       726.208          35.000  
C13  38815457.605 8 202122241.44335       745.753          32.000  
C10  37547937.316 2 195521930.594 1      -508.469          37.000  
G 9  24326622.849 9                     -3076.982          16.000  
C 7  36972810.029 4 192527087.121 2      -426.651          36.000  
C 9  37647891.814 9                     -2372.140          16.000  
> 2021  5 18  3 11 16.0010000  0 17                     
G 7  20585212.893 8 108176048.33923        53.716          33.000  
C28  22516957.944 1 117251672.285 1     -2434.119          40.000  
G21  20850426.179 9                     -1593.615          35.000  
C 3  36745886.002 2 191345440.13121      -769.274          38.000  
G 8  22362394.607 9                     -3061.491          19.000  
C27  22487502.945 8 117098294.98322       322.146          36.000  
C 1  37690754.732 9                      -801.514          29.000  
G 1  20605772.338 1 108284047.199 1      1046.861          46.000  
C 6  38703080.210 9                     -2378.392          20.000  
C16  39177458.454 9                     -2459.452          19.000  
C 8  38033133.300 4 198048457.88422       725.543          35.000  
G30  22904170.322 9                      1988.770          32.000  
C13  38815311.835 8 202121497.08324       743.623          29.000  
C10  37548034.924 2 195522439.082 1      -507.856          37.000  
G 9  24327210.755 9                     -3099.847          18.000  
C 7  36972892.447 2 192527515.618 1      -429.209          37.000  
C 9  37648352.072 9                     -2385.709          16.000  
> 2021  5 18  3 11 17.0010000  0 18                     
G 7  20585202.719 8 108175992.36924        55.216          28.000  
C28  22517425.078 1 117254107.070 1     -2435.671          40.000  
G21  20850731.314 8 109571331.66933     -1596.769          36.000  
C 3  36746033.692 2 191346209.21721      -768.231          38.000  
G 8  22362981.074 9                     -3077.634          26.000  
C27  22487441.590 4 117097973.72622       321.284          33.000  
C 1  37690908.189 9                      -788.772          28.000  
C23  23452836.906 8 122125044.68434     -2534.075          30.000  
G 1  20605573.100 1 108283000.102 1      1047.657          45.000  
C 6  38703538.880 9                     -2385.533          20.000  
C16  39177930.884 9                     -2468.220          22.000  
C 8  38032989.842 4 198047732.59122       725.632          37.000  
G30  22903805.376 9                      1989.110          26.000  
C13  38815167.827 8 202120751.88923       746.973          35.000  
C10  37548132.750 2 195522948.203 1      -509.197          39.000  
G 9  24327798.383 9                     -3087.626          17.000  
C 7  36972974.672 2 192527944.535 1      -429.316          37.000  
C 9  37648813.395 9                     -2385.709          16.000  
> 2021  5 18  3 11 18.0010000  0 17                     
G 7  20585184.728 8 108175875.67835        55.133          27.000  
C28  22517892.316 1 117256542.849 1     -2436.253          42.000  
G21  20851029.320 8 109572928.96724     -1598.561          33.000  
C 3  36746181.382 1 191346977.06921      -767.736          40.000  
G 8  22363565.857 9                     -3076.374          21.000  
C27  22487383.516 4 117097652.44622       321.149          33.000  
C 1  37691061.690 9 196267216.98433      -797.549          34.000  
C23  23453319.736 4 122127576.35822     -2531.513          37.000  
C 4  38626991.746 9                      -813.359          29.000  
G 1  20605373.330 1 108281952.528 1      1047.483          43.000  
C 8  38032850.310 4 198047005.79322       727.189          35.000  
G30  22903425.468 9 120358312.38134      1984.968          31.000  
C13  38815026.375 4 202120004.74122       747.714          35.000  
C10  37548230.802 1 195523458.393 1      -510.625          39.000  
G 9  24328384.352 9                     -3077.732          17.000  
C 7  36973056.854 2 192528374.083 1      -429.216          36.000  
C 9  37649274.691 9                     -2380.345          17.000  
> 2021  5 18  3 11 19.0010000  0 18                     
G 7  20585172.810 8                        53.607          26.000  
C28  22518359.703 1 117258979.022 1     -2436.432          42.000  
G21  20851329.891 8 109574526.71323     -1598.327          33.000  
C 3  36746329.133 1 191347744.81021      -767.996          40.000  
G 8  22364149.706 9                     -3082.023          21.000  
C27  22487321.594 4 117097331.53022       320.629          33.000  
C 1  37691215.478 4 196268014.46122      -797.469          35.000  
C23  23453804.774 4 122130108.27921     -2531.896          37.000  
C 4  38627144.339 9                      -789.551          30.000  
G 1  20605173.577 1 108280905.400 1      1046.912          43.000  
C16  39178881.101 9 204014683.51535     -2464.240          27.000  
C 8  38032712.819 4 198046278.79322       726.833          36.000  
G30  22903045.856 8 120356327.82724      1984.440          30.000  
C13  38814882.498 4 202119257.41622       747.067          34.000  
C10  37548328.628 1 195523968.662 1      -510.750          39.000  
G 9  24328970.758 9                     -3077.732          16.000  
C 7  36973138.931 2 192528803.770 1      -429.684          36.000  
C 9  37649737.349 9                     -2374.603          19.000  
> 2021  5 18  3 11 20.0010000  0 18                     
G 7  20585155.944 9                        58.329          24.000  
C28  22518827.438 1 117261415.440 1     -2436.085          41.000  
G21  20851635.619 8 109576125.02323     -1596.920          33.000  
C 3  36746476.849 1 191348512.45821      -767.106          40.000  
G 8  22364733.198 9                     -3068.544          20.000  
C27  22487258.712 4 117097010.95122       320.329          33.000  
C 1  37691369.250 4 196268811.89722      -797.376          35.000  
C23  23454291.574 4 122132640.48121     -2531.856          36.000  
C 4  38627299.105 9 201142451.52235      -790.080          31.000  
G 1  20604974.087 1 108279858.830 1      1046.904          43.000  
C16  39179354.229 8 204017147.88424     -2463.883          27.000  
C 8  38032572.162 4 198045551.86722       727.709          35.000  
G30  22902670.868 8 120354343.61523      1984.448          29.000  
C13  38814738.831 4 202118510.06022       747.684          34.000  
C10  37548426.637 2 195524478.769 1      -509.503          39.000  
G 9  24329556.082 9                     -3075.039          15.000  
C 7  36973221.366 4 192529233.309 2      -428.751          36.000  
C 9  37650196.953 9                     -2371.305          20.000  
> 2021  5 18  3 11 21.0010000  0 17                     
C28  22519295.157 1 117263852.229 1     -2437.064          41.000  
G21  20851938.241 8 109577724.09623     -1598.094          28.000  
C 3  36746624.530 1 191349280.21321      -767.603          39.000  
G 8  22365317.056 9                     -3083.744          19.000  
C27  22487196.676 4 117096690.85422       320.425          33.000  
C 1  37691522.934 2 196269609.40321      -797.836          35.000  
C23  23454775.887 4 122135173.18722     -2532.902          35.000  
C 4  38627450.748 9                      -790.430          30.000  
G 1  20604774.823 1 108278812.942 1      1045.824          39.000  
C16  39179829.389 8 204019612.41225     -2464.911          26.000  
C 8  38032432.447 2 198044825.146 1       726.758          35.000  
G30  22902290.017 8 120352359.66924      1984.827          27.000  
C13  38814596.123 4 202117762.80422       747.422          33.000  
C10  37548524.681 2 195524988.898 1      -510.168          38.000  
G 9  24330141.563 9                     -3075.039          12.000  
C 7  36973303.836 4 192529662.889 2      -429.414          35.000  
C 9  37650657.185 9                     -2384.636          20.000  
> 2021  5 18  3 11 22.0010000  0 17                     
C28  22519762.980 1 117266289.024 1     -2436.925          41.000  
G21  20852244.379 4 109579323.48423     -1598.918          29.000  
C 3  36746771.976 1 191350047.688 1      -767.623          39.000  
G 8  22365903.915 9                     -3083.744          17.000  
C27  22487135.540 4 117096370.957 2       319.951          33.000  
C 1  37691676.548 4 196270406.65622      -798.045          35.000  
C23  23455260.680 4 122137705.95422     -2532.868          34.000  
C 4  38627602.530 9                      -791.699          30.000  
G 1  20604575.750 2 108277767.409 1      1045.113          38.000  
C16  39180301.985 8 204022076.48924     -2463.743          27.000  
C 8  38032292.574 2 198044098.241 1       726.742          35.000  
G30  22901909.166 9                      1984.451          26.000  
C13  38814453.293 4 202117015.29722       747.950          33.000  
C10  37548622.394 2 195525498.626 1      -509.521          38.000  
G 9  24330726.765 9                     -3075.039          11.000  
C 7  36973386.140 4 192530092.101 2      -429.220          35.000  
C 9  37651117.827 9                     -2366.735          21.000  
> 2021  5 18  3 11 23.0010000  0 17                     
C28  22520230.855 1 117268726.193 1     -2437.669          41.000  
G21  20852548.824 4 109580923.63123     -1600.808          29.000  
C 3  36746919.552 1 191350815.244 1      -767.817          40.000  
G 8  22366489.562 9                     -3083.744          16.000  
C27  22487074.281 4 117096051.508 2       318.651          33.000  
C 1  37691830.110 4 196271203.94922      -797.981          35.000  
C23  23455746.442 4 122140239.21422     -2533.865          34.000  
C 4  38627754.643 9                      -786.175          30.000  
G 1  20604376.626 1 108276722.580 1      1044.240          39.000  
C16  39180776.631 4 204024540.75824     -2465.028          27.000  
C 8  38032153.077 2 198043371.551 1       725.972          35.000  
G30  22901527.216 9                      1983.589          25.000  
C13  38814309.258 4 202116267.96822       746.696          34.000  
C10  37548720.246 1 195526008.370 1      -509.621          38.000  
C 7  36973468.487 2 192530521.384 1      -430.067          35.000  
G14  24717492.719 9                      1412.800          12.000  
C 9  37651581.331 9                     -2378.203          22.000  
> 2021  5 18  3 11 24.0010000  0 18                     
C28  22520698.948 1 117271163.841 1     -2437.648          41.000  
G21  20852855.956 4 109582524.56723     -1601.315          30.000  
C 3  36747067.129 1 191351583.009 1      -767.800          40.000  
G 8  22367074.223 9                     -3073.537          14.000  
C27  22487012.987 4 117095732.677 2       318.298          33.000  
C 1  37691983.611 2 196272018.43131      -797.068          35.000  
C23  23456232.954 4 122142773.04122     -2533.900          34.000  
C 4  38627905.352 9                      -790.206          30.000  
G 1  20604177.789 1 108275678.568 1      1043.692          39.000  
C16  39181249.558 4 204027005.12624     -2464.543          27.000  
C 8  38032013.519 2 198042645.140 1       726.564          35.000  
G30  22901146.399 9                      1984.225          24.000  
C13  38814167.824 4 202115520.87322       746.748          33.000  
C10  37548818.203 1 195526518.229 1      -509.636          38.000  
C 7  36973550.765 2 192530950.727 1      -429.206          36.000  
G14  24717221.612 9                      1412.800          12.000  
C 9  37652043.247 9                     -2367.213          23.000  
G 3  25423440.204 9                      1179.070          10.000  
> 2021  5 18  3 11 25.0010000  0 17                     
C28  22521167.050 1 117273601.966 1     -2438.373          41.000  
G21  20853161.449 8 109584125.86014     -1602.901          30.000  
C 3  36747214.618 1 191352350.943 1      -768.254          40.000  
G 8  22367658.744 9                     -3073.537          14.000  
C27  22486951.902 4 117095414.408 2       318.246          33.000  
C 1  37692137.181 2 196272818.12531      -797.152          35.000  
C23  23456719.431 4 122145307.48722     -2536.298          33.000  
C 4  38628058.068 9 201146399.28534      -792.387          30.000  
G 1  20603979.162 1 108274635.367 1      1042.612          39.000  
C16  39181723.706 9                     -2465.093          27.000  
C 8  38031874.092 2 198041919.054 1       725.811          35.000  
G30  22900767.503 9                      1982.056          23.000  
C13  38814022.455 4 202114774.02722       746.481          33.000  
C10  37548915.915 1 195527028.208 1      -509.830          38.000  
C 7  36973633.182 2 192531380.246 1      -429.585          36.000  
C 9  37652503.130 9                     -2370.674          24.000  
G 3  25423215.733 9                      1179.070          11.000  
> 2021  5 18  3 11 26.0010000  0 18                     
C28  22521635.222 2 117276040.558 1     -2438.307          40.000  
G21  20853468.799 8 109585728.353 3     -1602.553          34.000  
C 3  36747362.072 2 191353119.050 1      -767.826          38.000  
G 8  22368243.702 9                     -3068.308          14.000  
C27  22486890.242 4 117095096.746 2       317.890          33.000  
C 1  37692290.804 8 196273615.50323      -797.114          32.000  
C23  23457204.216 9 122147786.38835     -2535.049          32.000  
C 4  38628210.417 9                      -789.965          29.000  
G 1  20603780.788 2 108273592.928 1      1042.352          42.000  
C16  39182197.009 9                     -2455.448          26.000  
C 8  38031734.595 2 198041193.238 2       725.719          34.000  
G30  22900390.020 9                      1980.621          24.000  
C13  38813879.564 8 202114027.39323       746.580          32.000  
C10  37549013.916 2 195527538.250 1      -509.483          35.000  
C 7  36973715.626 4 192531809.829 2      -429.257          34.000  
G14  24716683.020 9                      1412.800          10.000  
C 9  37652961.111 9                     -2372.010          23.000  
G 3  25422992.536 9                      1179.070          12.000  
> 2021  5 18  3 11 28.0010000  0 16                     
C28  22522572.020 1 117280918.444 1     -2439.253          40.000  
G21  20854077.533 8 109588935.110 3     -1603.671          30.000  
C 3  36747657.408 1 191354655.113 1      -767.917          37.000  
G 8  22369410.859 9                     -3068.308          12.000  
C27  22486770.891 8 117094462.563 3       316.573          31.000  
C 1  37692597.475 4 196275214.11732      -798.062          33.000  
C23  23458176.368 8 122152857.28323     -2536.122          30.000  
C 4  38628514.461 8 201148778.21435      -790.253          28.000  
G 1  20603384.223 1 108271509.782 1      1041.376          39.000  
C16  39183145.603 9                     -2460.399          25.000  
C 8  38031456.168 4 198039741.816 2       725.492          34.000  
G30  22899637.287 9                      1980.596          24.000  
C13  38813592.910 4 202112534.075 2       746.225          31.000  
C10  37549210.030 2 195528557.965 1      -509.454          36.000  
C 7  36973880.426 2 192532668.695 1      -429.297          33.000  
C 9  37653875.851 9                     -2370.240          23.000  
> 2021  5 18  3 11 29.0010000  0 16                     
C28  22523040.584 1 117283357.873 1     -2439.972          40.000  
G21  20854383.418 8 109590539.476 3     -1603.497          31.000  
C 3  36747804.880 1 191355423.200 1      -768.306          38.000  
G 8  22369995.895 9                     -3068.308          12.000  
C27  22486709.274 8 117094146.080 3       316.270          31.000  
C 1  37692750.783 4 196276012.96122      -798.043          33.000  
C23  23458662.810 8 122155393.33123     -2536.994          30.000  
C 4  38628666.295 8 201149569.25725      -789.756          29.000  
G 1  20603186.059 1 108270469.202 1      1040.225          39.000  
C16  39183617.718 9                     -2464.423          26.000  
C 8  38031316.819 4 198039016.340 2       725.447          34.000  
G30  22899261.261 9                      1980.740          25.000  
C13  38813447.933 8 202111787.496 3       746.759          32.000  
C10  37549308.039 2 195529067.775 1      -510.354          37.000  
C 7  36973962.791 2 192533098.085 1      -429.361          34.000  
C 9  37654335.132 9                     -2368.219          24.000  
> 2021  5 18  3 11 30.0010000  0 15                     
C28  22523509.280 1 117285797.578 1     -2439.548          40.000  
G21  20854688.273 8 109592144.561 3     -1604.957          31.000  
C 3  36747952.527 1 191356191.280 1      -767.572          38.000  
G 8  22370580.661 9                     -3068.308          12.000  
C27  22486648.966 8 117093830.015 3       316.383          31.000  
C 1  37692904.372 4 196276810.76522      -796.661          33.000  
C23  23459151.425 8 122157929.76523     -2536.041          30.000  
C 4  38628817.693 9                      -790.256          29.000  
G 1  20602988.138 1 108269429.211 1      1040.475          39.000  
C 8  38031177.523 4 198038290.946 2       725.568          34.000  
G30  22898886.230 9                      1981.062          25.000  
C13  38813303.690 4 202111040.979 3       746.661          32.000  
C10  37549405.952 2 195529577.467 1      -509.020          37.000  
C 7  36974045.112 4 192533527.412 2      -429.056          34.000  
C 9  37654792.442 9                     -2377.616          24.000  
> 2021  5 18  3 11 31.0010000  0 15                     
C28  22523977.696 1 117288237.082 1     -2438.922          43.000  
G21  20854991.436 8 109593749.687 3     -1604.335          31.000  
C 3  36748099.745 1 191356966.90231      -767.253          40.000  
G 8  22371164.693 9                     -3068.308          13.000  
C27  22486589.208 8 117093513.936 3       316.605          34.000  
C 1  37693057.480 4 196277608.15623      -796.969          36.000  
C23  23459638.896 8 122160466.12823     -2535.898          34.000  
C 4  38628969.815 9                      -790.918          30.000  
G 1  20602790.314 2 108268389.385 1      1040.241          38.000  
C 8  38031038.462 4 198037565.189 2       726.459          36.000  
G30  22898508.694 9                      1980.064          25.000  
C13  38813163.704 4 202110294.047 2       747.426          32.000  
C10  37549503.778 2 195530086.621 1      -508.654          37.000  
C 7  36974127.425 4 192533956.194 2      -428.499          36.000  
C 9  37655249.664 9                     -2381.543          25.000  
> 2021  5 18  3 11 32.0010000  0 15                     
C28  22524446.443 1 117290676.614 1     -2439.542          42.000  
G21  20855299.414 8 109595355.209 3     -1605.277          30.000  
C 3  36748247.173 1 191357734.23821      -767.487          39.000  
G 8  22371750.881 9                     -3074.151          14.000  
C27  22486528.071 4 117093197.981 2       315.793          33.000  
C 1  37693210.797 4 196278408.25132      -797.116          34.000  
C23  23460127.974 4 122163002.57922     -2536.481          33.000  
C 4  38629121.615 9                      -791.943          30.000  
G 1  20602592.428 1 108267349.899 1      1039.206          37.000  
C 8  38030899.070 4 198036839.311 2       725.817          35.000  
G30  22898131.656 9                      1977.950          24.000  
C13  38813017.986 4 202109546.947 2       746.736          32.000  
C10  37549601.517 2 195530595.394 1      -508.344          37.000  
C 7  36974209.772 4 192534384.619 2      -428.757          35.000  
C 9  37655708.491 9                     -2374.544          25.000  
> 2021  5 18  3 11 33.0010000  0 16                     
C28  22524915.261 1 117293116.546 1     -2440.189          42.000  
G21  20855605.989 8 109596961.514 4     -1606.926          30.000  
C 3  36748394.427 1 191358501.67721      -767.759          39.000  
G 8  22372337.784 9                     -3074.151          14.000  
C27  22486467.781 4 117092882.509 2       315.876          33.000  
C 1  37693364.211 4 196279207.42322      -796.478          34.000  
C23  23460616.065 4 122165539.51922     -2537.246          33.000  
C 4  38629273.528 9                      -792.544          30.000  
G 1  20602394.848 2 108266311.121 1      1038.227          37.000  
C 8  38030759.808 2 198036113.616 1       725.411          35.000  
G30  22897756.511 9                      1979.977          23.000  
C13  38812873.245 4 202108799.938 2       746.325          33.000  
C10  37549699.273 2 195531104.191 1      -508.525          38.000  
C 7  36974292.155 2 192534813.118 1      -428.724          35.000  
C 9  37656164.029 9                     -2374.247          26.000  
G28  25890284.108 9                       941.422          10.000  
> 2021  5 18  3 11 34.0010000  0 15                     
C28  22525383.956 1 117295556.792 1     -2440.446          42.000  
G21  20855910.652 8 109598568.397 3     -1607.339          30.000  
C 3  36748541.977 1 191359269.13321      -767.106          39.000  
G 8  22372922.567 9                     -3074.151          14.000  
C27  22486407.159 4 117092567.521 2       314.957          33.000  
C 1  37693517.459 4 196280004.66632      -796.778          34.000  
C23  23461106.599 4 122168076.887 2     -2537.552          33.000  
C 4  38629425.920 9                      -791.358          29.000  
G 1  20602197.129 1 108265273.010 1      1037.829          38.000  
C 8  38030620.704 4 198035388.103 2       725.167          35.000  
G30  22897378.330 9                      1979.308          24.000  
C13  38812729.761 4 202108052.993 2       747.698          32.000  
C10  37549796.951 2 195531612.971 1      -508.874          38.000  
C 7  36974374.468 4 192535241.533 2      -427.930          35.000  
C 9  37656622.175 9                     -2374.252          25.000  
> 2021  5 18  3 11 35.0010000  0 15                     
G 7  20585051.112 9                        48.172          20.000  
C28  22525852.948 1 117297997.407 1     -2441.298          42.000  
G21  20856218.936 8 109600175.968 5     -1607.903          30.000  
C 3  36748689.449 1 191360036.68521      -767.705          39.000  
G 8  22373511.242 9                     -3078.183          14.000  
C27  22486346.607 4 117092252.956 2       314.913          33.000  
C 1  37693670.837 4 196280801.99022      -797.324          34.000  
C23  23461593.897 4 122170614.729 2     -2538.684          34.000  
C 4  38629578.322 9                      -799.463          30.000  
G 1  20601999.601 2 108264235.578 1      1036.685          38.000  
C 8  38030481.381 2 198034662.752 2       724.582          35.000  
C13  38812586.241 4 202107306.225 2       746.559          33.000  
C10  37549894.890 2 195532121.731 1      -509.229          38.000  
C 7  36974456.737 4 192535670.016 2      -428.478          35.000  
C 9  37657078.987 9                     -2375.096          26.000  
> 2021  5 18  3 11 36.0010000  0 15                     
G 7  20585041.418 9                        48.172          22.000  
C28  22526322.063 1 117300438.508 1     -2441.305          42.000  
G21  20856523.285 8 109601784.414 5     -1608.637          30.000  
C 3  36748837.113 1 191360804.46021      -767.999          39.000  
G 8  22374098.354 9                     -3074.543          15.000  
C27  22486286.194 4 117091939.082 2       313.986          33.000  
C 1  37693824.146 4 196281599.51022      -797.305          34.000  
C23  23462082.119 4 122173153.122 2     -2538.014          34.000  
C 4  38629729.868 9                      -787.842          30.000  
G 1  20601802.230 2 108263198.969 1      1036.341          38.000  
C 8  38030342.199 4 198033937.713 2       724.788          35.000  
C13  38812443.028 4 202106559.717 2       745.655          33.000  
C10  37549992.716 2 195532630.616 1      -509.032          38.000  
C 7  36974538.814 4 192536098.650 2      -428.563          35.000  
C 9  37657534.909 9                     -2375.435          26.000  
> 2021  5 18  3 11 37.0010000  0 14                     
C28  22526791.203 1 117302879.994 1     -2441.808          42.000  
G21  20856830.331 8 109603393.567 4     -1609.418          30.000  
C 3  36748984.707 2 191361572.32521      -768.406          39.000  
G 8  22374684.394 9                     -3074.543          15.000  
C27  22486229.245 4 117091625.706 2       313.048          33.000  
C 1  37693977.638 4 196282401.18432      -798.538          34.000  
C23  23462569.722 4 122175692.049 2     -2539.757          34.000  
C 4  38629881.659 9                      -791.689          29.000  
G 1  20601605.374 1 108262163.105 1      1035.240          38.000  
C 8  38030203.155 2 198033212.918 1       724.454          35.000  
C13  38812299.569 4 202105813.318 2       746.174          33.000  
C10  37550090.411 2 195533139.502 1      -509.063          38.000  
C 7  36974621.153 2 192536527.300 1      -428.769          34.000  
C 9  37657991.721 9                     -2373.908          26.000  
> 2021  5 18  3 11 38.0010000  0 14                     
C28  22527260.274 1 117305321.726 1     -2442.019          42.000  
G21  20857134.183 8 109605003.342 4     -1610.847          30.000  
C 3  36749132.118 1 191362340.129 1      -767.798          39.000  
G 8  22375270.320 9                     -3075.786          15.000  
C27  22486168.771 4 117091312.668 2       312.936          33.000  
C 1  37694130.982 4 196283199.74022      -797.370          34.000  
C23  23463058.616 4 122178231.260 2     -2539.248          34.000  
C 4  38630033.458 9 201156690.34035      -790.809          30.000  
G 1  20601408.536 2 108261127.791 1      1035.026          38.000  
C 8  38030063.955 2 198032488.178 1       724.459          35.000  
C13  38812156.242 4 202105066.914 2       746.129          33.000  
C10  37550187.958 2 195533648.245 1      -508.314          38.000  
C 7  36974703.422 2 192536955.851 2      -428.662          34.000  
C 9  37658447.355 9                     -2375.246          26.000  
> 2021  5 18  3 11 39.0010000  0 15                     
C28  22527729.501 1 117307763.726 1     -2442.245          44.000  
G21  20857441.149 8 109606613.714 3     -1611.520          30.000  
C 3  36749279.424 1 191363109.92131      -767.882          41.000  
G 8  22375856.926 9                     -3072.185          16.000  
C27  22486108.603 4 117091000.050 2       312.193          35.000  
C 1  37694284.396 2 196283999.27631      -797.516          36.000  
C23  23463546.105 4 122180770.860 2     -2539.674          34.000  
C 4  38630185.118 9 201157479.09935      -791.059          31.000  
G 1  20601211.863 1 108260093.068 1      1034.604          39.000  
C 8  38029924.973 2 198031763.534 1       724.365          37.000  
G30  22895490.906 9                      1976.593          25.000  
C13  38812012.949 4 202104320.544 2       746.761          34.000  
C10  37550285.749 1 195534156.933 1      -508.582          39.000  
C 7  36974785.708 4 192537384.295 2      -428.241          36.000  
C 9  37658902.710 9                     -2374.773          27.000  
