     3.03           OBSERVATION DATA    M: Mixed            RINEX VERSION / TYPE
RTKCONV demo5 b33c                      20210520 081315 UTC PGM / RUN BY / DATE 
log: C:\Users\Ivan_PolyU_Dktp\Dropbox\HUAWEI Exp\20210518_  COMMENT             
format: RINEX                                               COMMENT             
                                                            MARKER NAME         
                                                            MARKER NUMBER       
                                                            MARKER TYPE         
                                                            OBSERVER / AGENCY   
                                                            REC # / TYPE / VERS 
                                                            ANT # / TYPE        
        0.0000        0.0000        0.0000                  APPROX POSITION XYZ 
        0.0000        0.0000        0.0000                  ANTENNA: DELTA H/E/N
G    4 C1C L1C D1C S1C                                      SYS / # / OBS TYPES 
E    4 C1C L1C D1C S1C                                      SYS / # / OBS TYPES 
J    4 C1C L1C D1C S1C                                      SYS / # / OBS TYPES 
  2021     5    18     3     7   14.9990000     GPS         TIME OF FIRST OBS   
  2021     5    18     4     3    3.9980000     GPS         TIME OF LAST OBS    
G                                                           SYS / PHASE SHIFT   
E                                                           SYS / PHASE SHIFT   
J                                                           SYS / PHASE SHIFT   
  0                                                         GLONASS SLOT / FRQ #
 C1C    0.000 C1P    0.000 C2C    0.000 C2P    0.000        GLONASS COD/PHS/BIS 
                                                            END OF HEADER       
> 2021  5 18  3  7 14.9990000  0 12                     
J 2  37670451.650 9                      1335.570          16.000  
G21  20175865.292 8 106024906.52923      -486.781          31.000  
G 7  19986475.200 2 105029628.032 1      1163.590          36.000  
G30  22392535.652 9                      3021.723          19.000  
E 2  26058476.364 9                     -1084.653          13.000  
G 8  21617079.500 9                     -2116.713          18.000  
J 3  38622113.916 8 202960569.23625      -639.401          26.000  
E15  22806813.216 2 119850619.180 1      1066.173          36.000  
E27  25278532.600 9                      1943.699          20.000  
G 9  23580813.089 9                     -2106.251          11.000  
E30  22794461.839 9                       464.229          24.000  
G 1  20052267.773 2 105375368.551 1      2152.287          37.000  
> 2021  5 18  3  7 15.9990000  0 10                     
J 2  37670196.537 9                      1335.570          15.000  
G21  20175958.503 4 106025394.39022      -488.459          32.000  
G 7  19986254.010 2 105028465.180 1      1162.906          38.000  
G30  22391962.221 9                      3023.881          18.000  
G 8  21617480.916 9                     -2112.153          18.000  
J 3  38622235.962 4 202961208.51424      -639.020          26.000  
E15  22806610.480 1 119849553.430 1      1065.391          38.000  
E27  25278162.681 9                      1946.643          18.000  
E30  22794372.485 9                       464.838          24.000  
G 1  20051858.461 2 105373217.151 1      2151.027          39.000  
> 2021  5 18  3  7 16.9990000  0 12                     
J 2  37669946.022 9                      1314.511          16.000  
G21  20176052.446 4 106025882.99022      -488.950          33.000  
G 7  19986032.575 2 105027303.060 1      1161.930          36.000  
G30  22391388.196 9                      3021.597          19.000  
E 2  26058889.576 9                     -1075.314          14.000  
G 8  21617881.119 9                     -2101.127          19.000  
J 3  38622357.835 4 202961847.95525      -638.652          27.000  
E15  22806407.970 1 119848488.247 1      1065.065          36.000  
E27  25277792.475 9                      1951.850          20.000  
G 9  23581618.181 9                     -2127.341          13.000  
E30  22794285.330 9                       464.218          25.000  
G 1  20051449.027 2 105371066.422 1      2150.938          37.000  
> 2021  5 18  3  7 17.9990000  0 12                     
J 2  37669692.322 9                      1324.413          17.000  
G21  20176147.236 8 106026372.08823      -489.170          32.000  
G 7  19985811.481 2 105026141.457 1      1160.626          36.000  
G30  22390812.426 9                      3028.313          18.000  
E 2  26059095.951 9                     -1075.314          14.000  
G 8  21618280.424 9                     -2100.877          18.000  
J 3  38622479.943 8 202962487.27125      -639.701          26.000  
E15  22806205.076 2 119847423.306 2      1065.222          35.000  
E27  25277423.150 9                      1937.690          20.000  
G 9  23582022.599 9                     -2117.229          14.000  
E30  22794197.189 9                       463.351          25.000  
G 1  20051039.819 2 105368916.158 1      2150.278          36.000  
> 2021  5 18  3  7 18.9990000  0 11                     
G21  20176242.557 8 106026861.504 4      -489.481          25.000  
G 7  19985590.587 4 105024980.073 2      1161.073          31.000  
G30  22390238.794 9                      3001.400          17.000  
E 2  26059303.897 9                     -1090.193          14.000  
G 8  21618679.981 9                     -2101.032          17.000  
J 3  38622602.277 9                      -639.261          25.000  
E15  22806002.130 4 119846358.604 3      1064.929          31.000  
E27  25277051.844 9                      1944.384          19.000  
G 9  23582425.716 9                     -2133.254          14.000  
E30  22794109.301 9                       496.107          24.000  
G 1  20050630.550 4 105366766.216 2      2149.462          32.000  
> 2021  5 18  3  7 19.9990000  0 12                     
J 2  37669184.651 9                      1343.568          14.000  
G21  20176333.927 8 106027350.22035      -489.477          31.000  
G 7  19985369.772 4 105023819.021 2      1161.339          35.000  
G30  22389666.549 9                      3032.650          15.000  
E 2  26059512.313 9                     -1090.193          12.000  
G 8  21619080.220 9                     -2105.448          16.000  
J 3  38622725.677 9                      -638.448          25.000  
E15  22805791.724 4 119845294.015 1      1064.800          35.000  
E27  25276680.669 9                      1944.799          19.000  
G 9  23582832.760 9                     -2133.254          14.000  
E30  22794021.840 9                       473.813          23.000  
G 1  20050221.290 2 105364616.509 1      2149.929          35.000  
> 2021  5 18  3  7 20.9990000  0 12                     
J 2  37668929.660 9                      1343.568          12.000  
G21  20176425.715 8 106027839.31123      -489.501          31.000  
G 7  19985148.617 2 105022657.305 1      1161.779          35.000  
G30  22389091.381 9                      3032.650          11.000  
E 2  26059720.843 9                     -1090.193          10.000  
G 8  21619480.275 9                     -2097.469          17.000  
J 3  38622847.566 9                      -637.660          25.000  
E15  22805590.951 4 119844228.548 1      1065.296          35.000  
E27  25276311.117 9                      1943.854          19.000  
G 9  23583238.486 9                     -2133.254          12.000  
E30  22793934.834 9                       472.306          22.000  
G 1  20049811.786 2 105362466.139 1      2150.324          35.000  
> 2021  5 18  3  7 21.9990000  0 12                     
J 2  37668675.480 9                      1318.303          13.000  
G21  20176516.360 4 106028329.12822      -490.970          34.000  
G 7  19984927.296 2 105021496.298 1      1159.974          39.000  
G30  22388513.395 9                      3032.650          13.000  
E 2  26059931.441 9                     -1090.193          12.000  
G 8  21619878.305 9                     -2092.092          19.000  
J 3  38622968.828 8 202965070.75235      -637.811          30.000  
E15  22805390.256 4 119843163.626 1      1063.796          39.000  
E27  25275940.614 9                      1946.620          22.000  
G 9  23583644.370 9                     -2132.933          16.000  
E30  22793845.838 9                       466.234          25.000  
G 1  20049402.491 2 105360316.438 1      2149.164          39.000  
> 2021  5 18  3  7 22.9990000  0 12                     
J 2  37668424.101 9                      1320.205          17.000  
G21  20176613.366 4 106028820.19521      -491.193          37.000  
G 7  19984706.367 1 105020336.555 1      1159.220          40.000  
G30  22387936.543 9                      3023.490          15.000  
E 2  26060139.884 9                     -1084.859          15.000  
G 8  21620279.084 9                     -2102.969          20.000  
J 3  38623089.278 8 202965708.70224      -638.221          30.000  
E15  22805192.248 2 119842099.783 1      1063.744          40.000  
E27  25275570.355 9                      1943.860          24.000  
G 9  23584049.267 9                     -2117.205          17.000  
E30  22793758.621 9 119782020.03115       464.308          27.000  
G 1  20048993.196 1 105358168.010 1      2147.877          41.000  
> 2021  5 18  3  7 23.9990000  0 12                     
J 2  37668172.286 9                      1322.588          19.000  
G21  20176703.714 4 106029311.40221      -491.255          37.000  
G 7  19984485.535 1 105019176.893 1      1159.578          40.000  
G30  22387364.036 9                      3006.506          16.000  
E 2  26060347.978 9                     -1074.885          17.000  
G 8  21620678.311 9                     -2100.220          21.000  
J 3  38623212.808 8 202966346.04623      -637.079          30.000  
E15  22804989.887 2 119841035.873 1      1064.070          41.000  
E27  25275198.762 9                      1944.944          25.000  
G 9  23584452.515 9                     -2121.809          19.000  
E30  22793670.655 8 119781554.865 4       466.075          28.000  
G 1  20048584.338 1 105356019.624 1      2148.492          41.000  
> 2021  5 18  3  7 24.9990000  0 12                     
J 2  37667918.786 9                      1330.663          18.000  
G21  20176798.652 4 106029802.86821      -492.361          33.000  
G 7  19984264.685 1 105018017.479 1      1158.627          37.000  
G30  22386791.704 9                      3006.506          14.000  
E 2  26060555.391 9                     -1086.897          17.000  
G 8  21621078.767 9                     -2102.678          20.000  
J 3  38623333.642 8 202966982.98624      -636.982          29.000  
E15  22804786.478 2 119839972.062 1      1063.017          38.000  
E27  25274826.714 9                      1947.825          24.000  
G 9  23584857.884 9                     -2133.877          18.000  
E30  22793582.034 4 119781089.591 4       464.526          28.000  
G 1  20048175.287 1 105353871.481 1      2147.568          36.000  
> 2021  5 18  3  7 25.9990000  0 12                     
J 2  37667664.153 9                      1330.663          17.000  
G21  20176893.154 4 106030295.63022      -492.345          32.000  
G 7  19984044.158 2 105016859.366 1      1157.870          35.000  
G30  22386219.921 9                      3006.506          11.000  
E 2  26060763.171 9                     -1086.897          16.000  
G 8  21621478.464 9                     -2104.111          18.000  
J 3  38623458.184 8 202967620.60824      -637.799          27.000  
E15  22804584.379 2 119838909.382 1      1062.141          36.000  
E27  25274455.932 9                      1945.295          23.000  
G 9  23585264.291 9                     -2133.877          17.000  
E30  22793496.092 4 119780624.995 4       465.341          26.000  
G 1  20047766.778 2 105351724.606 1      2146.715          36.000  
> 2021  5 18  3  7 26.9990000  0 12                     
J 2  37667411.657 9                      1323.583          15.000  
G21  20176987.499 4 106030788.63222      -492.599          33.000  
G 7  19983823.709 2 105015701.478 1      1157.941          35.000  
G30  22385648.400 9                      3006.506          11.000  
E 2  26060970.218 9                     -1086.897          15.000  
G 8  21621879.697 9                     -2103.392          18.000  
J 3  38623580.685 9                      -637.168          27.000  
E15  22804382.166 2 119837846.704 1      1062.900          36.000  
E27  25274085.464 9                      1953.944          21.000  
G 9  23585669.747 9                     -2133.877          16.000  
E30  22793407.209 4 119780160.274 3       465.276          26.000  
G 1  20047358.425 1 105349577.943 1      2146.717          37.000  
> 2021  5 18  3  7 27.9990000  0 11                     
J 2  37667161.264 9                      1323.583          14.000  
G21  20177081.389 4 106031281.89522      -494.341          34.000  
G 7  19983603.296 2 105014543.800 1      1156.761          36.000  
E 2  26061177.945 9                     -1086.897          13.000  
G 8  21622279.892 9                     -2104.667          18.000  
J 3  38623700.358 9                      -637.678          27.000  
E15  22804179.612 1 119836784.072 1      1062.564          37.000  
E27  25273715.048 9                      1946.805          21.000  
G 9  23586075.176 9                     -2128.378          16.000  
E30  22793319.487 4 119779695.243 4       465.139          26.000  
G 1  20046949.811 2 105347431.436 1      2146.026          38.000  
> 2021  5 18  3  7 28.9990000  0 12                     
J 2  37666910.931 9                      1323.583          15.000  
G21  20177175.760 4 106031775.97522      -494.168          34.000  
G 7  19983382.899 2 105013386.940 1      1156.672          36.000  
G30  22384503.814 9                      3006.506          12.000  
E 2  26061383.989 9                     -1084.166          14.000  
G 8  21622681.866 9                     -2106.509          18.000  
J 3  38623818.243 9                      -636.366          27.000  
E15  22803977.757 1 119835722.169 1      1061.330          37.000  
E27  25273344.728 9                      1948.070          21.000  
G 9  23586479.009 9                     -2127.665          17.000  
E30  22793230.490 4 119779230.539 4       465.454          26.000  
G 1  20046541.519 2 105345285.765 1      2145.723          38.000  
> 2021  5 18  3  7 29.9990000  0 12                     
J 2  37666657.144 9                      1328.596          15.000  
G21  20177269.843 4 106032270.71222      -494.607          34.000  
G 7  19983162.904 2 105012230.748 1      1155.507          36.000  
G30  22383930.112 9                      3018.270          14.000  
E 2  26061591.716 9                     -1084.166          15.000  
G 8  21623081.005 9                     -2105.281          17.000  
J 3  38623938.632 8 202970171.29735      -636.921          26.000  
E15  22803775.858 1 119834660.663 1      1061.382          37.000  
E27  25272975.586 9                      1943.809          22.000  
G 9  23586884.404 9                     -2124.082          18.000  
E30  22793141.721 4 119778766.138 4       464.260          26.000  
G 1  20046133.228 2 105343140.720 1      2144.976          38.000  
> 2021  5 18  3  7 30.9990000  0 12                     
J 2  37666405.983 9                      1318.572          15.000  
G21  20177364.257 4 106032766.167 2      -495.948          34.000  
G 7  19982943.075 2 105011075.170 1      1155.490          36.000  
G30  22383355.171 9                      3018.270          13.000  
E 2  26061798.431 9                     -1082.492          16.000  
G 8  21623481.679 9                     -2100.073          17.000  
J 3  38624060.287 8 202970808.20124      -636.908          27.000  
E15  22803573.941 1 119833599.675 1      1060.596          37.000  
E27  25272605.302 9                      1945.941          22.000  
G 9  23587286.788 9                     -2117.553          17.000  
E30  22793054.173 4 119778301.797 4       463.918          26.000  
G 1  20045725.085 2 105340996.302 1      2143.914          38.000  
> 2021  5 18  3  7 31.9990000  0 12                     
J 2  37666153.636 9                      1318.572          15.000  
G21  20177458.715 4 106033262.354 2      -496.125          34.000  
G 7  19982723.220 2 105009920.378 1      1154.359          36.000  
G30  22382782.298 9                      3017.059          15.000  
E 2  26062001.290 9                     -1067.971          16.000  
G 8  21623880.626 9                     -2101.515          18.000  
J 3  38624180.754 4 202971445.22524      -637.233          27.000  
E15  22803372.365 1 119832539.262 1      1060.034          37.000  
E27  25272235.287 9                      1945.834          22.000  
G 9  23587690.569 9                     -2121.231          17.000  
E30  22792967.629 4 119777837.742 5       464.401          26.000  
G 1  20045316.837 2 105338852.631 1      2142.776          38.000  
> 2021  5 18  3  7 32.9990000  0 12                     
J 2  37665900.206 9                      1331.323          14.000  
G21  20177553.392 4 106033759.560 2      -498.363          35.000  
G 7  19982503.504 4 105008766.549 2      1152.906          36.000  
G30  22382208.866 9                      3013.070          16.000  
E 2  26062204.332 9                     -1067.971          14.000  
G 8  21624280.419 9                     -2101.515          16.000  
J 3  38624302.731 4 202972082.52824      -637.556          27.000  
E15  22803170.675 2 119831479.631 1      1059.224          37.000  
E27  25271866.529 9                      1944.531          22.000  
G 9  23588094.524 9                     -2127.440          17.000  
E30  22792881.678 8 119777374.185 5       463.871          25.000  
G 1  20044909.148 2 105336709.885 1      2141.991          37.000  
> 2021  5 18  3  7 33.9990000  0 11                     
J 2  37665648.417 9                      1331.323          14.000  
G21  20177648.173 2 106034257.393 1      -497.978          35.000  
G 7  19982284.024 2 105007613.365 1      1152.754          36.000  
G30  22381634.327 9                      3023.678          16.000  
G 8  21624681.425 9                     -2101.515          15.000  
J 3  38624424.194 4 202972719.80024      -637.087          27.000  
E15  22802969.309 1 119830420.480 1      1059.024          37.000  
E27  25271497.675 9                      1944.944          22.000  
G 9  23588498.322 9                     -2121.007          17.000  
E30  22792792.394 4 119776910.909 4       462.874          26.000  
G 1  20044501.598 2 105334567.797 1      2141.379          37.000  
> 2021  5 18  3  7 34.9990000  0 11                     
J 2  37665395.110 9                      1325.964          14.000  
G21  20177743.285 4 106034755.923 2      -498.127          35.000  
G 7  19982064.736 2 105006460.864 1      1152.227          36.000  
G30  22381060.206 9                      3016.570          18.000  
G 8  21625080.852 9                     -2107.081          13.000  
J 3  38624546.057 4 202973357.19624      -637.688          27.000  
E15  22802767.689 1 119829361.869 1      1058.464          37.000  
E27  25271128.132 9                      1949.908          22.000  
G 9  23588904.371 9                     -2125.881          18.000  
E30  22792705.352 4 119776447.751 5       463.172          26.000  
G 1  20044094.030 2 105332426.350 1      2140.432          37.000  
> 2021  5 18  3  7 35.9990000  0 12                     
J 2  37665142.526 9                      1339.830          15.000  
G21  20177838.362 4 106035255.229 2      -499.840          35.000  
G 7  19981845.483 2 105005309.136 1      1150.757          36.000  
G30  22380485.274 9                      3013.388          16.000  
E 2  26062815.290 9                     -1086.867          11.000  
G 8  21625480.951 9                     -2107.081          11.000  
J 3  38624667.484 4 202973994.63824      -637.616          27.000  
E15  22802566.523 2 119828303.812 1      1057.675          37.000  
E27  25270759.636 9                      1956.061          22.000  
G 9  23589309.810 9                     -2130.869          17.000  
E30  22792618.476 9                       462.791          26.000  
G 1  20043686.411 2 105330285.585 1      2140.823          37.000  
> 2021  5 18  3  7 36.9990000  0 12                     
J 2  37664891.514 9                      1323.198          17.000  
G21  20177933.449 4 106035755.144 2      -500.087          35.000  
G 7  19981626.483 2 105004157.962 1      1150.749          36.000  
G30  22379909.739 9                      3014.399          18.000  
E 2  26063021.508 9                     -1086.867          11.000  
G 8  21625882.725 9                     -2107.081          13.000  
J 3  38624789.121 4 202974632.00825      -637.459          26.000  
E15  22802364.964 2 119827246.188 1      1057.341          37.000  
E27  25270389.403 9                      1955.048          22.000  
G 9  23589715.527 9                     -2128.246          17.000  
E30  22792530.423 9                       460.521          25.000  
G 1  20043279.044 2 105328145.468 1      2139.547          37.000  
> 2021  5 18  3  7 37.9990000  0 12                     
J 2  37664638.931 9                      1332.720          17.000  
G21  20178028.971 4 106036255.920 2      -500.700          34.000  
G 7  19981407.421 2 105003007.617 1      1150.138          35.000  
G30  22379335.557 9                      3018.837          17.000  
E 2  26063227.997 9                     -1086.867          11.000  
G 8  21626284.717 9                     -2107.081          13.000  
J 3  38624911.875 9                      -638.115          26.000  
E15  22802164.199 2 119826189.231 1      1056.941          36.000  
E27  25270018.708 9                      1948.242          21.000  
G 9  23590121.855 9                     -2133.230          16.000  
E30  22792443.381 9                       462.370          25.000  
G 1  20042871.669 2 105326006.134 1      2139.169          36.000  
> 2021  5 18  3  7 38.9990000  0 11                     
J 2  37664386.182 9                      1321.749          17.000  
G21  20178124.441 2 106036757.328 1      -501.174          36.000  
G 7  19981188.613 2 105001857.938 1      1149.637          37.000  
G30  22378760.930 9                      3017.852          18.000  
G 8  21626685.042 9                     -2107.081          13.000  
J 3  38625031.723 9                      -637.417          26.000  
E15  22801963.426 1 119825132.720 1      1056.533          38.000  
E27  25269646.827 9                      1941.163          21.000  
G 9  23590525.697 9                     -2117.552          16.000  
E30  22792353.914 9                       460.631          25.000  
G 1  20042464.677 2 105323867.420 1      2138.494          38.000  
> 2021  5 18  3  7 39.9990000  0 12                     
J 2  37664135.073 9                      1325.464          16.000  
G21  20178219.990 2 106037259.407 1      -502.427          36.000  
G 7  19980969.866 2 105000708.873 1      1149.536          37.000  
G30  22378186.146 9                      3015.289          20.000  
G 8  21627084.861 9                     -2099.840          13.000  
J 3  38625153.395 8 202976548.62935      -637.131          27.000  
E15  22801762.391 1 119824076.707 1      1055.780          38.000  
E27  25269276.393 9                      1943.033          22.000  
G 4  24509892.897 9                     -2411.720          10.000  
G 9  23590929.635 9                     -2116.205          16.000  
E30  22792263.504 8                       462.382          26.000  
G 1  20042057.538 2 105321729.320 1      2138.160          38.000  
> 2021  5 18  3  7 40.9990000  0 11                     
J 2  37663883.048 9                      1338.019          16.000  
G21  20178315.984 2 106037762.137 1      -503.268          36.000  
G 7  19980751.590 2 104999560.451 1      1148.537          38.000  
G30  22377611.310 9                      3022.677          21.000  
G 8  21627483.311 9                     -2099.840          13.000  
J 3  38625274.298 8 202977186.16924      -637.723          27.000  
E15  22801561.303 1 119823021.106 1      1055.675          38.000  
E27  25268905.847 9                      1944.315          22.000  
G 9  23591333.407 9                     -2131.083          18.000  
E30  22792176.401 8                       461.885          26.000  
G 1  20041650.572 2 105319591.845 1      2137.275          38.000  
> 2021  5 18  3  7 41.9990000  0 12                     
J 2  37663631.739 9                      1340.672          17.000  
G21  20178412.091 4 106038265.601 2      -504.619          34.000  
G 7  19980533.445 2 104998412.775 1      1146.922          36.000  
G30  22377042.258 9                      2973.006          19.000  
G 8  21627883.444 9                     -2099.840          13.000  
J 3  38625396.066 4 202977823.74924      -638.115          27.000  
E15  22801360.250 2 119821966.078 1      1054.651          35.000  
E27  25268534.724 9                      1943.896          21.000  
G 4  24510808.894 9                     -2411.720          12.000  
G 9  23591736.672 9                     -2110.321          18.000  
E30  22792087.615 9                       462.021          25.000  
G 1  20041243.825 2 105317455.064 1      2136.556          35.000  
> 2021  5 18  3  7 42.9990000  0 11                     
J 2  37663380.622 9                      1324.353          17.000  
G21  20178508.154 2 106038769.615 2      -504.856          36.000  
G 7  19980315.352 2 104997265.625 1      1146.757          38.000  
G30  22376467.239 9                      3013.205          19.000  
G 8  21628284.337 9                     -2099.840          13.000  
J 3  38625517.903 4 202978461.20724      -637.128          27.000  
E15  22801159.695 1 119820911.439 1      1054.436          38.000  
E27  25268164.378 9                      1951.674          22.000  
G 9  23592141.299 9                     -2128.627          19.000  
E30  22792000.442 9                       462.149          25.000  
G 1  20040837.314 2 105315318.846 1      2135.418          37.000  
> 2021  5 18  3  7 43.9990000  0 12                     
J 2  37663132.165 9                      1321.176          19.000  
G21  20178604.418 2 106039274.288 2      -505.108          35.000  
G 7  19980097.154 2 104996119.087 1      1146.139          38.000  
G30  22375889.724 9                      3019.955          20.000  
G 8  21628685.762 9                     -2111.674          14.000  
J 3  38625639.418 4 202979098.73624      -638.528          27.000  
E15  22800958.860 1 119819857.364 1      1053.687          38.000  
E27  25267793.893 9                      1939.425          22.000  
G 4  24511726.845 9                     -2411.720          12.000  
G 9  23592543.762 9                     -2120.197          19.000  
E30  22791913.514 9                       461.298          25.000  
G 1  20040430.820 2 105313183.371 1      2134.781          37.000  
> 2021  5 18  3  7 44.9990000  0 11                     
J 2  37662881.170 9                      1324.948          20.000  
G21  20178700.892 8                      -506.946          31.000  
G 7  19979879.026 2 104994973.300 1      1144.403          37.000  
G30  22375312.689 9                      3014.190          20.000  
G 8  21629086.977 9                     -2103.917          22.000  
J 3  38625760.374 4 202979736.14025      -639.005          25.000  
E15  22800758.471 1 119818803.957 1      1052.333          38.000  
E27  25267424.768 9                      1953.673          22.000  
G 9  23592946.915 9                     -2120.197          17.000  
E30  22791825.696 9                       461.030          26.000  
G 1  20040024.762 2 105311048.775 1      2132.986          38.000  
> 2021  5 18  3  7 45.9990000  0 11                     
J 2  37662632.470 9                      1331.233          21.000  
G21  20178797.714 8                      -508.007          31.000  
G 7  19979661.396 2 104993829.186 1      1143.490          34.000  
G30  22374738.472 9                      3014.211          20.000  
G 8  21629488.210 9                     -2108.652          21.000  
J 3  38625880.720 8                      -639.379          25.000  
E15  22800558.666 1 119817752.611 1      1049.983          36.000  
E27  25267055.478 9                      1948.085          22.000  
G 9  23593350.137 9                     -2120.197          15.000  
E30  22791734.387 9                       460.186          26.000  
G 1  20039619.219 2 105308916.547 1      2131.677          36.000  
> 2021  5 18  3  7 46.9990000  0 11                     
J 2  37662383.167 9                      1319.984          23.000  
G21  20178894.013 8 106040805.39935      -508.592          29.000  
G 7  19979443.687 2 104992684.964 1      1145.135          38.000  
G30  22374164.220 9                      3020.862          20.000  
G 8  21629887.366 9                     -2112.338          22.000  
J 3  38626003.203 9                      -641.036          23.000  
E15  22800358.730 2 119816701.439 2      1051.318          33.000  
E27  25266686.781 9                      1948.416          22.000  
G 9  23593753.900 9                     -2124.739          16.000  
E30  22791647.232 9                       460.452          26.000  
G 1  20039213.649 2 105306785.087 1      2131.611          36.000  
> 2021  5 18  3  7 47.9990000  0 11                     
J 2  37662134.179 9                      1324.835          23.000  
G21  20178989.230 9                      -507.374          26.000  
G 7  19979225.952 2 104991540.735 2      1143.147          34.000  
G30  22373588.843 9                      3021.137          19.000  
G 8  21630285.118 9                     -2102.786          25.000  
J 3  38626125.092 9                      -637.626          23.000  
E15  22800158.750 2 119815650.874 1      1049.499          34.000  
E27  25266312.308 9                      1957.620          21.000  
G 9  23594158.370 9                     -2129.257          16.000  
E30  22791560.470 9                       468.601          24.000  
G 1  20038808.394 2 105304654.562 1      2129.368          35.000  
> 2021  5 18  3  7 48.9990000  0 11                     
J 2  37661882.939 9                      1329.656          22.000  
G21  20179089.770 9                      -509.412          26.000  
G 7  19979008.610 2 104990397.862 1      1141.913          40.000  
G30  22373014.399 9                      3012.003          19.000  
G 8  21630685.496 9                     -2114.546          25.000  
J 3  38626244.818 9                      -632.972          22.000  
E15  22799959.225 2 119814601.908 1      1048.600          38.000  
E27  25265941.020 9                      1948.068          22.000  
G 9  23594564.594 9                     -2133.206          18.000  
E30  22791471.011 9                       465.312          24.000  
G 1  20038403.401 4 105302526.030 2      2128.148          38.000  
> 2021  5 18  3  7 49.9990000  0 11                     
J 2  37661634.492 9                      1319.866          29.000  
G21  20179182.082 9                      -501.806          25.000  
G 7  19978791.485 2 104989255.851 1      1143.132          37.000  
G30  22372440.880 9                      3021.359          20.000  
G 8  21631086.196 9                     -2102.645          25.000  
J 3  38626365.347 9                      -648.022          21.000  
E15  22799759.830 2 119813553.690 1      1048.030          37.000  
E27  25265571.703 9                      1947.344          23.000  
G 9  23594970.861 9                     -2128.783          18.000  
E30  22791383.350 9                       446.515          22.000  
G 1  20037998.652 4 105300398.518 2      2127.671          35.000  
> 2021  5 18  3  7 50.9990000  0 11                     
J 2  37661384.701 9                      1319.707          28.000  
G21  20179282.263 9                      -513.014          29.000  
G 7  19978574.125 2 104988113.690 1      1143.375          41.000  
G30  22371866.428 9                      3021.940          22.000  
G 8  21631484.672 9                     -2103.057          24.000  
J 3  38626487.848 9                      -635.748          21.000  
E15  22799560.068 2 119812504.906 1      1049.061          37.000  
E27  25265201.558 9                      1945.188          24.000  
G 9  23595377.085 9                     -2140.008          17.000  
E30  22791298.018 9                       465.745          22.000  
G 1  20037593.711 4 105298270.435 2      2128.971          36.000  
> 2021  5 18  3  7 51.9990000  0 12                     
J 2  37661135.642 9                      1328.998          24.000  
G21  20179377.088 9                      -502.490          23.000  
G 7  19978356.861 1 104986970.564 1      1143.692          46.000  
G30  22371292.621 9                      3012.411          22.000  
G 8  21631884.073 9                     -2102.114          22.000  
J 3  38626608.158 9                      -633.120          29.000  
E13  25955468.740 9                      2951.303          13.000  
E15  22799360.185 1 119811455.066 1      1050.117          40.000  
E27  25264826.274 9                      1952.375          30.000  
G 9  23595781.450 9                     -2125.307          17.000  
E30  22791205.829 9                       436.091          30.000  
G 1  20037188.709 4 105296141.431 2      2129.182          38.000  
> 2021  5 18  3  7 52.9990000  0 11                     
J 2  37660883.801 9                      1323.063          23.000  
G21  20179474.792 9                      -506.710          23.000  
G 7  19978139.859 1 104985827.678 1      1142.200          41.000  
G30  22370715.830 9                      2989.271          22.000  
G 8  21632278.369 9                     -2101.817          23.000  
E13  25954905.360 9                      2954.558          16.000  
E15  22799160.572 2 119810405.346 1      1049.711          39.000  
E27  25264454.279 9                      1948.775          23.000  
G 9  23596186.574 9                     -2109.326          16.000  
E30  22791113.858 9                       464.013          29.000  
G 1  20036783.742 4 105294012.860 3      2128.584          35.000  
> 2021  5 18  3  7 53.9990000  0 11                     
J 2  37660630.746 9                      1333.399          20.000  
G21  20179572.469 9                      -512.924          23.000  
G 7  19977922.560 2 104984685.845 1      1140.319          37.000  
G30  22370143.027 9                      3015.979          21.000  
G 8  21632679.942 9                     -2095.989          22.000  
E13  25954343.419 9                      2949.664          15.000  
E15  22798960.706 4 119809355.647 2      1049.850          34.000  
E27  25264080.347 9                      1952.351          23.000  
G 9  23596590.433 9                     -2130.929          18.000  
E30  22791024.888 9                       442.356          20.000  
G 1  20036376.898 8 105291883.926 3      2129.574          31.000  
> 2021  5 18  3  7 54.9990000  0 11                     
J 2  37660377.675 9                      1333.399          18.000  
G21  20179671.883 9                      -520.719          23.000  
G 7  19977705.611 2 104983545.943 1      1139.251          37.000  
G30  22369568.993 9                      3015.979          18.000  
G 8  21633074.745 9                     -2110.697          21.000  
E13  25953781.819 9                      2949.664          12.000  
E15  22798760.909 2 119808306.165 2      1049.013          35.000  
E27  25263711.327 9                      1947.039          24.000  
G 9  23596995.749 9                     -2127.607          19.000  
E30  22790944.896 9                       460.253          19.000  
G 1  20035967.752 8 105289754.631 3      2128.469          31.000  
> 2021  5 18  3  7 55.9990000  0 12                     
J 2  37660123.809 9                      1329.415          15.000  
G21  20179767.597 9                      -517.303          25.000  
G 7  19977488.949 1 104982406.939 1      1138.696          42.000  
G30  22368994.759 9                      3015.979          16.000  
G 8  21633477.138 9                     -2105.980          22.000  
J 3  38627108.848 9                      -635.181          31.000  
E13  25953220.646 9                      2949.664          10.000  
E15  22798561.593 1 119807257.454 1      1048.261          40.000  
E27  25263340.231 8 132759759.33714      1947.297          31.000  
G 9  23597402.915 9                     -2119.260          21.000  
E30  22790863.543 9                       460.985          22.000  
G 1  20035563.483 4 105287626.309 2      2127.629          37.000  
> 2021  5 18  3  7 56.9990000  0 12                     
J 2  37659874.803 9                      1320.476          16.000  
G21  20179865.999 9                      -514.364          25.000  
G 7  19977272.426 1 104981268.462 1      1138.566          42.000  
G30  22368417.637 9                      3011.984          29.000  
G 8  21633881.582 9                     -2105.554          31.000  
J 3  38627222.275 9                      -630.327          25.000  
E13  25952658.601 9                      2956.657          14.000  
E15  22798362.486 1 119806209.397 1      1047.625          40.000  
E27  25262963.070 8 132757811.313 4      1948.938          29.000  
G 9  23597807.978 9                     -2128.106          24.000  
E30  22790782.783 9                       449.258          24.000  
G 1  20035162.250 4 105285498.893 2      2127.035          39.000  
> 2021  5 18  3  7 57.9990000  0 11                     
J 2  37659627.909 9                      1319.903          29.000  
G21  20179962.979 9                      -513.058          25.000  
G 7  19977055.703 1 104980130.224 1      1138.011          40.000  
G30  22367842.076 9                      3019.067          20.000  
G 8  21634280.912 9                     -2103.198          25.000  
E13  25952096.922 9                      2943.311          17.000  
E15  22798163.527 2 119805161.942 1      1047.450          36.000  
E27  25262597.131 8 132755862.088 5      1949.941          30.000  
G 9  23598215.328 9                     -2128.725          25.000  
E30  22790693.587 9                       464.302          24.000  
G 1  20034759.848 4 105283372.602 1      2124.880          35.000  
> 2021  5 18  3  7 58.9990000  0 12                     
J 2  37659380.639 9 197901380.08735      1322.339          32.000  
G21  20180059.156 9                      -514.245          25.000  
G 7  19976839.312 1 104978992.412 1      1137.653          45.000  
G30  22367269.299 9                      3007.449          21.000  
G 8  21634689.082 9                     -2100.615          24.000  
J 3  38627464.266 9                      -635.730          30.000  
E13  25951535.784 9                      2956.451          17.000  
E15  22797964.071 2 119804115.230 1      1046.327          38.000  
E27  25262220.747 8 132753912.304 4      1950.660          29.000  
G 9  23598619.256 9                     -2131.594          23.000  
E30  22790602.653 9                       465.116          23.000  
G 1  20034356.128 4 105281247.197 1      2125.425          39.000  
> 2021  5 18  3  7 59.9990000  0 12                     
J 2  37659124.897 9                      1322.544          26.000  
G21  20180156.423 9                      -513.496          24.000  
G 7  19976623.104 1 104977854.973 1      1137.204          41.000  
G30  22366693.887 9                      3012.358          21.000  
G 8  21635091.536 9                     -2111.164          24.000  
J 3  38627575.031 9                      -635.888          29.000  
E13  25950975.362 9                      2955.134          15.000  
E15  22797764.589 2 119803069.013 1      1046.136          38.000  
E27  25261856.447 9                      1949.769          18.000  
G 9  23599023.735 9                     -2123.669          22.000  
E30  22790505.421 9                       459.137          30.000  
G 1  20033952.505 4 105279122.809 1      2124.985          40.000  
> 2021  5 18  3  8  0.9990000  0 12                     
J 2  37658874.687 9                      1316.205          24.000  
G21  20180255.811 9                      -514.752          25.000  
G 7  19976406.634 4 104976718.193 2      1135.641          33.000  
G30  22366119.504 9                      3016.950          22.000  
G 8  21635491.155 9                     -2097.222          23.000  
J 3  38627694.024 9                      -637.603          27.000  
E13  25950413.220 9                      2955.134          16.000  
E15  22797565.570 1 119802023.188 1      1045.126          38.000  
E27  25261484.574 9                      1948.590          28.000  
G 9  23599428.772 9                     -2132.147          21.000  
E30  22790413.057 9 119764464.35315       459.923          29.000  
G 1  20033547.477 2 105276998.797 1      2123.108          39.000  
> 2021  5 18  3  8  1.9990000  0 12                     
J 2  37658626.004 9                      1323.515          23.000  
G21  20180353.000 9                      -515.104          25.000  
G 7  19976190.609 2 104975582.079 1      1136.315          39.000  
G30  22365546.858 9                      3011.552          22.000  
G 8  21635889.988 9                     -2106.993          25.000  
J 3  38627816.184 9                      -636.078          28.000  
E13  25949850.634 9                      2954.390          16.000  
E15  22797366.140 1 119800977.969 1      1044.700          38.000  
E27  25261110.485 9                      1950.180          27.000  
G 9  23599832.692 9                     -2122.451          19.000  
E30  22790330.517 9 119764004.302 4       459.096          30.000  
G 1  20033143.373 2 105274875.527 1      2122.159          38.000  
> 2021  5 18  3  8  2.9990000  0 12                     
J 2  37658371.537 9                      1319.757          24.000  
G21  20180453.417 9                      -510.858          23.000  
G 7  19975974.025 4                      1136.710          30.000  
G30  22364972.475 9                      3005.405          22.000  
G 8  21636291.081 9                     -2100.610          25.000  
J 3  38627937.882 9                      -638.578          28.000  
E13  25949289.034 9                      2952.055          17.000  
E15  22797167.390 1 119799933.592 1      1044.080          40.000  
E27  25260739.599 9                      1949.621          26.000  
G 9  23600237.773 9                     -2124.531          21.000  
E30  22790253.728 9                       459.753          28.000  
G 1  20032739.558 2 105272753.844 1      2120.454          40.000  
> 2021  5 18  3  8  3.9990000  0 12                     
J 2  37658117.400 9                      1325.229          23.000  
G21  20180551.112 9                      -527.064          23.000  
G 7  19975761.255 8 104973333.76035      1139.011          30.000  
G30  22364400.117 9                      3016.853          22.000  
G 8  21636692.524 9                     -2105.617          25.000  
J 3  38628055.627 9                      -632.118          28.000  
E13  25948726.971 9                      2945.434          18.000  
E15  22796968.929 1 119798891.258 1      1041.623          39.000  
E27  25260370.387 9                      1948.472          25.000  
G 9  23600643.909 9                     -2136.542          19.000  
E30  22790156.495 9                       461.454          28.000  
G 1  20032336.178 2 105270635.634 1      2116.394          42.000  
> 2021  5 18  3  8  4.9990000  0 13                     
J 2  37657868.054 9                      1317.001          22.000  
G21  20180650.491 9                      -522.223          25.000  
G 7  19975545.937 9                      1135.860          26.000  
G30  22363826.589 9                      3017.288          21.000  
G 8  21637090.589 9                     -2096.635          26.000  
J 3  38628176.566 9                      -636.078          33.000  
E13  25948162.858 9                      2945.937          19.000  
E15  22796771.000 1 119797850.268 1      1040.833          39.000  
E27  25260001.978 9                      1950.145          24.000  
G 4  24521314.387 9                     -2387.867          12.000  
G 9  23601052.052 9                     -2136.542          19.000  
E30  22790068.310 9                       463.326          28.000  
G 1  20031933.419 2 105268519.642 1      2115.960          43.000  
> 2021  5 18  3  8  5.9990000  0 12                     
J 2  37657613.281 9                      1323.262          22.000  
G21  20180746.624 9                      -520.574          23.000  
G 7  19975336.473 9                      1139.099          25.000  
G30  22363253.140 9                      3008.793          20.000  
G 8  21637490.653 9                     -2101.185          24.000  
J 3  38628293.151 9                      -633.044          27.000  
E13  25947604.006 9                      2943.127          18.000  
E15  22796572.949 4 119796809.385 2      1040.163          33.000  
E27  25259630.341 9                      1950.361          21.000  
G 9  23601458.241 9                     -2127.657          16.000  
E30  22789964.359 9 119762166.09214       460.619          38.000  
G 1  20031530.467 2 105266403.697 1      2114.935          36.000  
> 2021  5 18  3  8  6.9990000  0 12                     
J 2  37657358.569 9                      1317.200          23.000  
G21  20180844.363 9                      -516.485          21.000  
G 7  19975113.808 9                      1137.094          31.000  
G30  22362681.131 9                      3008.793          17.000  
G 8  21637889.059 9                     -2101.560          22.000  
J 3  38628405.417 8 202993639.62234      -635.632          32.000  
E13  25947044.927 9                      2943.127          15.000  
E15  22796375.212 2 119795770.190 2      1038.668          33.000  
E27  25259259.227 9                      1952.506          19.000  
G 9  23601863.348 9                     -2127.657          11.000  
E30  22789877.946 8 119761704.533 4       462.539          28.000  
G 1  20031128.056 2 105264290.420 1      2111.027          36.000  
> 2021  5 18  3  8  7.9990000  0 11                     
J 2  37657103.394 9 197889413.19735      1319.218          34.000  
G21  20180931.649 9 106051510.92635      -521.062          30.000  
G 7  19974889.119 8 104968795.94333      1134.185          35.000  
G30  22362110.526 9                      3013.639          17.000  
G 8  21638289.969 9                     -2095.788          20.000  
J 3  38628525.457 8 202994273.07124      -633.435          27.000  
E13  25946486.267 9                      2943.127          13.000  
E15  22796177.972 4 119794732.579 2      1037.597          33.000  
E27  25258885.146 9                      1964.657          20.000  
E30  22789793.435 9                       454.931          26.000  
G 1  20030726.352 2 105262179.480 1      2110.743          36.000  
> 2021  5 18  3  8  8.9990000  0 10                     
J 2  37656847.504 9 197888092.88525      1319.881          31.000  
G21  20181032.712 8 106052033.24623      -522.009          36.000  
G 7  19974678.722 8 104967662.16223      1130.793          30.000  
G30  22361535.410 9                      3020.187          19.000  
G 8  21638688.768 9                     -2099.206          21.000  
J 3  38628649.476 9                      -627.812          25.000  
E15  22795980.531 2 119793695.607 2      1037.000          33.000  
E27  25258513.509 9                      1956.636          20.000  
E30  22789708.958 9                       455.689          26.000  
G 1  20030324.901 2 105260069.037 1      2109.093          36.000  
> 2021  5 18  3  8  9.9990000  0 10                     
J 2  37656601.055 8 197886772.49523      1320.868          36.000  
G21  20181131.986 8 106052556.30424      -524.052          34.000  
G 7  19974463.849 9                      1130.982          25.000  
G30  22360959.361 9                      3016.486          21.000  
G 8  21639088.857 9                     -2112.393          21.000  
J 3  38628771.750 9                      -634.622          25.000  
E15  22795782.742 4 119792658.625 2      1036.670          33.000  
E27  25258140.493 9                      1957.682          19.000  
E30  22789621.236 9                       470.138          25.000  
G 1  20029922.970 4 105257958.438 2      2110.086          35.000  
> 2021  5 18  3  8 10.9990000  0 10                     
J 2  37656351.543 9                      1322.444          17.000  
G21  20181233.110 8 106053079.99324      -523.567          26.000  
G 7  19974242.624 9                      1132.189          25.000  
G30  22360385.389 9                      3015.099          21.000  
G 8  21639488.633 9                     -2095.694          20.000  
J 3  38628894.311 9                      -635.089          26.000  
E15  22795584.970 8                      1041.793          28.000  
E27  25257768.498 9                      1957.682          17.000  
E30  22789535.128 9                       461.663          24.000  
G 1  20029520.568 8 105255847.855 3      2111.568          32.000  
> 2021  5 18  3  8 11.9990000  0 10                     
J 2  37656101.359 9                      1319.217          28.000  
G21  20181333.118 9                      -524.296          35.000  
G 7  19974030.254 9 104964236.84335      1130.382          35.000  
G30  22359810.631 9                      3015.608          29.000  
G 8  21639886.847 9                     -2106.168          21.000  
J 3  38629014.630 9                      -634.454          26.000  
E15  22795387.023 8 119790577.59614      1037.147          36.000  
E27  25257395.360 9                      1953.348          17.000  
E30  22789445.879 9                       447.092          23.000  
G 1  20029118.288 4 105253736.656 2      2112.004          40.000  
> 2021  5 18  3  8 12.9990000  0 10                     
J 2  37655853.278 9                      1322.785          24.000  
G21  20181431.493 9                      -525.802          30.000  
G 7  19973815.416 8 104963108.08822      1127.155          41.000  
G30  22359234.608 9                      3007.317          25.000  
G 8  21640285.087 9                     -2105.085          22.000  
J 3  38629132.097 8                      -637.759          28.000  
E15  22795187.236 8 119789540.123 2      1036.719          34.000  
E27  25257023.793 9                      1941.941          18.000  
E30  22789359.526 9                       450.168          21.000  
G 1  20028715.398 4 105251624.127 1      2112.656          38.000  
> 2021  5 18  3  8 13.9990000  0 10                     
J 2  37655604.159 9                      1321.340          21.000  
G21  20181536.142 9                      -526.241          23.000  
G 7  19973602.576 4 104961980.65321      1127.268          32.000  
G30  22358659.047 9                      3002.467          24.000  
G 8  21640686.181 9                     -2113.089          22.000  
J 3  38629256.665 9                      -637.738          17.000  
E15  22794991.872 8 119788502.839 2      1037.485          30.000  
E27  25256653.360 9                      1940.366          18.000  
E30  22789273.113 9                       457.547          20.000  
G 1  20028315.770 4 105249511.458 1      2112.780          33.000  
> 2021  5 18  3  8 14.9990000  0 10                     
J 2  37655347.737 9                      1309.116          21.000  
G21  20181637.493 9                      -525.366          25.000  
G 7  19973383.846 8 104960852.38923      1128.827          32.000  
G30  22358084.944 9                      3013.404          24.000  
G 8  21641086.436 9                     -2125.415          21.000  
J 3  38629381.111 9                      -638.041          18.000  
E15  22794792.084 4 119787466.730 2      1035.682          34.000  
E27  25256283.825 9                      1952.860          18.000  
E30  22789184.710 9                       467.222          21.000  
G 1  20027914.616 4 105247401.019 2      2108.926          37.000  
> 2021  5 18  3  8 15.9990000  0 10                     
J 2  37655097.832 9                      1323.958          21.000  
G21  20181738.416 9                      -532.907          24.000  
G 7  19973169.444 8                      1130.486          31.000  
G30  22357511.678 9                      3022.776          22.000  
G 8  21641483.795 9                     -2088.085          28.000  
J 3  38629501.273 9                      -632.629          28.000  
E15  22794594.984 4 119786432.299 1      1033.281          34.000  
E27  25255911.254 9                      1960.065          18.000  
E30  22789094.204 9                       462.945          23.000  
G 1  20027513.723 2 105245293.994 1      2104.733          37.000  
> 2021  5 18  3  8 16.9990000  0 10                     
J 2  37654848.739 9                      1320.353          30.000  
G21  20181836.382 9                      -513.868          24.000  
G 7  19972958.724 9                      1128.993          31.000  
G30  22356936.353 9                      3011.247          23.000  
G 8  21641877.969 9                     -2092.682          28.000  
J 3  38629615.782 9 203000000.93434      -632.889          30.000  
E15  22794402.403 4 119785400.211 1      1031.181          41.000  
E27  25255536.502 9                      1971.087          27.000  
E30  22789007.738 9                       430.432          23.000  
G 1  20027113.293 2 105243190.630 1      2102.194          44.000  
> 2021  5 18  3  8 17.9990000  0 10                     
J 2  37654600.230 9                      1328.350          29.000  
G21  20181933.614 9                      -525.808          30.000  
G 7  19972745.299 9                      1131.058          31.000  
G30  22356363.986 9                      3019.039          24.000  
G 8  21642267.537 9                     -2109.426          28.000  
J 3  38629734.827 9                      -633.952          30.000  
E15  22794205.958 4 119784369.537 1      1030.549          40.000  
E27  25255156.558 9                      1970.658          30.000  
E30  22788922.590 9                       466.036          25.000  
G 1  20026713.675 2 105241089.778 1      2099.775          42.000  
> 2021  5 18  3  8 18.9990000  0 10                     
J 2  37654349.148 9                      1317.400          27.000  
G21  20182035.201 9                      -518.720          28.000  
G 7  19972529.667 9                      1128.655          33.000  
G30  22355790.493 9                      3046.752          22.000  
G 8  21642663.997 9                     -2084.685          26.000  
J 3  38629861.306 9                      -625.734          28.000  
E15  22794011.161 4 119783339.626 1      1029.577          29.000  
E27  25254777.636 9                      1961.673          27.000  
E30  22788834.397 9                       464.081          25.000  
G 1  20026313.009 4 105238990.432 2      2100.243          31.000  
> 2021  5 18  3  8 19.9990000  0 11                     
J 2  37654099.191 9                      1316.025          25.000  
G21  20182139.955 9                      -531.788          21.000  
G 7  19972311.094 9 104955222.50235      1127.790          30.000  
G30  22355214.078 9                      3018.968          21.000  
G 8  21643061.024 9                     -2095.800          25.000  
J 3  38629975.361 9                      -628.507          27.000  
G16  24712594.120 9                     -1724.000          12.000  
E15  22793813.450 4 119782309.992 3      1030.396          33.000  
E27  25254399.332 9                      1968.466          26.000  
E30  22788747.181 9                       453.691          24.000  
G 1  20025910.459 4 105236891.139 2      2101.131          35.000  
> 2021  5 18  3  8 20.9990000  0 10                     
J 2  37653849.496 9                      1324.292          25.000  
G21  20182238.854 9                      -528.325          22.000  
G 7  19972098.140 8 104954096.11624      1124.653          31.000  
G30  22354637.322 9                      3014.184          28.000  
G 8  21643459.893 9                     -2117.291          25.000  
J 3  38630098.036 9                      -630.627          27.000  
E15  22793618.016 4 119781278.290 2      1033.363          34.000  
E27  25254009.774 9 132710726.71015      1958.319          27.000  
E30  22788658.551 9                       456.893          26.000  
G 1  20025511.712 4 105234787.828 2      2105.613          38.000  
> 2021  5 18  3  8 21.9990000  0 10                     
J 2  37653598.082 9                      1320.028          28.000  
G21  20182336.269 9                      -530.622          26.000  
G 7  19971886.399 8 104952972.72723      1121.960          31.000  
G30  22354048.368 9 117471316.50734      3003.595          36.000  
G 8  21643858.168 9                     -2117.502          25.000  
J 3  38630216.898 9                      -638.960          25.000  
E15  22793420.532 2 119780243.862 2      1035.567          35.000  
E27  25253640.527 8 132708772.926 3      1949.176          32.000  
E30  22788569.886 9                       462.195          24.000  
G 1  20025110.706 4 105232679.341 1      2109.872          36.000  
> 2021  5 18  3  8 22.9990000  0 10                     
J 2  37653342.785 9 197869651.74735      1321.108          27.000  
G21  20182435.142 9 106059421.72435      -529.656          27.000  
G 7  19971676.778 8 104951850.77524      1121.998          31.000  
G30  22353474.448 8 117468314.22122      3002.645          32.000  
G 8  21644261.905 9                     -2107.798          25.000  
J 3  38630339.416 9                      -635.627          26.000  
E15  22793223.563 4 119779207.487 2      1036.358          35.000  
E27  25253267.389 8                      1948.169          28.000  
E30  22788480.053 9                       462.195          21.000  
G 1  20024710.058 4 105230567.485 2      2112.178          33.000  
> 2021  5 18  3  8 23.9990000  0 10                     
J 2  37653088.466 8 197868330.22024      1320.988          28.000  
G21  20182538.980 8 106059951.93424      -530.732          28.000  
G 7  19971459.785 8 104950729.38823      1120.581          33.000  
G30  22352900.641 4 117465312.23221      3002.023          35.000  
G 8  21644663.792 9                     -2106.234          26.000  
J 3  38630459.508 8                      -636.044          27.000  
E15  22793026.663 2 119778171.445 1      1035.637          36.000  
E27  25252898.081 8 132704876.88513      1948.539          31.000  
E30  22788392.880 9                       462.195          16.000  
G 1  20024307.307 2 105228456.117 1      2110.616          37.000  
> 2021  5 18  3  8 24.9990000  0 10                     
J 2  37652834.975 4 197867008.74524      1322.583          28.000  
G21  20182639.135 8 106060482.97123      -531.581          28.000  
G 7  19971247.861 4 104949608.68822      1120.857          33.000  
G30  22352332.410 4 117462310.75821      3001.347          36.000  
G 8  21645066.857 9                     -2108.330          27.000  
J 3  38630583.283 8 203005071.22035      -635.967          27.000  
E15  22792830.060 2 119777135.954 1      1035.735          36.000  
E27  25252527.735 8 132702928.409 3      1949.105          32.000  
E30  22788305.969 9                       462.195          14.000  
G 1  20023905.202 2 105226345.448 1      2110.979          37.000  
> 2021  5 18  3  8 25.9990000  0 10                     
J 2  37652582.732 4 197865657.56034      1322.332          28.000  
G21  20182740.835 4 106061013.66124      -530.480          28.000  
G 7  19971035.562 4 104948487.86722      1121.056          33.000  
G30  22351760.016 4 117459308.71122      3002.218          36.000  
G 8  21645467.209 8 113747697.11735     -2106.760          27.000  
J 3  38630702.476 8 203005706.83825      -635.333          27.000  
E15  22792632.978 1 119776100.135 1      1035.795          36.000  
E27  25252157.110 8 132700979.136 3      1949.513          32.000  
E30  22788219.320 9                       462.195          13.000  
G 1  20023503.384 2 105224234.623 1      2110.750          37.000  
> 2021  5 18  3  8 26.9990000  0 10                     
J 2  37652331.152 4 197864334.99323      1323.347          28.000  
G21  20182841.698 4 106061544.79423      -531.092          28.000  
G 7  19970823.140 8 104947367.32122      1120.195          33.000  
G30  22351188.129 4 117456306.72021      3001.449          36.000  
G 8  21645868.956 8 113749803.67224     -2106.295          27.000  
J 3  38630822.499 4 203006342.11324      -635.246          27.000  
E15  22792436.130 2 119775064.428 1      1035.498          36.000  
E27  25251783.737 8 132699029.441 3      1949.054          31.000  
E30  22788132.723 9                       451.648          13.000  
G 1  20023102.125 2 105222124.022 1      2110.649          37.000  
> 2021  5 18  3  8 27.9990000  0 10                     
J 2  37652077.575 4 197863012.47423      1322.448          28.000  
G21  20182943.746 4 106062076.50623      -531.789          28.000  
G 7  19970609.375 4 104946247.40722      1119.514          33.000  
G30  22350617.839 2 117453305.13921      3000.341          35.000  
G 8  21646272.711 4 113751910.28824     -2105.844          27.000  
J 3  38630941.614 4 203006977.40224      -636.131          27.000  
E15  22792239.344 2 119774029.172 1      1034.794          36.000  
E27  25251411.855 8 132697079.714 2      1949.309          31.000  
E30  22788047.470 9                       451.648          12.000  
G 1  20022700.761 2 105220014.086 1      2109.200          37.000  
> 2021  5 18  3  8 28.9990000  0 10                     
J 2  37651826.920 8                      1321.451          27.000  
G21  20183043.474 9 106062608.42735      -533.179          28.000  
G 7  19970395.549 8 104945136.62833      1118.795          33.000  
G30  22350046.484 4 117450304.28122      3000.466          35.000  
G 8  21646673.760 9                     -2107.898          27.000  
J 3  38631064.150 4 203007612.04735      -635.760          27.000  
E15  22792042.829 2 119772994.873 1      1033.803          37.000  
E27  25251041.178 8 132695127.42514      1949.290          31.000  
E30  22787959.635 9                       451.648          11.000  
G 1  20022298.612 2 105217905.240 1      2108.455          37.000  
> 2021  5 18  3  8 29.9990000  0 10                     
J 2  37651576.867 8 197860363.45735      1321.784          28.000  
G21  20183143.141 8 106063142.04724      -533.742          27.000  
G 7  19970183.293 4 104944018.51022      1117.671          33.000  
G30  22349475.739 4 117447303.86722      2999.979          35.000  
G 8  21647075.700 9                     -2108.016          27.000  
J 3  38631186.048 4 203008247.82524      -636.047          27.000  
E15  22791846.706 1 119771961.098 1      1033.496          37.000  
E27  25250671.756 8 132693178.201 3      1948.353          31.000  
E30  22787873.692 9                       451.648          10.000  
G 1  20021901.149 2 105215797.062 1      2108.079          38.000  
> 2021  5 18  3  8 30.9990000  0 10                     
J 2  37651323.786 8 197859042.03024      1321.312          33.000  
G21  20183245.312 8 106063676.80625      -534.716          29.000  
G 7  19969972.110 4 104942901.58122      1116.595          36.000  
G30  22348905.047 2 117444303.83311      2999.535          39.000  
G 8  21647477.229 9                     -2108.800          28.000  
J 3  38631308.723 8 203008884.11624      -636.633          30.000  
E15  22791650.443 1 119770928.312 1      1032.596          41.000  
E27  25250304.621 8 132691229.447 2      1948.609          34.000  
E30  22787788.623 9                       464.320          13.000  
G 1  20021498.852 2 105213690.039 1      2106.740          41.000  
> 2021  5 18  3  8 31.9990000  0 10                     
J 2  37651075.243 9                      1322.637          26.000  
G21  20183349.202 8 106064211.90625      -535.174          27.000  
G 7  19969760.012 9                      1117.095          31.000  
G30  22348332.968 4 117441304.328 2      2999.872          31.000  
G 8  21647876.909 9                     -2106.277          27.000  
J 3  38631429.418 9                      -635.518          28.000  
E15  22791454.023 2 119769895.633 2      1033.177          32.000  
E27  25249927.627 9                      1949.830          29.000  
E30  22787703.230 9                       443.059          14.000  
G 1  20021099.643 4 105211583.307 1      2106.313          36.000  
> 2021  5 18  3  8 32.9990000  0 11                     
J 2  37650823.637 9                      1322.382          30.000  
G21  20183448.302 8                      -535.868          27.000  
G 7  19969545.226 8 104940667.59533      1115.947          30.000  
G30  22347761.404 4 117438304.820 2      2999.054          35.000  
G 8  21648278.666 9 113762472.21935     -2107.352          28.000  
J 3  38631546.901 9                      -635.428          28.000  
E15  22791257.473 2 119768863.109 1      1031.646          35.000  
G 9  23612515.798 9                     -2137.239          14.000  
E27  25249557.447 8 132687329.78114      1950.278          30.000  
E30  22787619.800 9                       443.059          13.000  
G 1  20020697.660 2 105209476.813 1      2105.519          38.000  
> 2021  5 18  3  8 33.9990000  0 11                     
J 2  37650572.502 9                      1321.536          26.000  
G21  20183549.880 9                      -539.793          25.000  
G 7  19969331.487 9                      1114.620          31.000  
G30  22347191.820 4 117435306.152 2      2998.857          35.000  
G 8  21648680.204 9                     -2108.467          26.000  
J 3  38631667.151 9                      -640.378          26.000  
E15  22791058.898 4 119767831.528 2      1031.245          36.000  
G 9  23612922.650 9                     -2137.239          13.000  
E27  25249188.148 9                      1949.491          26.000  
E30  22787536.528 9                       443.059          10.000  
G 1  20020298.407 4 105207371.439 2      2105.445          37.000  
> 2021  5 18  3  8 34.9990000  0 10                     
J 2  37650321.385 9 197853770.93735      1322.480          27.000  
G21  20183648.063 9                      -528.063          25.000  
G 7  19969121.674 8 104938429.34833      1115.815          32.000  
G30  22346620.666 4 117432307.399 1      2998.715          35.000  
G 8  21649082.379 9                     -2107.250          27.000  
J 3  38631786.746 9                      -634.530          27.000  
E15  22790864.285 4 119766799.937 1      1031.954          36.000  
G 9  23613327.914 9                     -2137.239          10.000  
E27  25248818.988 8 132683439.33213      1949.066          30.000  
G 1  20019898.466 2 105205266.284 1      2105.060          38.000  
> 2021  5 18  3  8 35.9990000  0 10                     
J 2  37650066.577 8 197852448.65924      1322.037          27.000  
G21  20183747.521 9                      -525.203          24.000  
G 7  19968907.228 8 104937314.71623      1114.743          32.000  
G30  22346052.530 4 117429308.746 1      2998.593          36.000  
G 8  21649492.581 8 113768851.12835     -2108.139          27.000  
J 3  38631903.645 9 203012044.43635      -635.767          27.000  
E15  22790664.384 4 119765768.640 1      1030.913          36.000  
G 9  23613736.302 9                     -2137.239          10.000  
E27  25248451.068 8 132681489.523 3      1950.116          31.000  
G 1  20019497.015 2 105203161.469 1      2104.551          38.000  
> 2021  5 18  3  8 36.9990000  0  9                     
J 2  37649814.979 8 197851126.24724      1322.610          27.000  
G21  20183850.189 9                      -539.759          23.000  
G 7  19968697.721 4 104936200.63222      1114.181          32.000  
G30  22345481.891 2 117426310.315 1      2998.191          36.000  
G 8  21649894.233 8 113770958.34624     -2106.918          27.000  
J 3  38632028.737 8 203012679.60023      -635.588          26.000  
E15  22790472.876 4 119764737.592 1      1031.077          36.000  
E27  25248077.703 8 132679539.593 3      1950.138          30.000  
G 1  20019096.672 2 105201057.157 1      2103.791          38.000  
> 2021  5 18  3  8 37.9990000  0  9                     
J 2  37649563.295 4 197849803.67523      1322.377          28.000  
G21  20183955.213 9                      -538.995          24.000  
G 7  19968482.839 4 104935087.02322      1113.354          33.000  
G30  22344911.705 2 117423312.104 1      2997.601          36.000  
G 8  21650294.410 4 113773065.60724     -2107.267          27.000  
J 3  38632149.771 8 203013314.57524      -635.209          27.000  
E15  22790275.506 4 119763706.939 1      1030.290          36.000  
E27  25247710.140 4 132677589.530 2      1949.651          31.000  
G 1  20018696.207 1 105198953.334 1      2103.543          39.000  
> 2021  5 18  3  8 38.9990000  0  9                     
J 2  37649311.802 9                      1321.353          27.000  
G21  20184058.650 9                      -554.004          23.000  
G 7  19968274.204 8 104933974.45424      1112.221          29.000  
G30  22344340.559 4 117420314.650 2      2996.857          34.000  
G 8  21650695.015 8 113775173.34925     -2107.372          26.000  
J 3  38632270.754 9                      -636.149          26.000  
E15  22790080.805 4 119762677.134 2      1029.478          31.000  
E27  25247336.409 8 132675639.784 3      1949.107          25.000  
G 1  20018295.969 2 105196850.544 1      2102.012          34.000  
> 2021  5 18  3  8 39.9990000  0 10                     
J 2  37649059.481 8 197847142.85035      1321.721          27.000  
G21  20184161.859 9                      -538.166          23.000  
G 7  19968059.488 8 104932863.03923      1109.948          33.000  
G30  22343770.661 4 117417317.985 1      2996.655          36.000  
G 8  21651095.061 4 113777281.65924     -2107.605          27.000  
J 3  38632392.853 9                      -636.338          27.000  
E15  22789884.699 2 119761648.263 1      1028.637          37.000  
G 9  23615355.533 9                     -2115.511          11.000  
E27  25246969.204 8 132673690.550 3      1948.212          31.000  
G 1  20017896.071 2 105194748.827 1      2101.039          39.000  
> 2021  5 18  3  8 40.9990000  0 10                     
J 2  37648805.746 8 197845821.20224      1321.199          28.000  
G21  20184266.700 9                      -547.461          23.000  
G 7  19967849.527 8 104931752.08823      1110.314          32.000  
G30  22343202.238 4 117414321.632 1      2995.732          36.000  
G 8  21651497.454 4 113779389.98424     -2108.148          27.000  
J 3  38632514.743 9 203015230.00835      -635.545          27.000  
E15  22789687.974 2 119760619.778 1      1028.123          36.000  
G 9  23615758.407 9                     -2115.511          11.000  
E27  25246597.244 8 132671741.083 3      1949.379          31.000  
G 1  20017496.304 2 105192647.681 1      2100.308          39.000  
> 2021  5 18  3  8 41.9990000  0 10                     
J 2  37648555.667 8 197844498.61924      1323.225          33.000  
G21  20184369.918 9                      -532.855          24.000  
G 7  19967633.511 4 104930641.02222      1110.923          35.000  
G30  22342632.165 2 117411324.805 1      2997.094          40.000  
G 8  21651898.399 4 113781497.47223     -2106.190          32.000  
J 3  38632634.521 8 203015864.94024      -634.406          28.000  
E15  22789492.366 2 119759590.957 1      1028.640          39.000  
G 9  23616161.620 9                     -2079.622          12.000  
E27  25246228.442 8 132669790.811 2      1951.524          34.000  
G 1  20017096.406 1 105190546.325 1      2101.266          42.000  
> 2021  5 18  3  8 42.9990000  0 10                     
G21  20184474.148 9                      -551.785          22.000  
G 7  19967425.408 9                      1111.642          26.000  
G30  22342061.133 8 117408328.258 3      2996.381          28.000  
G 8  21652294.842 9                     -2112.601          24.000  
J 3  38632754.727 9                      -637.100          25.000  
E15  22789293.887 8 119758562.530 3      1028.112          28.000  
G 9  23616565.025 9                     -2189.607          14.000  
E27  25245852.547 9                      1952.552          23.000  
E30  22786782.356 9                       411.809           9.000  
G 1  20016696.918 4 105188445.454 3      2100.759          27.000  
> 2021  5 18  3  8 43.9990000  0  9                     
G21  20184582.208 9                      -583.035          20.000  
G 7  19967216.128 9                      1093.191          25.000  
G30  22341491.122 9 117405327.27335      2995.837          29.000  
G 8  21652698.003 9                     -2097.433          22.000  
J 3  38632878.021 9                      -631.169          23.000  
E15  22789094.902 8 119757534.803 4      1026.922          28.000  
G 9  23616984.337 9                     -2207.430          14.000  
E27  25245484.766 9                      1958.571          23.000  
G 1  20016293.600 8 105186332.04134      2100.126          32.000  
> 2021  5 18  3  8 44.9990000  0 11                     
J 2  37647801.687 9                      1322.453          31.000  
G21  20184686.412 9                      -542.343          22.000  
G 7  19967001.071 9 104927298.31035      1109.677          34.000  
G30  22340917.943 8 117402331.11622      2996.425          38.000  
G16  24720778.543 9                     -1832.374          11.000  
G 8  21653101.688 9                     -2106.608          29.000  
J 3  38632999.152 9                      -634.052          26.000  
E15  22788903.168 8 119756506.955 2      1027.317          38.000  
G 9  23617410.951 9                     -2254.305          14.000  
E27  25245115.337 9 132663986.68114      1951.296          34.000  
G 1  20015897.288 4 105184232.16121      2100.209          42.000  
> 2021  5 18  3  8 45.9990000  0 10                     
J 2  37647548.754 9 197839203.97135      1323.383          30.000  
G21  20184789.753 9                      -541.612          22.000  
G 7  19966789.583 8 104926189.03522      1108.852          34.000  
G30  22340350.445 4 117399334.97021      2995.903          39.000  
G 8  21653497.877 9 113789923.90034     -2107.305          29.000  
J 3  38633119.777 9 203018414.83834      -634.636          30.000  
E15  22788706.713 4 119755479.201 1      1027.514          38.000  
G 9  23617832.269 9                     -2207.430          12.000  
E27  25244747.599 8 132662035.568 3      1951.097          33.000  
G 1  20015496.404 2 105182132.53821      2098.979          41.000  
> 2021  5 18  3  8 46.9990000  0 10                     
J 2  37647299.199 8 197837880.65925      1323.352          30.000  
G21  20184887.230 9                      -543.014          23.000  
G 7  19966578.863 4 104925080.34922      1108.145          34.000  
G30  22339782.335 2 117396339.07221      2995.728          39.000  
G 8  21653898.124 8 113792031.01124     -2107.490          29.000  
J 3  38633239.817 8 203019048.84823      -634.052          30.000  
E15  22788511.672 4 119754451.903 1      1026.665          38.000  
G 9  23618253.107 9                     -2207.430          12.000  
E27  25244373.065 8 132660084.381 2      1950.778          33.000  
G 1  20015099.080 2 105180033.48921      2098.303          41.000  
> 2021  5 18  3  8 47.9990000  0  9                     
J 2  37647049.547 8 197836558.10924      1321.688          31.000  
G21  20184989.418 9                      -550.523          22.000  
G 7  19966370.333 4 104923973.03022      1106.634          34.000  
G30  22339211.940 2 117393344.28221      2994.397          39.000  
G 8  21654299.235 8 113794138.89724     -2108.278          29.000  
J 3  38633357.745 8 203019683.56523      -634.643          29.000  
E15  22788321.308 4 119753425.752 1      1025.958          38.000  
E27  25244000.844 4 132658133.886 2      1950.306          34.000  
G 1  20014697.132 2 105177935.74121      2096.994          41.000  
> 2021  5 18  3  8 48.9990000  0  9                     
J 2  37646797.069 8 197835253.35835      1322.170          25.000  
G21  20185093.352 9                      -548.735          20.000  
G 7  19966157.755 8 104922866.10024      1107.660          31.000  
G30  22338638.421 4 117390336.63634      2994.329          34.000  
G 8  21654702.065 9                     -2106.446          21.000  
J 3  38633481.389 9                      -635.930          23.000  
E15  22788123.100 8 119752404.92314      1025.429          34.000  
E27  25243631.737 8 132656190.14215      1950.926          30.000  
G 1  20014297.531 4 105175838.45621      2097.008          37.000  
> 2021  5 18  3  8 49.9990000  0  9                     
J 2  37646544.302 8 197833930.44124      1323.479          26.000  
G21  20185195.322 9                      -549.648          20.000  
G 7  19965948.256 8 104921759.75523      1106.524          31.000  
G30  22338070.513 4 117387342.22422      2994.579          35.000  
G 8  21655101.474 9                     -2107.994          23.000  
J 3  38633603.959 9                      -633.784          25.000  
E15  22787927.326 4 119751379.399 2      1025.476          34.000  
E27  25243262.089 8 132654239.277 3      1951.473          30.000  
G 1  20013899.727 2 105173741.68121      2096.416          37.000  
> 2021  5 18  3  8 50.9990000  0  9                     
J 2  37646289.267 8 197832607.34824      1323.372          27.000  
G21  20185299.814 9                      -546.637          20.000  
G 7  19965739.255 8 104920653.91224      1104.158          32.000  
G30  22337499.847 4 117384347.99121      2993.444          36.000  
G 8  21655498.492 9                     -2102.102          26.000  
J 3  38633723.790 8                      -634.430          27.000  
E15  22787727.390 4 119750354.179 2      1024.405          35.000  
E27  25242891.533 8 132652288.216 3      1950.909          31.000  
G 1  20013501.897 4 105171645.33221      2095.610          38.000  
> 2021  5 18  3  8 51.9990000  0  9                     
J 2  37646040.532 8 197831284.38524      1323.234          27.000  
G21  20185403.808 9                      -553.619          20.000  
G 7  19965529.023 8 104919548.60723      1105.994          32.000  
G30  22336930.734 4 117381354.11321      2993.705          36.000  
G 8  21655897.649 9                     -2107.152          26.000  
J 3  38633844.816 8 203022222.28535      -634.059          27.000  
E15  22787537.584 4 119749329.441 2      1024.328          35.000  
E27  25242516.703 8 132650337.147 3      1950.962          31.000  
G 1  20013101.606 2 105169549.63221      2095.043          38.000  
> 2021  5 18  3  8 52.9990000  0  9                     
J 2  37645790.558 4 197829961.58124      1322.000          27.000  
G21  20185508.012 9                      -548.262          20.000  
G 7  19965317.884 8 104918444.19223      1104.788          31.000  
G30  22336362.485 4 117378360.67722      2993.816          36.000  
G 8  21656299.780 9                     -2107.441          25.000  
J 3  38633962.308 8 203022856.70124      -635.285          27.000  
E15  22787342.412 4 119748305.407 2      1023.625          35.000  
E27  25242142.710 4 132648386.083 2      1951.660          31.000  
G 1  20012703.785 2 105167454.81321      2094.255          38.000  
> 2021  5 18  3  8 53.9990000  0  9                     
J 2  37645537.355 9                      1320.872          27.000  
G21  20185611.806 9                      -551.682          29.000  
G 7  19965109.162 8 104917340.05524      1105.356          31.000  
G30  22335792.456 4 117375365.58122      2999.263          34.000  
G 8  21656702.950 9                     -2112.429          24.000  
J 3  38634081.240 9                      -633.606          27.000  
E15  22787144.256 4 119747282.972 2      1021.111          34.000  
E27  25241769.205 9                      1957.630          31.000  
G 1  20012304.655 4 105165362.48722      2090.474          37.000  
> 2021  5 18  3  8 54.9990000  0 10                     
J 2  37645286.150 9                      1322.167          32.000  
G21  20185718.340 9 106076665.15835      -549.394          31.000  
G 7  19964895.982 8 104916234.482 4      1106.859          30.000  
G30  22335218.466 4 117372363.96422      3003.271          37.000  
G 8  21657101.496 9                     -2093.104          22.000  
J 3  38634202.327 8 203024098.15335      -630.841          34.000  
E15  22786953.900 4 119746262.618 2      1019.493          35.000  
E27  25241392.176 8 132644441.90614      1963.606          33.000  
E30  22785710.502 9 119739727.22215       456.340          38.000  
G 1  20011908.718 4 105163273.80712      2086.154          39.000  
> 2021  5 18  3  8 55.9990000  0 10                     
J 2  37645035.164 9                      1322.331          31.000  
G21  20185827.753 9                      -550.517          31.000  
G 7  19964685.532 4 104915128.173 2      1106.582          35.000  
G30  22334645.375 4 117369357.73322      3007.043          37.000  
G 8  21657500.687 9                     -2117.466          21.000  
J 3  38634321.442 4 203024728.02423      -628.430          35.000  
E15  22786759.182 4 119745244.256 1      1017.078          35.000  
E27  25241022.266 8 132642475.701 4      1967.558          29.000  
E30  22785624.534 9 119739269.925 3       457.820          38.000  
G 1  20011512.232 4 105161189.052 2      2082.719          37.000  
> 2021  5 18  3  8 56.9990000  0 10                     
J 2  37644779.239 8 197824672.10733      1321.750          36.000  
G21  20185928.711 8 106077770.68634      -550.588          35.000  
G 7  19964473.870 4 104914022.218 2      1105.997          36.000  
G30  22334077.650 9                      3008.789          31.000  
G 8  21657902.426 9                     -2101.260          19.000  
J 3  38634441.936 9                      -654.835          29.000  
E15  22786565.066 4 119744228.656 2      1013.804          35.000  
E27  25240644.024 9                      1973.082          28.000  
E30  22785538.330 9                       442.591          27.000  
G 1  20011115.989 4 105159108.451 2      2078.681          37.000  
> 2021  5 18  3  8 57.9990000  0 10                     
J 2  37644527.467 9                      1326.737          27.000  
G21  20186036.353 8 106078323.31224      -553.170          30.000  
G 7  19964263.385 8 104912912.11335      1105.781          35.000  
G30  22333503.415 9                      3000.184          24.000  
G 8  21658303.536 9                     -2117.610          17.000  
J 3  38634560.397 9                      -634.902          25.000  
E15  22786373.358 8 119743214.685 3      1012.484          31.000  
E27  25240272.378 9                      1987.878          25.000  
E30  22785459.359 9                       453.597          24.000  
G 1  20010721.754 4 105157030.671 2      2076.620          37.000  
> 2021  5 18  3  8 58.9990000  0 10                     
J 2  37644272.310 9                      1318.078          24.000  
G21  20186139.998 9                      -553.349          23.000  
G 7  19964049.585 8 104911805.37223      1104.342          34.000  
G30  22332938.229 9                      2994.380          22.000  
G 8  21658706.724 9                     -2129.417          15.000  
J 3  38634673.989 9                      -628.242          25.000  
E15  22786180.349 8 119742201.325 3      1012.909          31.000  
E27  25239900.304 9                      1975.038          23.000  
E30  22785374.542 9                       465.432          21.000  
G 1  20010321.621 4 105154954.336 2      2075.630          35.000  
> 2021  5 18  3  8 59.9990000  0 10                     
J 2  37644024.727 9                      1324.764          23.000  
G21  20186243.303 9 106079423.84735      -552.853          26.000  
G 7  19963840.802 8 104910698.87423      1106.754          33.000  
G30  22332370.582 9                      3016.731          20.000  
G 8  21659111.002 9                     -2129.417          14.000  
J 3  38634792.624 9                      -601.409          22.000  
E15  22785983.624 8 119741189.084 3      1011.384          32.000  
E27  25239520.779 9                      1984.506          22.000  
E30  22785286.418 9                       466.583          21.000  
G 1  20009927.996 4 105152879.825 2      2073.343          34.000  
> 2021  5 18  3  9  0.9990000  0 10                     
J 2  37643770.206 9                      1324.884          20.000  
G21  20186344.820 9                      -553.456          25.000  
G 7  19963629.392 8 104909592.86323      1105.068          33.000  
G30  22331793.704 9                      3020.023          29.000  
G 8  21659515.550 9                     -2129.417          10.000  
J 3  38634911.827 9                      -632.800          22.000  
E15  22785791.410 8 119740178.214 2      1010.542          33.000  
E27  25239136.168 9                      1983.724          30.000  
E30  22785196.079 9                       464.316          21.000  
G 1  20009534.773 4 105150807.400 1      2071.496          35.000  
> 2021  5 18  3  9  1.9990000  0 10                     
J 2  37643522.431 9                      1331.105          21.000  
G21  20186448.719 9                      -545.623          25.000  
G 7  19963418.925 8 104908486.20123      1107.310          33.000  
G30  22331205.100 9 117351274.32235      3021.280          36.000  
G 8  21659921.669 9                     -2129.417          11.000  
J 3  38635030.087 9                      -617.082          22.000  
E15  22785602.843 4 119739167.942 2      1011.569          33.000  
E27  25238759.496 9                      1985.821          30.000  
E30  22785108.016 9                       449.092          22.000  
G 1  20009137.999 4 105148736.451 2      2070.971          35.000  
> 2021  5 18  3  9  2.9990000  0 11                     
J 2  37643271.654 9                      1315.212          19.000  
G21  20186558.777 9                      -546.341          24.000  
G 7  19963210.203 4 104907379.33022      1106.116          35.000  
G30  22330629.557 8 117348252.41622      3023.270          38.000  
G 8  21660329.306 9                     -2143.603          14.000  
J 3  38635147.675 9                      -618.111          21.000  
G 9  23624672.519 9                     -2127.169          11.000  
E15  22785409.294 4 119738158.282 2      1009.579          34.000  
E27  25238387.257 8 132628594.68514      1986.881          30.000  
E30  22785022.458 9                       449.092          19.000  
G 1  20008746.381 4 105146666.717 2      2068.409          36.000  
> 2021  5 18  3  9  3.9990000  0 11                     
J 2  37643017.125 9                      1339.194          20.000  
G21  20186665.826 9                      -552.058          25.000  
G 7  19962999.902 4 104906272.83322      1106.663          36.000  
G30  22330052.705 4 117345229.36122      3023.848          38.000  
G 8  21660737.388 9                     -2145.199          14.000  
J 3  38635270.036 9 203029714.09535      -623.297          36.000  
G 9  23625077.093 9                     -2127.169          13.000  
E15  22785220.588 4 119737149.920 2      1008.019          36.000  
E27  25238008.840 8 132626606.446 3      1989.337          32.000  
E30  22784922.712 9                       464.218          36.000  
G 1  20008352.826 4 105144598.929 2      2067.104          37.000  
> 2021  5 18  3  9  4.9990000  0 11                     
J 2  37642764.978 9 197814064.77534      1322.373          36.000  
G21  20186771.042 9 106082196.87434      -556.527          35.000  
G 7  19962788.641 4 104905167.03222      1105.767          35.000  
G30  22329476.359 4 117342205.90522      3023.317          36.000  
G 8  21661145.959 9                     -2145.199          13.000  
J 3  38635391.542 8 203030337.53622      -622.058          36.000  
G 9  23625482.322 9                     -2102.877          12.000  
E15  22785028.565 2 119736142.548 1      1006.735          35.000  
E27  25237628.164 8 132624617.536 2      1988.811          32.000  
E30  22784829.947 9 119735122.74213       463.384          36.000  
G 1  20007960.266 2 105142532.585 1      2065.120          38.000  
> 2021  5 18  3  9  5.9990000  0 11                     
J 2  37642512.124 8 197812742.06223      1323.243          33.000  
G21  20186875.961 8 106082753.93523      -557.490          33.000  
G 7  19962577.048 8 104904061.94923      1104.283          32.000  
G30  22328901.365 4 117339182.72722      3022.896          36.000  
G 8  21661556.318 9                     -2145.199          10.000  
J 3  38635518.972 8 203030962.31124      -627.656          21.000  
G 9  23625886.277 9                     -2149.752          13.000  
E15  22784835.880 2 119735135.843 2      1006.620          34.000  
E27  25237249.791 8 132622628.423 4      1988.185          31.000  
E30  22784739.764 9                       467.416          21.000  
G 1  20007566.921 2 105140467.095 1      2065.195          35.000  
> 2021  5 18  3  9  6.9990000  0 10                     
J 2  37642260.911 9                      1314.423          21.000  
G21  20186981.648 9                      -552.307          20.000  
G 7  19962368.989 8 104902957.938 3      1102.712          36.000  
G30  22328327.820 4 117336160.61722      3021.334          35.000  
J 3  38635634.850 9                      -601.937          17.000  
G 9  23626296.951 9                     -2149.752          10.000  
E15  22784644.687 2 119734129.766 1      1005.363          33.000  
E27  25236873.285 8 132620640.054 3      1986.838          31.000  
E30  22784647.147 9                       467.416          16.000  
G 1  20007173.985 2 105138402.306 1      2064.009          35.000  
> 2021  5 18  3  9  7.9990000  0  9                     
J 2  37642011.015 9                      1314.423          17.000  
G21  20187087.187 9                      -552.307          16.000  
G 7  19962158.679 4 104901854.583 2      1102.223          38.000  
G30  22327753.237 4 117333138.96021      3021.928          38.000  
J 3  38635749.420 9                      -601.937          14.000  
E15  22784453.397 2 119733124.175 1      1004.860          36.000  
E27  25236497.416 4 132618651.847 2      1987.929          34.000  
E30  22784557.165 9                       467.416          10.000  
G 1  20006781.094 2 105136338.191 1      2063.490          38.000  
> 2021  5 18  3  9  8.9990000  0  7                     
G 7  19961949.277 8 104900751.989 3      1100.747          38.000  
G30  22327179.160 2 117330117.61721      3021.011          37.000  
G 8  21662742.819 9                     -2074.450          29.000  
J 3  38635868.962 9                      -623.957          37.000  
E15  22784262.230 2 119732119.285 1      1004.748          35.000  
E27  25236118.868 4 132616663.606 2      1988.890          34.000  
G 1  20006388.778 2 105134274.964 1      2063.502          38.000  
> 2021  5 18  3  9  9.9990000  0 10                     
J 2  37641505.936 9                      1320.805          35.000  
G21  20187303.404 9                      -560.726          36.000  
G 7  19961739.996 4 104899650.117 2      1102.029          37.000  
G30  22326604.341 2 117327097.14821      3019.971          37.000  
G 8  21663041.410 9 113840050.85234     -2081.050          36.000  
J 3  38635987.563 9 203033484.62033      -624.445          37.000  
E15  22784071.063 2 119731114.642 1      1004.926          35.000  
E27  25235740.643 4 132614676.037 2      1987.184          34.000  
E30  22784385.307 9                       467.416          14.000  
G 1  20005996.497 2 105132211.978 1      2063.659          40.000  
> 2021  5 18  3  9 10.9990000  0 10                     
J 2  37641255.752 8 197806127.31233      1321.940          36.000  
G21  20187409.519 8 106085556.18033      -560.593          35.000  
G 7  19961530.890 4 104898549.012 1      1100.807          37.000  
G30  22326029.749 2 117324077.64921      3018.486          37.000  
G 8  21663422.776 8 113842132.39822     -2081.391          37.000  
J 3  38636108.938 8 203034109.96222      -624.438          37.000  
E15  22783879.922 2 119730110.170 1      1004.670          36.000  
E27  25235361.276 4 132612689.050 2      1985.824          29.000  
E30  22784297.759 9                       460.625          17.000  
G 1  20005604.146 2 105130149.052 1      2063.671          39.000  
> 2021  5 18  3  9 11.9990000  0 10                     
J 2  37641005.752 4 197804806.00322      1321.096          36.000  
G21  20187515.965 8 106086118.27522      -562.405          35.000  
G 7  19961322.037 2 104897449.449 1      1098.052          37.000  
G30  22325455.288 2 117321060.53521      3015.109          39.000  
G 8  21663818.442 4 113844215.46221     -2084.355          37.000  
J 3  38636224.720 4 203034735.91622      -627.484          37.000  
E15  22783689.060 2 119729106.024 1      1003.395          36.000  
E27  25234983.426 9                      1984.146          21.000  
E30  22784214.399 9                       459.265          34.000  
G 1  20005211.542 2 105128086.214 1      2063.022          39.000  
> 2021  5 18  3  9 12.9990000  0 10                     
J 2  37640755.550 4 197803485.39322      1320.990          36.000  
G21  20187623.406 4 106086681.57322      -563.803          37.000  
G 7  19961113.917 2 104896351.905 1      1097.421          38.000  
G30  22324881.795 2 117318046.921 1      3012.443          38.000  
G 8  21664217.729 4 113846301.26321     -2088.047          38.000  
J 3  38636344.734 4 203035363.10321      -627.295          38.000  
E15  22783498.216 2 119728102.280 1      1004.163          36.000  
E27  25234606.222 9                      1978.445          20.000  
E30  22784130.254 9 119731406.40912       457.494          39.000  
G 1  20004818.991 2 105126023.259 1      2063.206          40.000  
> 2021  5 18  3  9 13.9990000  0 10                     
J 2  37640501.885 4 197802164.51321      1320.823          33.000  
G21  20187730.664 4 106087245.11022      -563.816          35.000  
G 7  19960905.160 2 104895255.734 1      1095.645          38.000  
G30  22324308.835 1 117315036.675 1      3008.073          40.000  
G 8  21664613.570 4 113848389.52021     -2089.264          38.000  
J 3  38636465.542 4 203035990.99321      -627.954          38.000  
E15  22783307.241 1 119727097.852 1      1004.849          36.000  
E27  25234230.833 9                      1980.973          20.000  
E30  22784041.555 8 119730949.260 1       456.166          38.000  
G 1  20004426.475 2 105123958.833 1      2064.783          40.000  
> 2021  5 18  3  9 14.9990000  0 10                     
J 2  37640253.665 8 197800843.20724      1323.871          30.000  
G21  20187836.683 4 106087808.68622      -563.223          32.000  
G 7  19960696.761 2 104894160.753 1      1093.988          35.000  
G30  22323736.520 2 117312030.311 1      3004.022          36.000  
G 8  21665011.295 4 113850481.10022     -2093.701          35.000  
J 3  38636585.992 4 203036619.57122      -628.040          34.000  
E15  22783116.065 2 119726092.020 1      1006.748          33.000  
E27  25233854.973 9                      1971.928          20.000  
E30  22783957.488 4 119730493.517 1       454.633          36.000  
G 1  20004033.059 2 105121892.015 1      2068.223          37.000  
> 2021  5 18  3  9 15.9990000  0  9                     
J 2  37639999.572 9                      1330.052          22.000  
G21  20187944.673 4 106088372.49722      -564.376          33.000  
G 7  19960488.694 2 104893067.518 2      1092.336          35.000  
G30  22323165.147 2 117309028.885 1      2999.154          36.000  
J 3  38636704.784 4 203037249.36622      -630.988          34.000  
E15  22782924.436 2 119725084.964 1      1007.119          33.000  
E27  25233479.793 9                      1964.191          20.000  
E30  22783874.164 4 119730039.574 2       452.802          35.000  
G 1  20003639.068 2 105119822.716 1      2070.471          36.000  
> 2021  5 18  3  9 16.9990000  0 10                     
J 2  37639747.373 9                      1320.072          31.000  
G21  20188052.228 4 106088936.94322      -564.108          33.000  
G 7  19960280.748 2 104891976.336 1      1090.774          35.000  
G30  22322594.822 2 117306032.428 1      2993.752          36.000  
G 8  21665813.116 9                     -2102.244          38.000  
J 3  38636823.411 4 203037880.48222      -631.830          35.000  
E15  22782732.841 2 119724077.227 1      1007.905          34.000  
E27  25233105.547 9                      1962.934          25.000  
E30  22783787.043 4 119729587.693 2       450.337          36.000  
G 1  20003245.060 2 105117751.672 1      2071.928          37.000  
> 2021  5 18  3  9 17.9990000  0 11                     
J 2  37639497.791 9                      1323.896          24.000  
G21  20188159.730 4 106089501.29122      -564.338          34.000  
G 7  19960073.396 4 104890886.076 2      1089.805          35.000  
G30  22322025.325 8                      2990.930          31.000  
G 8  21666210.553 9 113856717.47733     -2103.643          36.000  
J 3  38636945.056 4 203038512.05622      -633.173          35.000  
G 9  23630690.462 9                     -2123.986          22.000  
E15  22782540.854 2 119723068.145 2      1009.269          34.000  
E27  25232731.868 9                      1959.601          26.000  
E30  22783701.223 4 119729136.740 1       449.890          35.000  
G 1  20002850.598 2 105115678.390 1      2073.459          37.000  
> 2021  5 18  3  9 18.9990000  0 11                     
J 2  37639241.299 9                      1325.265          26.000  
G21  20188267.284 4 106090066.642 2      -564.987          34.000  
G 7  19959866.227 2 104889797.853 2      1086.490          36.000  
G30  22321456.047 8 117300045.07135      2987.594          29.000  
G 8  21666614.630 8 113858822.76022     -2105.760          35.000  
J 3  38637064.695 4 203039144.956 2      -633.716          35.000  
G 9  23631098.614 9                     -2123.986          23.000  
E15  22782348.421 2 119722059.016 2      1009.116          34.000  
E27  25232359.908 8 132596952.96514      1956.519          32.000  
E30  22783616.066 2 119728687.759 1       448.703          36.000  
G 1  20002455.647 2 105113604.367 1      2073.708          37.000  
> 2021  5 18  3  9 19.9990000  0 12                     
J 2  37638991.552 9                      1324.735          26.000  
G21  20188374.952 4 106090632.249 2      -566.189          33.000  
G 7  19959659.206 4 104888710.231 2      1087.518          35.000  
G30  22320889.473 4 117297057.92124      2986.226          28.000  
G 8  21667020.679 4 113860929.69022     -2107.110          35.000  
J 3  38637184.534 4 203039778.146 1      -633.752          35.000  
G 9  23631499.681 9                     -2123.986          20.000  
E13  25906253.917 9                      2934.319          21.000  
E15  22782156.425 2 119721049.255 2      1010.066          33.000  
E27  25231985.296 8 132594997.388 2      1954.622          33.000  
E30  22783530.647 2 119728239.561 1       447.499          36.000  
G 1  20002060.923 2 105111529.136 1      2076.122          37.000  
> 2021  5 18  3  9 20.9990000  0 11                     
J 2  37638742.633 9 197792927.17735      1323.396          30.000  
G21  20188482.777 4 106091197.756 2      -565.495          34.000  
G 7  19959452.028 4 104887623.302 2      1086.404          35.000  
G30  22320323.083 4 117294072.71023      2984.387          28.000  
G 8  21667411.067 4 113863037.95321     -2109.158          35.000  
J 3  38637306.581 4 203040411.353 2      -633.350          34.000  
E13  25905701.871 9                      2938.922          28.000  
E15  22781963.993 2 119720038.537 2      1010.855          34.000  
E27  25231615.656 4 132593043.560 2      1953.001          34.000  
E30  22783445.455 2 119727791.683 1       447.318          36.000  
G 1  20001665.571 2 105109452.644 1      2076.851          37.000  
> 2021  5 18  3  9 21.9990000  0 11                     
J 2  37638492.589 9 197791604.36124      1323.117          30.000  
G21  20188590.532 4 106091763.704 2      -566.372          33.000  
G 7  19959245.374 2 104886537.302 2      1085.219          35.000  
G30  22319756.937 4 117291089.24623      2983.230          28.000  
G 8  21667812.326 4 113865147.49621     -2110.201          35.000  
J 3  38637427.808 2 203041044.837 1      -633.539          35.000  
E13  25905139.520 9                      2940.269          27.000  
E15  22781771.630 2 119719027.723 1      1010.503          34.000  
E27  25231244.464 4 132591091.301 2      1952.122          34.000  
E30  22783360.281 2 119727344.475 1       446.775          35.000  
G 1  20001270.472 2 105107375.640 1      2076.863          37.000  
> 2021  5 18  3  9 22.9990000  0 11                     
J 2  37638241.663 8 197790282.03723      1322.299          30.000  
G21  20188698.505 4 106092330.797 2      -567.870          33.000  
G 7  19959038.851 2 104885452.463 1      1083.979          35.000  
G30  22319189.255 4 117288106.83823      2981.848          28.000  
G 8  21668216.403 4 113867257.85021     -2110.779          36.000  
J 3  38637548.886 2 203041678.855 1      -634.442          36.000  
E13  25904568.479 9                      2937.999          26.000  
E15  22781579.329 2 119718017.741 1      1008.795          34.000  
E27  25230870.576 4 132589139.753 2      1951.177          34.000  
E30  22783275.159 1 119726897.994 1       446.209          35.000  
G 1  20000875.530 2 105105299.575 1      2075.664          37.000  
> 2021  5 18  3  9 23.9990000  0 11                     
J 2  37637992.029 8 197788959.96223      1321.575          30.000  
G21  20188806.479 4 106092898.739 2      -568.270          33.000  
G 7  19958832.563 4 104884368.427 2      1084.361          34.000  
G30  22318622.193 4 117285125.02323      2981.324          28.000  
G 8  21668618.107 2 113869368.50021     -2110.395          36.000  
J 3  38637669.476 2 203042313.094 1      -633.838          36.000  
E13  25904009.828 9                      2937.613          27.000  
E15  22781387.115 2 119717008.397 1      1009.504          34.000  
E27  25230502.847 4 132587188.403 1      1951.582          34.000  
E30  22783190.019 2 119726451.971 1       446.106          35.000  
G 1  20000480.605 1 105103224.371 1      2075.216          37.000  
> 2021  5 18  3  9 24.9990000  0 11                     
J 2  37637742.831 8 197787637.85123      1322.286          31.000  
G21  20188914.749 4 106093467.324 2      -568.915          34.000  
G 7  19958626.249 4 104883285.087 2      1082.782          35.000  
G30  22318053.045 4 117282143.50823      2981.570          29.000  
G 8  21669021.137 2 113871479.18121     -2110.464          37.000  
J 3  38637790.205 2 203042947.275 1      -633.606          37.000  
E13  25903441.291 9                      2939.034          27.000  
E15  22781195.381 2 119715999.549 1      1008.841          35.000  
E27  25230129.456 4 132585237.010 1      1951.481          35.000  
E30  22783105.141 2 119726006.046 1       445.976          36.000  
G 1  20000085.951 2 105101149.778 1      2074.195          38.000  
> 2021  5 18  3  9 25.9990000  0 11                     
J 2  37637488.433 8 197786315.61423      1323.040          30.000  
G21  20189023.158 4 106094036.422 2      -568.870          34.000  
G 7  19958420.066 4 104882202.244 2      1082.970          35.000  
G30  22317486.140 2 117279162.29623      2981.480          29.000  
G 8  21669423.182 2 113873589.85421     -2110.424          38.000  
J 3  38637910.891 2 203043581.395 1      -633.582          37.000  
E13  25902883.678 9                      2939.289          27.000  
E15  22781003.638 2 119714991.069 1      1008.563          35.000  
E27  25229757.967 2 132583285.487 1      1951.944          35.000  
E30  22783020.211 2 119725560.194 1       446.108          35.000  
G 1  19999690.974 2 105099075.679 1      2074.475          37.000  
> 2021  5 18  3  9 26.9990000  0 11                     
J 2  37637233.512 8 197784993.10123      1322.641          30.000  
G21  20189131.725 4 106094605.890 2      -569.690          34.000  
G 7  19958213.962 2 104881119.781 1      1081.716          35.000  
G30  22316917.812 2 117276181.10423      2980.974          29.000  
G 8  21669824.982 1 113875700.26621     -2110.435          38.000  
J 3  38638031.646 2 203044215.115 1      -633.435          37.000  
E13  25902327.941 9                      2938.287          27.000  
E15  22780811.895 2 119713982.714 1      1008.550          35.000  
E27  25229386.949 2 132581333.608 1      1952.106          35.000  
E30  22782935.386 2 119725114.194 1       446.117          36.000  
G 1  19999296.442 2 105097001.932 1      2073.202          38.000  
> 2021  5 18  3  9 27.9990000  0 11                     
J 2  37636981.827 8 197783670.28624      1323.326          30.000  
G21  20189240.151 4 106095175.709 2      -569.608          34.000  
G 7  19958007.979 2 104880037.618 2      1082.304          35.000  
G30  22316350.349 2 117273199.91523      2981.997          29.000  
G 8  21670226.590 2 113877810.48521     -2109.899          38.000  
J 3  38638152.140 2 203044848.577 1      -632.904          37.000  
E13  25901765.102 9                      2939.173          27.000  
E15  22780619.925 2 119712974.571 2      1008.405          35.000  
E27  25229015.356 2 132579381.452 1      1952.650          35.000  
E30  22782849.993 2 119724668.099 1       446.440          35.000  
G 1  19998901.884 2 105094928.468 1      2073.378          37.000  
> 2021  5 18  3  9 28.9990000  0 12                     
J 2  37636730.675 8 197782346.57324      1323.965          30.000  
G21  20189348.639 4 106095745.287 2      -570.640          34.000  
G 7  19957801.831 4 104878955.216 2      1082.457          35.000  
G30  22315783.330 4 117270218.31923      2981.516          29.000  
G 8  21670628.215 2 113879919.82921     -2108.777          38.000  
J 3  38638272.268 2 203045481.097 1      -632.129          37.000  
G 9  23635183.788 9                     -2121.214          25.000  
E13  25901206.904 8 136111765.45115      2939.615          27.000  
E15  22780427.833 2 119711965.958 1      1008.689          35.000  
E27  25228643.614 2 132577428.327 1      1953.612          35.000  
E30  22782764.949 2 119724221.245 1       446.823          35.000  
G 1  19998507.579 2 105092854.768 1      2073.777          37.000  
> 2021  5 18  3  9 29.9990000  0 12                     
J 2  37636476.469 8 197781022.88124      1323.765          30.000  
G21  20189457.267 4 106096315.416 2      -571.534          34.000  
G 7  19957595.447 4 104877873.410 2      1080.780          35.000  
G30  22315215.814 4 117267236.91223      2980.844          29.000  
G 8  21671029.736 2 113882029.25121     -2109.976          38.000  
J 3  38638392.561 2 203046113.566 1      -633.215          37.000  
G 9  23635590.169 9                     -2123.165          26.000  
E13  25900648.070 8                      2940.622          27.000  
E15  22780235.793 2 119710957.769 2      1007.337          34.000  
E27  25228272.037 2 132575475.157 2      1952.349          35.000  
E30  22782679.792 2 119723774.508 1       446.078          35.000  
G 1  19998113.143 2 105090781.625 1      2072.339          37.000  
> 2021  5 18  3  9 30.9990000  0 12                     
J 2  37636227.280 8 197779699.868 3      1321.698          30.000  
G21  20189566.087 4 106096886.858 2      -571.414          34.000  
G 7  19957390.224 4 104876792.903 2      1080.622          35.000  
G30  22314647.443 4 117264256.588 3      2980.997          29.000  
G 8  21671431.431 2 113884139.36021     -2109.794          38.000  
J 3  38638513.028 2 203046746.629 1      -632.434          37.000  
G 9  23635996.148 9                     -2122.875          26.000  
E13  25900090.972 8                      2938.998          27.000  
E15  22780044.094 2 119709950.722 1      1006.776          35.000  
E27  25227900.435 2 132573522.602 2      1952.555          35.000  
E30  22782594.888 2 119723328.623 1       445.950          35.000  
G 1  19997718.663 2 105088709.752 1      2072.042          38.000  
> 2021  5 18  3  9 31.9990000  0 12                     
J 2  37635974.915 8                      1323.755          30.000  
G21  20189675.072 4 106097458.925 2      -572.605          34.000  
G 7  19957186.493 4 104875712.984 1      1079.339          35.000  
G30  22314081.079 8 117261276.525 3      2979.591          29.000  
G 8  21671833.240 2 113886249.49321     -2110.401          38.000  
J 3  38638633.670 2 203047379.654 1      -632.959          37.000  
G 9  23636402.163 9                     -2125.678          25.000  
E13  25899533.926 8 136102968.79315      2938.577          27.000  
E15  22779852.508 2 119708944.043 1      1006.345          35.000  
E27  25227528.841 2 132571569.919 1      1953.081          35.000  
E30  22782509.810 2 119722882.834 1       445.529          36.000  
G 1  19997324.576 2 105086638.496 1      2070.537          37.000  
> 2021  5 18  3  9 32.9990000  0 12                     
J 2  37635722.943 8 197777059.54934      1323.309          30.000  
G21  20189784.214 4 106098031.635 2      -572.594          34.000  
G 7  19956981.558 4 104874633.692 1      1079.889          35.000  
G30  22313512.996 4 117258296.857 3      2979.756          29.000  
G 8  21672235.022 1 113888359.71221     -2109.821          38.000  
J 3  38638754.173 2 203048012.695 1      -632.428          37.000  
G 9  23636807.723 9                     -2123.405          24.000  
E13  25898976.575 4 136100030.886 3      2938.185          27.000  
E15  22779661.114 2 119707937.875 1      1006.497          35.000  
E27  25227157.291 2 132569617.292 1      1953.039          35.000  
E30  22782424.923 2 119722437.247 1       446.030          36.000  
G 1  19996930.559 2 105084567.840 1      2070.740          37.000  
> 2021  5 18  3  9 33.9990000  0 12                     
J 2  37635470.892 8 197775736.12223      1323.510          30.000  
G21  20189893.261 4 106098604.646 2      -573.007          34.000  
G 7  19956775.217 4 104873554.785 1      1078.814          36.000  
G30  22312946.483 4 117255317.234 3      2979.271          29.000  
G 8  21672636.578 1 113890469.66321     -2109.812          38.000  
J 3  38638874.736 2 203048645.377 1      -632.642          37.000  
G 9  23637213.013 9                     -2123.166          25.000  
E13  25898420.183 4 136097092.835 3      2937.317          28.000  
E15  22779469.694 2 119706931.853 1      1005.686          35.000  
E27  25226785.960 2 132567664.299 1      1953.073          35.000  
E30  22782340.351 2 119721991.491 1       445.886          36.000  
G 1  19996536.472 2 105082497.506 1      2070.118          37.000  
> 2021  5 18  3  9 34.9990000  0 12                     
J 2  37635219.067 8 197774412.98923      1323.684          30.000  
G21  20190002.525 4 106099178.629 2      -573.989          34.000  
G 7  19956569.994 2 104872476.752 1      1078.083          36.000  
G30  22312380.939 4 117252338.191 3      2979.992          29.000  
G 8  21673038.012 2 113892579.98921     -2109.807          38.000  
J 3  38638995.082 2 203049278.285 1      -631.635          37.000  
G 9  23637617.596 9                     -2124.034          24.000  
E13  25897865.188 8                      2938.414          28.000  
E15  22779278.308 2 119705926.571 1      1005.631          35.000  
E27  25226414.357 2 132565711.519 1      1953.667          35.000  
E30  22782255.490 2 119721546.177 1       446.013          36.000  
G 1  19996142.568 2 105080428.066 1      2069.700          38.000  
> 2021  5 18  3  9 35.9990000  0 11                     
J 2  37634967.418 8 197773089.11623      1324.668          30.000  
G21  20190111.895 2 106099752.469 2      -573.996          34.000  
G 7  19956365.792 2 104871398.612 1      1078.386          36.000  
G30  22311812.193 4 117249358.817 3      2979.838          29.000  
G 8  21673439.419 2 113894689.62321     -2109.509          38.000  
J 3  38639115.506 2 203049910.477 1      -632.141          37.000  
E13  25897307.348 8 136091272.06214      2938.147          28.000  
E15  22779087.159 2 119704920.995 1      1005.618          35.000  
E27  25226042.702 2 132563758.007 1      1953.788          35.000  
E30  22782170.560 2 119721100.290 1       446.143          36.000  
G 1  19995748.891 2 105078358.505 1      2069.745          38.000  
> 2021  5 18  3  9 36.9990000  0 11                     
J 2  37634714.102 8 197771764.92024      1324.956          30.000  
G21  20190221.019 4 106100326.627 2      -574.431          34.000  
G 7  19956161.153 2 104870320.817 1      1077.284          36.000  
G30  22311243.194 4 117246379.487 3      2978.894          29.000  
G 8  21673840.538 2 113896799.042 1     -2109.851          38.000  
J 3  38639235.755 1 203050542.300 1      -631.958          37.000  
E13  25896749.909 4 136088333.813 4      2937.541          28.000  
E15  22778895.747 2 119703915.612 1      1004.761          35.000  
E27  25225671.187 2 132561804.113 1      1954.064          35.000  
E30  22782085.813 2 119720654.275 1       445.970          36.000  
G 1  19995355.023 2 105076289.278 1      2068.782          38.000  
> 2021  5 18  3  9 37.9990000  0 11                     
J 2  37634461.231 8 197770440.76423      1324.281          30.000  
G21  20190330.555 4 106100901.491 2      -575.270          34.000  
G 7  19955956.183 2 104869243.647 1      1076.718          36.000  
G30  22310675.904 4 117243400.460 3      2978.414          29.000  
G 8  21674241.771 2 113898908.472 1     -2109.443          37.000  
J 3  38639355.769 2 203051174.118 1      -631.628          37.000  
E13  25896191.755 4 136085395.656 3      2938.013          29.000  
E15  22778704.598 2 119702910.623 1      1005.163          35.000  
E27  25225299.437 2 132559850.219 1      1953.636          35.000  
E30  22782001.258 1 119720208.415 1       445.683          36.000  
G 1  19994961.398 2 105074220.651 1      2068.410          38.000  
> 2021  5 18  3  9 38.9990000  0 11                     
J 2  37634214.982 8 197769116.69524      1324.114          31.000  
G21  20190440.063 4 106101477.048 2      -576.257          34.000  
G 7  19955751.343 2 104868167.223 1      1076.104          36.000  
G30  22310111.163 4 117240421.846 3      2978.671          29.000  
G 8  21674642.699 2 113901018.055 1     -2109.806          37.000  
J 3  38639476.062 2 203051805.983 1      -632.263          37.000  
E13  25895634.457 4 136082457.829 3      2937.580          29.000  
E15  22778513.404 2 119701906.233 1      1004.022          35.000  
E27  25224927.398 1 132557896.346 1      1953.949          36.000  
E30  22781916.223 1 119719762.773 1       445.597          36.000  
G 1  19994567.800 2 105072152.716 1      2067.303          38.000  
> 2021  5 18  3  9 39.9990000  0 11                     
J 2  37633958.263 8 197767792.67823      1324.495          30.000  
G21  20190549.747 4 106102053.340 2      -576.100          34.000  
G 7  19955546.548 2 104867091.514 2      1075.335          36.000  
G30  22309545.523 4 117237443.713 3      2978.181          29.000  
G 8  21675043.818 2 113903127.847 1     -2110.221          36.000  
J 3  38639596.163 2 203052437.937 1      -631.915          37.000  
E13  25895075.875 4 136079520.304 3      2937.508          29.000  
E15  22778322.272 2 119700902.359 2      1003.752          35.000  
E27  25224555.761 2 132555942.589 1      1953.883          36.000  
E30  22781831.511 2 119719317.453 1       445.275          36.000  
G 1  19994174.402 2 105070085.536 1      2066.818          37.000  
> 2021  5 18  3  9 40.9990000  0 11                     
J 2  37633708.550 8 197766468.96223      1323.257          31.000  
G21  20190659.491 4 106102630.522 2      -578.367          34.000  
G 7  19955342.118 2 104866016.628 1      1074.150          36.000  
G30  22308980.651 4 117234466.195 3      2977.211          29.000  
G 8  21675444.877 2 113905237.812 1     -2109.737          36.000  
J 3  38639716.500 2 203053070.082 1      -632.361          37.000  
E13  25894518.035 4 136076583.187 3      2936.596          29.000  
E15  22778131.306 2 119699899.205 1      1002.652          35.000  
E27  25224184.158 2 132553988.957 2      1953.510          36.000  
E30  22781746.703 2 119718872.488 1       444.179          36.000  
G 1  19993781.292 2 105068019.144 1      2065.799          37.000  
> 2021  5 18  3  9 41.9990000  0 11                     
J 2  37633456.473 4 197765145.20423      1323.410          30.000  
G21  20190769.332 2 106103208.316 1      -578.323          33.000  
G 7  19955137.654 2 104864942.428 1      1074.317          36.000  
G30  22308414.147 2 117231489.033 3      2976.533          29.000  
G 8  21675845.944 2 113907347.960 1     -2110.383          36.000  
J 3  38639836.863 2 203053702.230 1      -632.013          37.000  
E13  25893960.274 2 136073646.236 3      2936.565          29.000  
E15  22777940.357 2 119698896.555 1      1001.764          35.000  
E27  25223812.434 2 132552035.374 1      1953.125          36.000  
E30  22781662.113 2 119718427.694 1       444.488          36.000  
G 1  19993388.069 2 105065953.439 1      2065.503          37.000  
> 2021  5 18  3  9 42.9990000  0 11                     
J 2  37633203.550 4 197763821.694 2      1322.431          30.000  
G21  20190879.556 4 106103786.983 2      -579.258          33.000  
G 7  19954933.172 2 104863869.091 1      1072.969          36.000  
G30  22307847.608 2 117228512.373 2      2976.448          29.000  
G 8  21676247.177 2 113909458.319 2     -2110.469          35.000  
J 3  38639957.191 2 203054334.575 1      -632.990          37.000  
E13  25893398.796 8 136070709.679 3      2936.581          30.000  
E15  22777749.757 2 119697894.523 1      1001.296          35.000  
E27  25223440.823 2 132550081.913 1      1953.004          36.000  
E30  22781577.663 1 119717983.277 1       444.381          36.000  
G 1  19992994.985 2 105063888.559 1      2064.288          37.000  
> 2021  5 18  3  9 43.9990000  0 12                     
J 2  37632952.371 8 197762498.360 3      1322.979          30.000  
G21  20190989.719 4 106104366.505 2      -579.969          33.000  
G 7  19954728.891 2 104862796.582 1      1072.088          36.000  
G30  22307282.744 4 117225536.348 4      2975.000          29.000  
G 8  21676648.113 2 113911568.987 1     -2110.895          35.000  
J 3  38640077.501 2 203054967.082 1      -632.581          37.000  
G 9  23641261.935 9                     -2123.380          25.000  
E13  25892840.258 8 136067773.624 3      2935.583          29.000  
E15  22777559.113 2 119696893.147 1      1001.140          35.000  
E27  25223068.950 1 132548128.646 1      1953.123          36.000  
E30  22781493.657 1 119717539.215 1       444.113          36.000  
G 1  19992602.251 2 105061824.487 1      2063.919          36.000  
> 2021  5 18  3  9 44.9990000  0 12                     
J 2  37632699.221 4 197761174.918 3      1323.311          30.000  
G21  20191100.127 4 106104946.547 2      -580.733          33.000  
G 7  19954524.802 4 104861724.612 2      1071.328          36.000  
G30  22306716.642 8 117222560.468 4      2976.467          30.000  
G 8  21677049.319 2 113913679.586 1     -2110.862          35.000  
J 3  38640197.917 2 203055599.442 1      -632.355          37.000  
G 9  23641666.876 9                     -2123.271          25.000  
E13  25892286.946 8 136064837.544 3      2935.962          29.000  
E15  22777368.818 2 119695892.145 1      1000.845          35.000  
E27  25222697.496 1 132546175.233 1      1953.665          36.000  
E30  22781409.163 2 119717095.253 1       444.073          36.000  
G 1  19992209.472 2 105059760.950 1      2063.025          37.000  
> 2021  5 18  3  9 45.9990000  0 12                     
J 2  37632443.715 8 197759851.574 3      1323.200          30.000  
G21  20191210.508 4 106105527.310 2      -580.880          33.000  
G 7  19954320.940 2 104860653.336 1      1070.551          36.000  
G30  22306148.698 8 117219585.138 3      2975.282          30.000  
G 8  21677450.753 2 113915790.304 1     -2110.875          36.000  
J 3  38640318.253 1 203056231.888 1      -632.684          37.000  
G 9  23642072.881 9                     -2124.238          26.000  
E13  25891722.004 8 136061901.797 3      2935.427          29.000  
E15  22777178.471 2 119694891.684 1      1000.038          35.000  
E27  25222326.042 2 132544221.893 1      1952.982          36.000  
E30  22781324.634 2 119716651.531 1       443.598          36.000  
G 1  19991816.860 2 105057698.074 1      2062.848          37.000  
> 2021  5 18  3  9 46.9990000  0 12                     
J 2  37632193.017 4 197758528.251 3      1323.471          30.000  
G21  20191321.099 4 106106108.807 2      -582.138          33.000  
G 7  19954117.261 2 104859582.798 1      1069.899          36.000  
G30  22305583.477 8 117216610.111 3      2974.689          29.000  
G 8  21677852.361 2 113917901.207 1     -2111.303          36.000  
J 3  38640438.695 2 203056864.368 1      -632.916          37.000  
G 9  23642478.564 9                     -2123.690          25.000  
E13  25891162.734 8 136058966.278 3      2935.357          29.000  
E15  22776988.142 2 119693891.758 1       999.489          35.000  
E27  25221954.439 2 132542268.544 1      1953.191          36.000  
E30  22781240.376 1 119716208.035 1       443.560          36.000  
G 1  19991424.352 2 105055635.943 1      2061.760          37.000  
> 2021  5 18  3  9 47.9990000  0 12                     
J 2  37631945.031 4 197757205.178 3      1323.196          30.000  
G21  20191431.829 4 106106691.096 2      -582.126          33.000  
G 7  19953913.600 2 104858513.065 1      1069.044          36.000  
G30  22305015.883 4 117213635.709 3      2974.598          29.000  
G 8  21678254.091 2 113920012.373 1     -2111.622          36.000  
J 3  38640558.866 2 203057497.003 1      -632.617          37.000  
G 9  23642881.943 9                     -2124.571          25.000  
E13  25890608.113 8 136056031.133 3      2935.149          30.000  
E15  22776797.969 2 119692892.486 1       998.930          35.000  
E27  25221582.976 1 132540315.383 1      1953.114          36.000  
E30  22781155.655 1 119715764.881 1       443.141          36.000  
G 1  19991032.063 2 105053574.599 1      2061.055          37.000  
> 2021  5 18  3  9 48.9990000  0 12                     
J 2  37631692.213 4 197755882.064 3      1322.640          30.000  
G21  20191542.551 4 106107273.902 3      -582.287          32.000  
G 7  19953710.043 2 104857443.862 1      1069.281          36.000  
G30  22304451.342 4 117210661.570 2      2974.045          29.000  
G 8  21678655.900 2 113922123.450 1     -2110.800          36.000  
J 3  38640679.272 2 203058129.536 1      -632.629          37.000  
G 9  23643286.029 9                     -2122.562          25.000  
E13  25890055.447 4 136053096.107 3      2934.904          29.000  
E15  22776608.076 2 119691893.558 1       998.308          35.000  
E27  25221210.912 1 132538362.062 1      1953.556          36.000  
E30  22781071.554 1 119715321.766 1       443.353          36.000  
G 1  19990639.913 2 105051513.773 1      2060.443          37.000  
> 2021  5 18  3  9 49.9990000  0 12                     
J 2  37631441.959 8 197754558.729 3      1324.286          30.000  
G21  20191653.351 8 106107857.425 3      -583.550          32.000  
G 7  19953506.460 2 104856375.272 1      1067.899          36.000  
G30  22303881.296 4 117207687.704 2      2973.582          29.000  
G 8  21679057.831 2 113924234.598 1     -2111.103          37.000  
J 3  38640799.775 2 203058761.981 1      -632.300          37.000  
G 9  23643690.106 9                     -2123.127          25.000  
E13  25889487.617 8 136050161.179 3      2934.876          30.000  
E15  22776418.035 2 119690895.055 1       998.068          35.000  
E27  25220839.013 2 132536408.657 1      1954.129          36.000  
E30  22780987.165 1 119714878.820 1       442.995          36.000  
G 1  19990247.614 2 105049453.504 1      2060.364          37.000  
> 2021  5 18  3  9 50.9990000  0 12                     
J 2  37631188.556 8 197753235.632 4      1323.414          30.000  
G21  20191762.345 4 106108441.567 2      -584.616          32.000  
G 7  19953303.209 2 104855307.332 1      1067.543          36.000  
G30  22303318.535 2 117204714.237 2      2973.120          29.000  
G 8  21679459.962 1 113926345.859 1     -2111.412          37.000  
J 3  38640920.137 2 203059394.485 1      -632.825          37.000  
G 9  23644093.233 9                     -2124.558          25.000  
E13  25888928.800 8 136047226.573 3      2933.703          30.000  
E15  22776228.037 2 119689897.087 1       997.466          35.000  
E27  25220467.201 2 132534455.349 1      1953.371          36.000  
E30  22780902.697 2 119714436.104 1       442.341          36.000  
G 1  19989855.778 2 105047393.980 1      2058.785          37.000  
> 2021  5 18  3  9 51.9990000  0 12                     
J 2  37630936.688 8 197751912.555 3      1323.044          30.000  
G21  20191870.859 4 106109026.422 2      -585.206          32.000  
G 7  19953100.001 2 104854240.150 1      1067.046          35.000  
G30  22302753.340 2 117201741.215 2      2972.552          29.000  
G 8  21679862.364 1 113928457.245 1     -2111.292          38.000  
J 3  38641040.588 2 203060027.029 1      -632.642          37.000  
G 9  23644497.685 9                     -2122.849          25.000  
E13  25888376.832 8 136044292.184 3      2934.166          30.000  
E15  22776038.353 1 119688899.650 1       996.720          35.000  
E27  25220095.825 1 132532502.030 1      1952.797          36.000  
E30  22780818.726 1 119713993.586 1       442.449          36.000  
G 1  19989464.012 2 105045335.112 1      2058.078          36.000  
> 2021  5 18  3  9 52.9990000  0 12                     
J 2  37630686.600 8 197750589.908 4      1321.523          29.000  
G21  20191983.570 4 106109612.262 2      -586.614          32.000  
G 7  19952896.758 2 104853173.948 1      1065.701          36.000  
G30  22302187.342 2 117198768.871 2      2971.959          29.000  
G 8  21680264.723 2 113930569.054 1     -2111.860          38.000  
J 3  38641161.195 2 203060659.878 1      -632.867          37.000  
G 9  23644901.727 9                     -2123.721          25.000  
E13  25887819.542 8 136041358.337 3      2933.157          30.000  
E15  22775848.756 2 119687902.976 1       995.757          35.000  
E27  25219724.371 1 132530549.001 1      1952.768          36.000  
E30  22780734.695 2 119713551.582 1       441.695          36.000  
G 1  19989072.525 2 105043277.214 1      2057.120          37.000  
> 2021  5 18  3  9 53.9990000  0 12                     
J 2  37630432.010 8 197749267.086 3      1323.072          29.000  
G21  20192096.691 4 106110198.784 2      -587.042          32.000  
G 7  19952693.803 4 104852108.393 2      1065.320          35.000  
G30  22301620.131 2 117195796.941 2      2972.378          29.000  
G 8  21680667.142 1 113932680.938 1     -2111.677          38.000  
J 3  38641281.671 2 203061292.734 1      -632.788          37.000  
G 9  23645307.236 9                     -2123.446          25.000  
E13  25887260.821 8 136038424.705 2      2933.235          31.000  
E15  22775659.090 2 119686906.795 1       996.384          35.000  
E27  25219352.716 2 132528595.998 1      1953.646          36.000  
E30  22780650.524 2 119713109.773 1       441.928          36.000  
G 1  19988681.117 2 105041219.937 1      2056.940          37.000  
> 2021  5 18  3  9 54.9990000  0 12                     
J 2  37630175.850 4 197747944.333 3      1323.032          29.000  
G21  20192208.826 4 106110785.871 2      -587.004          33.000  
G 7  19952490.849 2 104851043.392 1      1064.882          35.000  
G30  22301056.280 4 117192825.321 3      2970.719          29.000  
G 8  21681069.440 1 113934792.852 1     -2111.870          38.000  
J 3  38641402.156 2 203061925.517 1      -632.654          37.000  
G 9  23645714.410 9                     -2127.016          24.000  
E13  25886703.906 8 136035491.221 2      2932.967          31.000  
E15  22775469.868 2 119685911.054 1       995.818          35.000  
E27  25218981.062 2 132526642.928 1      1952.917          36.000  
E30  22780566.737 1 119712668.080 1       441.865          36.000  
G 1  19988289.909 2 105039163.242 1      2056.571          37.000  
> 2021  5 18  3  9 55.9990000  0 12                     
J 2  37629925.230 4 197746621.637 2      1322.278          29.000  
G21  20192322.305 4 106111373.667 2      -588.238          33.000  
G 7  19952288.287 2 104849979.068 1      1063.946          35.000  
G30  22300488.249 4 117189854.030 3      2970.913          29.000  
G 8  21681471.859 1 113936904.799 1     -2111.996          38.000  
J 3  38641522.763 1 203062558.261 1      -632.544          37.000  
G 9  23646120.163 9                     -2123.698          23.000  
E13  25886150.115 8 136032557.852 3      2933.990          30.000  
E15  22775280.752 1 119684915.742 1       995.524          35.000  
E27  25218609.494 2 132524689.770 1      1953.607          36.000  
E30  22780482.906 1 119712226.572 1       441.405          36.000  
G 1  19987898.841 2 105037107.190 1      2055.536          37.000  
> 2021  5 18  3  9 56.9990000  0 12                     
J 2  37629674.863 4 197745298.711 3      1323.226          29.000  
G21  20192433.533 4 106111961.917 2      -589.017          33.000  
G 7  19952085.681 2 104848915.269 1      1063.138          35.000  
G30  22299926.745 4 117186882.931 3      2971.134          29.000  
G 8  21681874.008 1 113939016.751 1     -2112.331          38.000  
J 3  38641643.161 1 203063190.930 1      -632.794          37.000  
G 9  23646525.863 9                     -2123.171          22.000  
E13  25885588.436 4 136029624.680 2      2932.408          31.000  
E15  22775091.312 2 119683920.831 1       994.648          35.000  
E27  25218237.953 2 132522736.519 1      1953.312          36.000  
E30  22780398.865 2 119711785.128 1       440.748          37.000  
G 1  19987507.843 1 105035051.660 1      2054.866          37.000  
> 2021  5 18  3  9 57.9990000  0 11                     
J 2  37629425.857 4 197743975.891 2      1323.090          29.000  
G21  20192546.278 4 106112550.834 2      -588.506          33.000  
G 7  19951883.258 2 104847852.102 1      1063.360          35.000  
G30  22299362.440 4 117183912.266 3      2970.822          29.000  
G 8  21682276.070 2 113941128.744 1     -2111.660          38.000  
J 3  38641763.498 2 203063823.553 1      -632.349          37.000  
E13  25885030.282 4 136026691.627 2      2933.333          31.000  
E15  22774901.872 2 119682926.390 1       994.446          35.000  
E27  25217866.307 2 132520783.250 1      1953.513          36.000  
E30  22780314.869 1 119711343.811 1       441.651          37.000  
G 1  19987117.054 2 105032996.750 1      2054.672          37.000  
> 2021  5 18  3  9 58.9990000  0 11                     
J 2  37629175.603 4 197742652.779 3      1323.250          30.000  
G21  20192658.396 4 106113140.140 2      -589.515          33.000  
G 7  19951680.879 2 104846789.314 1      1061.669          36.000  
G30  22298797.759 4 117180941.456 3      2971.188          29.000  
G 8  21682678.062 2 113943240.377 1     -2111.009          39.000  
J 3  38641883.895 2 203064455.838 1      -632.214          37.000  
E13  25884474.397 4 136023758.815 2      2931.326          32.000  
E15  22774712.634 2 119681932.203 2       993.468          35.000  
E27  25217494.591 1 132518829.409 1      1954.485          36.000  
E30  22780230.628 2 119710902.319 1       441.546          36.000  
G 1  19986726.152 2 105030942.303 1      2053.725          37.000  
> 2021  5 18  3  9 59.9990000  0 11                     
J 2  37628922.558 8 197741329.930 3      1322.859          31.000  
G21  20192770.584 4 106113730.259 2      -590.662          33.000  
G 7  19951478.849 2 104845726.814 1      1061.906          36.000  
G30  22298226.317 4 117177969.347 4      2973.652          29.000  
G 8  21683079.670 2 113945350.515 1     -2108.567          38.000  
J 3  38642003.874 2 203065087.670 1      -631.091          36.000  
E13  25883915.257 4 136020827.980 2      2928.742          33.000  
E15  22774523.491 2 119680939.196 1       992.091          35.000  
E27  25217122.500 1 132516873.754 1      1957.394          36.000  
E30  22780146.596 2 119710460.433 1       442.842          36.000  
G 1  19986335.555 2 105028889.795 1      2050.541          38.000  
> 2021  5 18  3 10  0.9990000  0 11                     
J 2  37628668.675 8 197740007.404 3      1323.516          31.000  
G21  20192883.164 4 106114321.553 2      -592.165          35.000  
G 7  19951276.802 4 104844664.020 2      1063.609          36.000  
G30  22297660.581 9                      2983.979          16.000  
G 8  21683479.664 2 113947456.895 1     -2104.481          33.000  
J 3  38642123.478 4 203065718.436 2      -629.620          36.000  
E13  25883359.415 8 136017902.186 3      2923.790          32.000  
E15  22774335.002 2 119679948.464 2       990.318          35.000  
E27  25216749.362 2 132514913.061 1      1962.983          36.000  
E30  22780062.076 2 119710017.161 1       443.915          37.000  
G 1  19985945.551 2 105026841.095 1      2046.677          38.000  
> 2021  5 18  3 10  1.9990000  0 11                     
J 2  37628413.552 9 197738647.21435      1323.585          31.000  
G21  20192995.709 4 106114913.538 2      -591.955          33.000  
G 7  19951074.397 4 104843600.766 2      1064.476          35.000  
G30  22297093.588 9                      2995.304          18.000  
G 8  21683883.078 9                     -2106.877          28.000  
J 3  38642243.457 4 203066347.693 2      -628.119          35.000  
E13  25882804.175 8 136014981.373 3      2918.012          31.000  
E15  22774146.871 4 119678959.780 2       987.484          34.000  
E27  25216374.863 4 132512947.250 3      1968.107          29.000  
E30  22779977.565 2 119709572.051 2       445.782          36.000  
G 1  19985556.141 2 105024795.883 1      2042.945          36.000  
> 2021  5 18  3 10  2.9990000  0 11                     
J 2  37628166.204 9 197737324.59024      1322.469          32.000  
G21  20193108.533 8 106115506.080 5      -594.231          31.000  
G 7  19950871.844 8 104842536.645 4      1067.567          30.000  
G30  22296524.790 9                      2986.606          18.000  
G 8  21684280.245 9                     -2090.302          24.000  
J 3  38642361.351 8                      -626.184          30.000  
E13  25882248.281 9                      2916.537          23.000  
E15  22773958.348 4 119677972.592 3       987.365          27.000  
E27  25216000.573 9                      1964.038          25.000  
E30  22779891.675 8 119709125.109 4       447.929          31.000  
G 1  19985167.245 8                      2041.509          30.000  
> 2021  5 18  3 10  3.9990000  0 10                     
J 2  37627913.787 8 197736001.33924      1323.023          31.000  
G21  20193221.297 8 106116098.703 5      -593.333          31.000  
G 7  19950668.261 8 104841472.271 5      1063.936          30.000  
G 8  21684675.353 9                     -2059.052          20.000  
J 3  38642482.525 8 203067605.74635      -626.239          31.000  
E13  25881691.567 9                      2913.696          24.000  
E15  22773769.336 4 119676986.207 3       985.882          28.000  
E27  25215626.397 9                      1964.038          22.000  
E30  22779804.459 8 119708676.983 4       447.666          31.000  
G 1  19984779.850 8 105020726.64635      2040.064          29.000  
> 2021  5 18  3 10  4.9990000  0 11                     
J 2  37627659.651 9 197734685.69434      1323.653          31.000  
G21  20193335.831 8 106116692.112 4      -594.769          32.000  
G 7  19950463.491 8 104840408.254 4      1063.757          34.000  
G 8  21685071.944 9                     -2111.226          17.000  
J 3  38642599.014 8 203068231.89023      -625.806          32.000  
G 9  23649748.552 9                     -2097.377          17.000  
E13  25881136.990 9                      2913.849          27.000  
E15  22773580.908 4 119676000.674 3       985.773          33.000  
E27  25215251.278 9                      1964.038          16.000  
E30  22779720.497 8 119708228.588 3       447.703          34.000  
G 1  19984393.773 8 105018687.50624      2039.002          33.000  
> 2021  5 18  3 10  5.9990000  0 12                     
J 2  37627412.058 8 197733363.29323      1321.919          32.000  
G21  20193448.385 8 106117286.797 3      -594.419          32.000  
G 7  19950264.864 4 104839345.751 2      1061.382          33.000  
G30  22294821.265 9                      2982.413          19.000  
G 8  21685476.954 9                     -2096.758          23.000  
J 3  38642715.058 8 203068859.40524      -633.677          26.000  
G 9  23650147.237 9                     -2097.377          17.000  
E13  25880580.573 8 136003390.39514      2911.547          28.000  
E15  22773392.132 8 119675016.304 2       983.959          32.000  
E27  25214878.978 9                      1964.038          14.000  
E30  22779639.022 9                       450.402          22.000  
G 1  19984005.855 4 105016649.51422      2036.987          34.000  
> 2021  5 18  3 10  6.9990000  0 12                     
J 2  37627160.531 8 197732041.09923      1318.955          27.000  
E 7  27287084.482 9                     -1639.127          25.000  
G21  20193560.468 4 106117882.308 2      -595.682          32.000  
G 7  19950063.262 4 104838283.903 2      1061.155          34.000  
G30  22294252.466 9                      2982.887          18.000  
G 8  21685878.275 9                     -2095.622          21.000  
J 3  38642835.979 9                      -636.969          22.000  
G 9  23650543.976 9                     -2097.377          17.000  
E13  25880023.998 8 136000477.521 3      2913.223          29.000  
E15  22773206.819 4 119674032.334 2       984.330          32.000  
E30  22779547.635 9                       450.402          19.000  
G 1  19983614.839 4 105014611.97122      2037.827          35.000  
> 2021  5 18  3 10  7.9990000  0 11                     
J 2  37626908.244 9                      1340.924          24.000  
G21  20193678.361 9                      -600.402          25.000  
G 7  19949863.369 4 104837223.097 2      1060.092          34.000  
G30  22293684.025 9                      2986.275          17.000  
G 8  21686277.448 9                     -2101.464          20.000  
J 3  38642962.197 9                      -617.011          20.000  
G 9  23650942.565 9                     -2097.377          18.000  
E13  25879477.370 8 135997562.810 3      2916.387          30.000  
E15  22773023.627 4 119673048.136 2       984.789          33.000  
E30  22779474.161 9                       446.683          17.000  
G 1  19983227.357 4 105012573.96121      2038.165          35.000  
> 2021  5 18  3 10  8.9990000  0 13                     
J 2  37626655.347 9                      1340.924          20.000  
E 7  27287719.303 9                     -1634.855          27.000  
G21  20193794.056 9                      -603.354          22.000  
G 7  19949659.115 4 104836164.026 1      1057.655          35.000  
G30  22293117.591 9                      2986.275          16.000  
G 8  21686680.828 9                     -2103.175          18.000  
J 3  38643084.270 9                      -622.683          19.000  
G 9  23651340.107 9                     -2097.377          20.000  
E13  25878916.860 8 135994644.544 4      2920.002          31.000  
E15  22772832.722 4 119672063.133 1       985.902          33.000  
E27  25213759.712 9                      1964.038          12.000  
E30  22779402.589 9                       441.716          29.000  
G 1  19982838.278 4 105010533.95621      2041.971          36.000  
> 2021  5 18  3 10  9.9990000  0 13                     
J 2  37626405.207 9                      1340.924          16.000  
E 7  27288034.262 9                     -1626.987          27.000  
G21  20193912.709 9                      -592.382          20.000  
G 7  19949458.446 2 104835107.183 1      1056.177          39.000  
G30  22292550.407 9                      2972.046          16.000  
G 8  21687081.554 9                     -2110.873          18.000  
J 3  38643211.229 9                      -629.176          22.000  
G 9  23651739.962 9                     -2120.583          31.000  
E13  25878360.599 8 135991720.094 4      2926.727          34.000  
E15  22772647.034 4 119671076.354 1       987.971          37.000  
E27  25213386.513 9                      1965.241          14.000  
E30  22779317.214 9                       440.622          30.000  
G 1  19982450.560 4 105008490.47421      2045.308          38.000  
> 2021  5 18  3 10 10.9990000  0 13                     
J 2  37626154.517 9                      1333.404          15.000  
E 7  27288346.935 9                     -1631.006          27.000  
G21  20194030.149 9                      -602.274          23.000  
G 7  19949258.170 2 104834051.880 1      1054.749          37.000  
G30  22291990.857 9                      2964.358          20.000  
G 8  21687483.677 9                     -2113.124          19.000  
J 3  38643334.445 9 203072092.24234      -632.538          34.000  
G 9  23652141.482 9                     -2128.015          30.000  
E13  25877805.482 8 135988792.532 3      2927.159          33.000  
E15  22772458.824 2 119670088.972 1       986.981          37.000  
E27  25213012.285 9                      1956.678          15.000  
E30  22779236.960 9                       440.335          22.000  
G 1  19982063.427 2 105006445.57021      2044.329          40.000  
> 2021  5 18  3 10 11.9990000  0 13                     
J 2  37625901.436 9                      1324.508          17.000  
E 7  27288656.389 9                     -1628.203          32.000  
G21  20194146.149 9                      -606.457          23.000  
G 7  19949057.038 2 104832997.304 1      1054.132          37.000  
G30  22291428.890 9                      2963.781          21.000  
G 8  21687883.662 9                     -2110.949          29.000  
J 3  38643455.698 8 203072723.88622      -631.940          34.000  
G 9  23652545.158 9                     -2124.780          32.000  
E13  25877240.156 8 135985864.360 3      2928.402          30.000  
E15  22772271.854 2 119669101.572 1       987.673          37.000  
E27  25212640.577 9                      1956.678          15.000  
E30  22779140.050 9                       439.862          30.000  
G 1  19981672.298 2 105004400.52121      2045.329          39.000  
> 2021  5 18  3 10 12.9990000  0 13                     
J 2  37625655.781 9                      1329.759          19.000  
E 7  27288966.366 8 143404497.78514     -1627.431          30.000  
G21  20194253.547 9                      -601.942          23.000  
G 7  19948856.527 2 104831943.892 1      1053.295          38.000  
G30  22290865.039 9                      2968.275          21.000  
G 8  21688285.061 9 113972710.77234     -2113.921          30.000  
J 3  38643572.998 8 203073356.28323      -632.470          31.000  
G 9  23652949.044 9                     -2123.833          26.000  
E13  25876691.425 8 135982934.611 2      2930.228          33.000  
E15  22772084.081 2 119668114.281 1       987.297          37.000  
E27  25212267.954 9                      1952.094          16.000  
E30  22779056.333 9 119704760.20713       439.154          30.000  
G 1  19981282.958 2 105002354.78711      2045.240          37.000  
> 2021  5 18  3 10 13.9990000  0 13                     
J 2  37625406.793 9                      1325.347          20.000  
E 7  27289274.606 8 143406125.291 2     -1627.170          31.000  
G21  20194365.760 9                      -597.347          22.000  
G 7  19948656.364 2 104830891.057 1      1052.728          38.000  
G30  22290300.585 9                      2972.535          19.000  
G 8  21688688.318 8 113974823.81524     -2112.939          30.000  
J 3  38643693.666 8 203073988.58723      -632.356          31.000  
G 9  23653357.257 9                     -2123.342          27.000  
E13  25876139.073 4 135980004.758 2      2929.375          34.000  
E15  22771895.854 2 119667127.244 1       986.865          36.000  
E27  25211895.689 9                      1951.117          17.000  
E30  22778977.318 8 119704321.697 3       438.746          30.000  
G 1  19980893.826 2 105000309.907 1      2044.404          37.000  
> 2021  5 18  3 10 14.9990000  0 13                     
J 2  37625156.129 9                      1335.198          20.000  
E 7  27289585.404 8 143407752.710 2     -1627.908          31.000  
G21  20194477.389 9                      -602.863          22.000  
G 7  19948455.878 2 104829838.828 1      1051.833          38.000  
G30  22289735.765 9                      2964.677          18.000  
G 8  21689089.769 8 113976936.90523     -2112.628          30.000  
J 3  38643815.800 8 203074620.81123      -632.153          31.000  
G 9  23653762.206 9                     -2124.029          26.000  
E13  25875579.209 4 135977074.948 1      2929.884          34.000  
E15  22771707.950 1 119666140.599 1       986.506          36.000  
E27  25211524.034 9                      1953.229          18.000  
E30  22778891.114 8 119703883.292 3       438.321          29.000  
G 1  19980504.678 2 104998265.569 1      2043.867          37.000  
> 2021  5 18  3 10 15.9990000  0 13                     
J 2  37624906.128 9                      1327.659          20.000  
E 7  27289895.895 8 143409380.051 3     -1627.175          26.000  
G21  20194591.854 9                      -609.200          21.000  
G 7  19948255.445 4 104828787.242 2      1051.204          32.000  
G30  22289171.792 9                      2965.696          17.000  
G 8  21689493.654 8 113979050.06324     -2113.400          25.000  
J 3  38643936.408 8 203075253.09824      -632.724          30.000  
G 9  23654165.638 9                     -2124.092          25.000  
E13  25875020.087 4 135974145.429 2      2929.190          30.000  
E15  22771519.968 2 119665154.451 1       986.001          33.000  
E27  25211150.468 9                      1962.059          18.000  
E30  22778806.245 8 119703445.056 5       438.046          29.000  
G 1  19980115.651 2 104996221.885 1      2043.459          34.000  
> 2021  5 18  3 10 16.9990000  0 12                     
J 2  37624657.768 9                      1327.659          18.000  
E 7  27290200.951 8 143411007.592 3     -1627.601          27.000  
G21  20194705.900 9                      -596.006          20.000  
G 7  19948055.422 4 104827736.419 2      1051.300          34.000  
G30  22288607.548 9                      2965.696          15.000  
G 8  21689895.184 4 113981163.52223     -2113.762          27.000  
J 3  38644056.797 4 203075885.42423      -632.819          29.000  
E13  25874460.703 4 135971216.184 2      2929.627          30.000  
E15  22771332.160 2 119664168.959 1       984.889          33.000  
E27  25210777.051 9                      1955.463          17.000  
E30  22778728.251 8 119703007.125 4       437.993          27.000  
G 1  19979726.773 2 104994179.000 1      2042.527          34.000  
> 2021  5 18  3 10 17.9990000  0 12                     
J 2  37624409.801 9                      1323.782          19.000  
E 7  27290509.742 4 143412635.342 2     -1627.932          28.000  
G21  20194817.930 9                      -598.043          21.000  
G 7  19947855.626 2 104826686.608 1      1049.207          35.000  
G30  22288042.667 9                      2965.696          16.000  
G 8  21690296.914 4 113983277.25623     -2113.745          28.000  
J 3  38644175.118 4 203076518.01423      -632.365          29.000  
E13  25873905.803 4 135968287.529 2      2927.970          31.000  
E15  22771144.587 1 119663184.157 1       984.258          34.000  
E27  25210403.843 9                      1955.463          17.000  
E30  22778646.942 8 119702569.712 4       436.967          28.000  
G 1  19979338.157 2 104992137.023 1      2041.684          35.000  
> 2021  5 18  3 10 18.9990000  0 12                     
J 2  37624161.004 9                      1320.117          20.000  
E 7  27290820.495 4 143414262.973 2     -1627.641          32.000  
G21  20194934.201 9                      -610.024          22.000  
G 7  19947655.786 2 104825637.282 1      1049.499          38.000  
G30  22287478.981 9                      2965.341          16.000  
G 8  21690698.984 4 113985390.975 3     -2113.247          32.000  
J 3  38644295.882 4 203077150.553 2      -632.245          31.000  
E13  25873345.494 4 135965358.855 2      2929.389          33.000  
E15  22770956.867 2 119662199.756 1       984.500          37.000  
E27  25210032.197 9                      1965.069          18.000  
E30  22778560.267 8 119702132.341 3       436.863          29.000  
G 1  19978949.349 2 104990095.562 1      2041.799          38.000  
> 2021  5 18  3 10 19.9990000  0 12                     
J 2  37623910.532 9                      1333.972          20.000  
E 7  27291126.790 8 143415890.616 2     -1628.192          32.000  
G21  20195049.503 9                      -606.426          24.000  
G 7  19947456.190 2 104824588.488 1      1048.806          39.000  
G30  22286915.644 9                      2956.800          18.000  
G 8  21691095.855 8 113987504.409 4     -2112.210          26.000  
J 3  38644415.102 8 203077782.951 3      -633.111          30.000  
E13  25872792.165 4 135962430.702 2      2926.826          33.000  
E15  22770769.617 1 119661215.767 1       983.927          37.000  
E27  25209657.847 9                      1965.069          17.000  
E30  22778480.415 8 119701694.851 3       437.669          28.000  
G 1  19978561.195 2 104988054.769 1      2040.305          38.000  
> 2021  5 18  3 10 20.9990000  0 13                     
J 2  37623659.930 9                      1318.819          20.000  
E 7  27291444.079 8 143417518.575 3     -1627.624          32.000  
G21  20195164.518 9                      -605.024          24.000  
G 7  19947257.005 1 104823540.347 1      1047.854          39.000  
G30  22286351.810 9                      2961.249          18.000  
G 8  21691495.107 8 113989618.063 3     -2113.799          31.000  
J 3  38644536.651 9                      -631.577          26.000  
G 9  23656187.062 9                     -2122.803          31.000  
E13  25872235.774 4 135959502.906 2      2927.808          33.000  
E15  22770582.926 1 119660232.353 1       983.208          37.000  
E27  25209285.354 9                      1950.258          16.000  
E30  22778390.660 9                       437.417          26.000  
G 1  19978173.119 1 104986014.711 1      2039.629          38.000  
> 2021  5 18  3 10 21.9990000  0 13                     
J 2  37623406.212 9                      1326.199          20.000  
E 7  27291752.145 8 143419147.023 4     -1627.261          27.000  
G21  20195281.016 9                      -606.238          25.000  
G 7  19947057.837 1 104822492.815 1      1046.998          41.000  
G30  22285788.133 9                      2970.999          19.000  
G 8  21691901.837 8 113991731.436 2     -2113.831          32.000  
J 3  38644655.897 9 203079042.76833      -631.677          35.000  
G 9  23656595.275 9                     -2124.677          26.000  
E13  25871676.198 4 135956575.946 2      2925.688          34.000  
E15  22770396.252 1 119659249.545 1       982.456          38.000  
E27  25208914.781 9                      1954.249          20.000  
E30  22778299.203 9                       438.368          27.000  
G 1  19977785.044 2 104983975.557 1      2038.513          36.000  
> 2021  5 18  3 10 22.9990000  0 13                     
J 2  37623157.433 9                      1332.922          20.000  
E 7  27292064.128 9                     -1629.239          29.000  
G21  20195392.959 9                      -604.717          24.000  
G 7  19946858.686 2 104821445.786 1      1046.894          38.000  
G30  22285225.006 9                      2963.928          22.000  
G 8  21692307.083 9                     -2088.656          26.000  
J 3  38644769.071 9                      -630.460          26.000  
G 9  23656996.517 9                     -2124.078          32.000  
E13  25871117.965 8 135953650.275 4      2926.107          28.000  
E15  22770209.675 1 119658267.415 1       981.410          38.000  
E27  25208542.411 9                      1960.498          20.000  
E30  22778221.628 9                       438.373          27.000  
G 1  19977397.056 2 104981937.420 1      2037.933          36.000  
> 2021  5 18  3 10 23.9990000  0 13                     
J 2  37622907.721 9                      1320.839          20.000  
E 7  27292376.854 8 143422405.64915     -1632.295          31.000  
G21  20195505.661 9                      -616.253          23.000  
G 7  19946659.789 2 104820399.310 1      1045.299          36.000  
G30  22284661.669 9                      2962.885          21.000  
G 8  21692704.058 9                     -2113.918          25.000  
J 3  38644889.530 9 203080262.51335      -631.775          32.000  
G 9  23657391.380 9                     -2129.028          31.000  
E13  25870568.327 9                      2921.031          28.000  
E15  22770023.123 1 119657286.157 1       980.521          38.000  
E27  25208169.867 9                      1960.394          20.000  
E30  22778133.731 9                       437.174          26.000  
G 1  19977009.687 4 104979900.647 2      2036.126          36.000  
> 2021  5 18  3 10 24.9990000  0 13                     
J 2  37622656.787 9                      1316.565          19.000  
E 7  27292690.478 9                     -1628.765          30.000  
G21  20195626.190 9                      -608.397          20.000  
G 7  19946460.830 4 104819354.145 2      1045.194          34.000  
G30  22284100.601 9                      2961.624          20.000  
G 8  21693105.256 9                     -2118.799          21.000  
J 3  38645003.017 8 203080861.21135      -629.927          29.000  
G 9  23657798.939 9                     -2129.456          30.000  
E13  25870012.886 9                      2920.031          26.000  
E15  22769836.711 2 119656306.834 1       979.141          36.000  
E27  25207799.381 9                      1958.946          19.000  
E30  22778049.281 9                       442.464          25.000  
G 1  19976622.624 4 104977866.318 2      2034.061          34.000  
> 2021  5 18  3 10 25.9990000  0 13                     
J 2  37622406.428 9                      1318.769          18.000  
E 7  27293000.847 9                     -1635.580          24.000  
G21  20195738.996 9                      -603.696          20.000  
G 7  19946261.130 4 104818308.938 2      1044.781          34.000  
G30  22283537.963 9                      2962.363          19.000  
G 8  21693509.726 9                     -2113.283          21.000  
J 3  38645123.014 4 203081492.46323      -631.116          34.000  
G 9  23658201.358 9                     -2128.369          29.000  
E13  25869451.888 9                      2924.432          27.000  
E15  22769650.517 2 119655327.731 1       979.557          35.000  
E27  25207426.889 9                      1959.352          18.000  
E30  22777967.998 9                       438.371          27.000  
G 1  19976236.398 4 104975832.541 2      2033.737          34.000  
> 2021  5 18  3 10 26.9990000  0 13                     
J 2  37622155.547 9                      1320.199          19.000  
E 7  27293318.572 9                     -1624.881          23.000  
G21  20195854.831 9                      -604.359          19.000  
G 7  19946065.722 4 104817264.083 2      1044.805          34.000  
G30  22282975.586 9                      2964.911          19.000  
G 8  21693913.943 9                     -2116.880          21.000  
J 3  38645249.074 9                      -632.649          22.000  
G 9  23658608.952 9                     -2127.521          28.000  
E13  25868899.056 9                      2923.397          27.000  
E15  22769464.079 1 119654348.209 1       979.906          35.000  
E27  25207054.536 9                      1959.352          17.000  
E30  22777894.384 9                       433.350          26.000  
G 1  19975849.431 4 104973798.301 2      2034.041          35.000  
> 2021  5 18  3 10 27.9990000  0 13                     
J 2  37621902.326 9                      1325.278          20.000  
E 7  27293623.611 9                     -1627.825          24.000  
G21  20195971.250 9                      -608.225          21.000  
G 7  19945863.692 4 104816219.439 2      1043.885          35.000  
G30  22282410.661 9                      2961.875          20.000  
G 8  21694317.566 9                     -2112.598          22.000  
J 3  38645366.418 9                      -632.501          30.000  
G 9  23659016.912 9                     -2125.708          30.000  
E13  25868339.376 9                      2925.237          27.000  
E15  22769277.641 1 119653368.729 1       979.771          36.000  
E27  25206682.925 9                      1958.837          17.000  
E30  22777807.700 9                       437.161          23.000  
G 1  19975459.148 4 104971764.252 1      2032.923          35.000  
> 2021  5 18  3 10 28.9990000  0 13                     
J 2  37621648.845 9                      1308.640          20.000  
E 7  27293929.504 9                     -1627.586          26.000  
G21  20196086.169 9                      -621.275          21.000  
G 7  19945664.489 2 104815175.498 1      1044.010          37.000  
G30  22281846.853 9                      2958.351          20.000  
G 8  21694718.119 9                     -2112.538          25.000  
J 3  38645483.971 9 203083401.94133      -630.573          34.000  
G 9  23659420.439 8 124331098.09935     -2126.086          31.000  
E13  25867779.049 8 135936126.06415      2924.895          28.000  
E15  22769091.534 1 119652389.337 1       978.691          36.000  
E27  25206309.839 9                      1950.453          18.000  
E30  22777720.100 9                       437.453          25.000  
G 1  19975073.437 4 104969730.131 1      2033.990          36.000  
> 2021  5 18  3 10 29.9990000  0 13                     
J 2  37621394.281 9                      1331.189          23.000  
E 7  27294234.979 9 143432183.15515     -1627.662          30.000  
G21  20196201.314 9                      -599.884          22.000  
G 7  19945467.982 2 104814131.700 1      1044.248          37.000  
G30  22281284.476 9                      2958.351          19.000  
G 8  21695120.102 9                     -2109.515          25.000  
J 3  38645603.427 8 203084032.29325      -630.379          29.000  
G 9  23659827.169 9                     -2125.136          29.000  
E13  25867225.903 8 135933202.908 4      2922.834          28.000  
E15  22768905.175 2 119651410.690 1       977.999          36.000  
E27  25205938.254 9                      1950.453          17.000  
E30  22777634.699 9                       440.457          24.000  
G 1  19974688.093 4 104967697.294 2      2032.868          36.000  
> 2021  5 18  3 10 30.9990000  0 13                     
J 2  37621140.432 9                      1316.908          26.000  
E 7  27294545.017 9                     -1628.740          26.000  
G21  20196316.668 9                      -607.787          30.000  
G 7  19945270.952 4 104813088.352 2      1042.809          37.000  
G30  22280720.250 9                      2958.580          18.000  
G 8  21695513.334 9 114010691.23235     -2109.970          31.000  
J 3  38645726.739 9                      -632.831          29.000  
G 9  23660229.693 9                     -2128.015          25.000  
E13  25866672.304 9                      2921.793          27.000  
E15  22768719.208 2 119650432.685 1       978.025          36.000  
E27  25205567.201 9                      1952.805          18.000  
E30  22777549.646 9                       437.406          25.000  
G 1  19974301.160 4 104965665.676 2      2031.432          37.000  
> 2021  5 18  3 10 31.9990000  0 13                     
J 2  37620885.284 9                      1337.375          29.000  
E 7  27294857.332 9                     -1628.245          25.000  
G21  20196435.042 9 106132971.03635      -612.109          34.000  
G 7  19945070.911 2 104812045.743 1      1041.175          37.000  
G30  22280156.529 9                      2953.780          18.000  
G 8  21695916.224 8 114012800.66023     -2108.541          35.000  
J 3  38645847.904 9                      -625.927          22.000  
G 9  23660635.193 9                     -2129.781          25.000  
E13  25866116.427 9                      2921.571          27.000  
E15  22768533.032 2 119649455.371 1       976.736          36.000  
E27  25205195.250 9                      1949.047          19.000  
E30  22777469.157 9                       438.255          26.000  
G 1  19973913.704 4 104963634.855 2      2030.117          37.000  
> 2021  5 18  3 10 32.9990000  0 13                     
J 2  37620631.506 9                      1328.849          23.000  
E 7  27295172.248 9                     -1638.216          23.000  
G21  20196553.145 9                      -613.850          22.000  
G 7  19944871.639 4 104811003.774 2      1041.445          35.000  
G30  22279594.632 9                      2965.556          19.000  
G 8  21696318.705 8 114014910.36023     -2109.676          32.000  
J 3  38645964.193 9                      -629.376          30.000  
G 9  23661037.185 9                     -2124.981          27.000  
E13  25865557.261 8 135924447.62115      2920.847          28.000  
E15  22768347.440 2 119648478.414 1       976.681          36.000  
E27  25204823.744 9                      1951.423          19.000  
E30  22777390.221 9                       435.997          25.000  
G 1  19973527.679 4 104961604.570 1      2030.003          37.000  
> 2021  5 18  3 10 33.9990000  0 13                     
J 2  37620377.797 9                      1324.331          29.000  
E 7  27295485.226 9                     -1636.409          21.000  
G21  20196666.353 9                      -611.047          32.000  
G 7  19944673.055 4 104809962.570 2      1041.431          34.000  
G30  22279030.301 9                      2960.261          18.000  
G 8  21696719.947 9                     -2108.716          25.000  
J 3  38646084.032 9                      -627.078          22.000  
G 9  23661443.670 9                     -2131.328          25.000  
E13  25864999.264 8 135921526.209 4      2920.813          33.000  
E15  22768161.665 2 119647502.042 1       976.302          36.000  
E27  25204451.478 9                      1952.166          19.000  
E30  22777306.661 9                       438.087          26.000  
G 1  19973141.654 2 104959574.977 1      2028.930          37.000  
> 2021  5 18  3 10 34.9990000  0 12                     
J 2  37620120.764 9 197695067.99035      1321.570          32.000  
E 7  27295796.241 9                     -1626.552          21.000  
G21  20196780.862 9                      -613.369          28.000  
G 7  19944475.056 4 104808921.935 3      1039.795          33.000  
G30  22278467.610 9                      2964.594          18.000  
G 8  21697124.050 9                     -2118.910          22.000  
J 3  38646205.206 9                      -627.209          22.000  
E13  25864444.801 9                      2924.571          27.000  
E15  22767976.099 2 119646526.076 1       975.579          36.000  
E27  25204078.515 9                      1967.723          21.000  
E30  22777222.420 9                       435.640          26.000  
G 1  19972755.787 2 104957545.884 1      2029.093          37.000  
> 2021  5 18  3 10 35.9990000  0 12                     
J 2  37619871.252 9                      1319.577          26.000  
E 7  27296106.951 9                     -1633.485          21.000  
G21  20196902.237 9                      -613.414          27.000  
G 7  19944276.595 4 104807882.525 2      1038.474          33.000  
G30  22277904.160 9                      2965.878          17.000  
G 8  21697529.471 9                     -2101.202          21.000  
J 3  38646325.831 9 203087812.33034      -631.543          37.000  
E13  25863901.209 9                      2910.563          25.000  
E15  22767790.507 2 119645551.536 1       974.514          36.000  
E27  25203703.396 9                      1960.457          20.000  
E30  22777128.337 9 119694627.30915       436.361          32.000  
G 1  19972370.189 2 104955518.618 1      2026.790          38.000  
> 2021  5 18  3 10 36.9990000  0 12                     
J 2  37619619.681 9                      1318.886          25.000  
E 7  27296419.668 9                     -1628.571          24.000  
G21  20197017.775 9                      -612.847          31.000  
G 7  19944080.961 4 104806843.944 1      1038.861          37.000  
G30  22277341.722 9                      2962.256          18.000  
G 8  21697927.842 9                     -2110.306          21.000  
J 3  38646441.517 8 203088443.21122      -630.286          35.000  
E13  25863343.980 9                      2923.360          23.000  
E15  22767605.151 2 119644577.516 1       974.871          37.000  
E27  25203329.324 9                      1963.292          21.000  
E30  22777042.944 8 119694191.248 3       435.318          38.000  
G 1  19971984.469 4 104953492.055 2      2027.273          37.000  
> 2021  5 18  3 10 37.9990000  0 12                     
J 2  37619366.251 9                      1326.877          25.000  
E 7  27296730.866 9                     -1625.183          23.000  
G21  20197134.682 9                      -614.378          26.000  
G 7  19943884.174 4 104805805.456 1      1038.842          38.000  
G30  22276777.199 9                      2957.366          20.000  
G 8  21698332.006 9                     -2116.503          23.000  
J 3  38646560.894 4 203089073.78821      -630.847          38.000  
E13  25862789.875 9                      2923.360          19.000  
E15  22767419.664 1 119643602.557 1       974.927          36.000  
E27  25202956.518 9                      1965.788          22.000  
E30  22776959.899 8 119693755.055 2       436.333          38.000  
G 1  19971598.558 2 104951464.127 1      2028.235          39.000  
> 2021  5 18  3 10 38.9990000  0 12                     
J 2  37619110.580 9                      1322.892          28.000  
E 7  27297040.302 9                     -1616.114          21.000  
G21  20197254.871 9                      -614.459          26.000  
G 7  19943683.872 2 104804767.199 1      1038.284          40.000  
G30  22276214.700 9                      2954.430          22.000  
G 8  21698733.353 9                     -2116.079          22.000  
J 3  38646678.064 4 203089703.68122      -629.999          38.000  
E13  25862229.775 9                      2927.298          18.000  
E15  22767234.299 2 119642627.247 1       974.872          36.000  
E27  25202582.804 9                      1958.949          21.000  
E30  22776884.078 4 119693318.677 1       436.264          36.000  
G 1  19971212.882 2 104949435.994 1      2026.503          38.000  
> 2021  5 18  3 10 39.9990000  0 12                     
J 2  37618858.729 9                      1323.431          28.000  
E 7  27297350.393 9                     -1630.266          19.000  
G21  20197368.742 9 106137888.53333      -613.069          33.000  
G 7  19943488.107 2 104803729.382 1      1037.623          39.000  
G30  22275653.876 9                      2951.786          21.000  
G 8  21699137.971 9                     -2103.991          22.000  
J 3  38646799.578 4 203090333.54922      -630.243          36.000  
E13  25861674.378 9                      2925.227          17.000  
E15  22767049.021 2 119641652.736 1       973.848          36.000  
E27  25202209.675 9                      1959.481          22.000  
E30  22776799.357 4 119692882.317 1       436.066          39.000  
G 1  19970827.407 2 104947408.924 1      2026.662          38.000  
> 2021  5 18  3 10 40.9990000  0 12                     
J 2  37618606.033 9                      1321.308          27.000  
E 7  27297660.431 9                     -1630.266          17.000  
G21  20197488.320 8 106138504.94523      -618.196          35.000  
G 7  19943290.239 2 104802692.641 1      1036.100          37.000  
G30  22275091.185 9                      2960.104          19.000  
G 8  21699538.619 9                     -2113.217          25.000  
J 3  38646918.554 4 203090963.94222      -631.964          33.000  
E13  25861118.484 9                      2926.452          18.000  
E15  22766863.630 2 119640678.869 1       973.656          36.000  
E27  25201836.389 9                      1953.555          21.000  
E30  22776718.641 2 119692446.608 1       434.491          35.000  
G 1  19970441.678 2 104945382.713 1      2025.979          37.000  
> 2021  5 18  3 10 41.9990000  0 12                     
J 2  37618353.388 4 197685791.07133      1323.060          38.000  
E 7  27297971.341 9                     -1622.775          17.000  
G21  20197599.835 4 106139122.59222      -618.950          37.000  
G 7  19943095.337 2 104801657.201 1      1036.641          39.000  
G30  22274528.738 9                      2956.681          19.000  
G 8  21699940.882 9                     -2109.449          26.000  
J 3  38647038.995 4 203091594.78923      -630.927          34.000  
E13  25860563.227 9                      2919.007          20.000  
E15  22766678.597 2 119639706.347 1       972.221          36.000  
E27  25201463.643 9                      1957.099          23.000  
E30  22776634.025 4 119692011.656 3       435.905          32.000  
G 1  19970056.430 2 104943358.028 1      2023.964          37.000  
> 2021  5 18  3 10 42.9990000  0 12                     
J 2  37618097.472 8 197684467.85523      1323.862          33.000  
E 7  27298281.885 9                     -1635.187          17.000  
G21  20197719.884 4 106139739.66222      -617.374          37.000  
G 7  19942897.714 4 104800621.229 1      1035.828          37.000  
G30  22273966.387 9                      2958.105          18.000  
G 8  21700343.318 9                     -2115.087          24.000  
J 3  38647162.333 4 203092223.96612      -630.603          37.000  
E13  25860008.851 9                      2912.285          18.000  
E15  22766493.686 2 119638733.348 1       973.501          36.000  
E27  25201089.345 9                      1960.378          21.000  
E30  22776552.523 4 119691575.924 2       436.143          32.000  
G 1  19969671.242 2 104941333.222 1      2025.072          37.000  
> 2021  5 18  3 10 43.9990000  0 12                     
J 2  37617846.905 4 197683144.30522      1323.716          34.000  
E 7  27298593.424 9                     -1623.425          17.000  
G21  20197837.717 4 106140357.15022      -616.813          35.000  
G 7  19942700.544 4 104799585.404 2      1035.376          35.000  
G30  22273402.614 9                      2958.209          22.000  
G 8  21700746.689 9                     -2107.675          25.000  
J 3  38647278.273 8                      -630.303          30.000  
E13  25859453.864 9                      2922.474          18.000  
E15  22766308.434 2 119637760.447 1       972.539          36.000  
E27  25200717.812 9                      1964.185          23.000  
E30  22776469.644 8 119691139.832 5       433.981          26.000  
G 1  19969286.055 2 104939308.613 1      2024.426          39.000  
> 2021  5 18  3 10 44.9990000  0 12                     
J 2  37617596.127 4 197681820.61922      1323.660          35.000  
E 7  27298902.904 9                     -1623.425          17.000  
G21  20197953.045 2 106140975.15721      -618.197          37.000  
G 7  19942503.548 2 104798550.196 2      1035.045          34.000  
G30  22272839.339 9                      2959.149          28.000  
G 8  21701149.370 9                     -2114.428          24.000  
J 3  38647402.160 9                      -620.445          25.000  
E13  25858898.433 9                      2922.474          17.000  
E15  22766123.497 2 119636788.019 1       972.221          36.000  
E27  25200343.854 9                      1965.272          20.000  
E30  22776394.625 9                       431.036          26.000  
G 1  19968901.156 2 104937284.747 1      2023.118          38.000  
> 2021  5 18  3 10 45.9990000  0 12                     
J 2  37617344.050 4 197680496.97521      1323.551          38.000  
E 7  27299213.090 9                     -1631.309          17.000  
G21  20198072.248 2 106141593.79821      -619.009          38.000  
G 7  19942306.649 2 104797516.095 1      1033.382          35.000  
G30  22272270.811 9                      2957.069          28.000  
G 8  21701550.830 9                     -2113.144          24.000  
J 3  38647526.118 9                      -631.174          31.000  
E13  25858341.832 9                      2923.031          16.000  
E15  22765938.332 2 119635815.589 1       972.339          36.000  
E27  25199969.285 9                      1966.040          19.000  
E30  22776306.519 9                       433.593          30.000  
G 1  19968516.047 2 104935260.587 2      2023.296          37.000  
> 2021  5 18  3 10 46.9990000  0 11                     
J 2  37617092.584 2 197679173.69421      1323.305          36.000  
E 7  27299524.367 9                     -1620.494          16.000  
G21  20198191.249 2 106142213.52821      -619.930          37.000  
G 7  19942109.924 4 104796482.897 2      1032.896          35.000  
G30  22271704.412 8 117038596.12434      2957.228          30.000  
G 8  21701952.787 9                     -2103.386          25.000  
J 3  38647650.756 9                      -638.222          24.000  
E13  25857787.447 9                      2917.180          17.000  
E15  22765753.439 1 119634844.021 1       971.149          36.000  
E27  25199597.334 9                      1960.583          20.000  
G 1  19968130.964 4 104933237.458 2      2022.141          35.000  
> 2021  5 18  3 10 47.9990000  0 11                     
J 2  37616838.605 4 197677850.27722      1323.877          36.000  
E 7  27299833.436 9                     -1620.494          14.000  
G21  20198309.318 2 106142833.70321      -620.782          39.000  
G 7  19941913.460 4 104795450.009 2      1032.648          35.000  
G30  22271141.590 9                      2955.439          28.000  
G 8  21702353.741 9                     -2118.006          24.000  
J 3  38647765.779 9                      -628.586          31.000  
E13  25857230.855 9                      2919.954          18.000  
E15  22765568.685 2 119633873.321 1       970.790          36.000  
E27  25199223.978 9                      1955.869          19.000  
G 1  19967746.492 4 104931215.766 2      2021.531          37.000  
> 2021  5 18  3 10 48.9990000  0 12                     
J 2  37616588.098 4 197676526.28313      1325.648          32.000  
E 7  27300144.460 9                     -1631.536          14.000  
G21  20198426.051 4 106143454.558 2      -621.387          29.000  
G 7  19941716.822 4 104794417.647 2      1032.764          31.000  
G30  22270581.542 9                      2954.980          22.000  
G 8  21702755.506 9                     -2116.607          24.000  
J 3  38647881.762 9 203095988.73935      -627.106          31.000  
E13  25856675.947 9                      2923.088          19.000  
E15  22765383.922 2 119632902.883 1       970.097          36.000  
E27  25198851.791 9                      1961.883          20.000  
E30  22776067.032 9                       442.601          25.000  
G 1  19967361.741 2 104929194.527 1      2021.444          36.000  
> 2021  5 18  3 10 49.9990000  0 12                     
J 2  37616336.684 9                      1326.204          20.000  
E 7  27300455.737 9                     -1631.536          14.000  
G21  20198545.532 9                      -620.268          29.000  
G 7  19941518.763 4 104793386.420 2      1031.921          36.000  
G30  22270017.935 9                      2955.933          22.000  
G 8  21703157.751 9                     -2115.196          26.000  
J 3  38647998.077 9                      -628.683          26.000  
E13  25856120.742 9                      2921.646          19.000  
E15  22765199.578 2 119631933.114 1       969.240          36.000  
E27  25198479.054 9                      1961.058          22.000  
E30  22775979.711 9                       437.637          25.000  
G 1  19966977.304 2 104927173.920 1      2020.481          38.000  
> 2021  5 18  3 10 50.9990000  0 12                     
J 2  37616087.251 9                      1323.045          29.000  
E 7  27300766.098 9                     -1631.536          13.000  
G21  20198667.448 9                      -623.529          26.000  
G 7  19941321.566 4 104792356.201 2      1030.068          35.000  
G30  22269455.166 9                      2957.091          22.000  
G 8  21703559.952 9                     -2112.395          26.000  
J 3  38648122.060 9                      -630.768          28.000  
E13  25855565.293 9                      2918.792          18.000  
E15  22765015.068 2 119630963.744 1       969.153          36.000  
E27  25198104.956 9                      1958.953          22.000  
E30  22775898.611 9                       433.069          26.000  
G 1  19966592.963 4 104925153.654 2      2018.858          37.000  
> 2021  5 18  3 10 51.9990000  0 12                     
J 2  37615840.723 9                      1322.052          23.000  
E 7  27301075.142 9                     -1631.536          14.000  
G21  20198784.408 9                      -622.781          26.000  
G 7  19941126.185 4 104791326.480 1      1029.456          41.000  
G30  22268890.686 9                      2960.682          22.000  
G 8  21703960.749 9                     -2117.423          32.000  
J 3  38648236.647 9                      -630.872          28.000  
E13  25855010.969 9                      2921.281          17.000  
E15  22764830.671 2 119629994.951 1       968.391          39.000  
E27  25197733.572 9                      1958.199          30.000  
E30  22775816.683 9                       437.171          24.000  
G 1  19966208.674 4 104923134.290 2      2018.979          40.000  
> 2021  5 18  3 10 52.9990000  0 12                     
J 2  37615587.791 9                      1323.361          24.000  
E 7  27301384.490 9                     -1624.863          15.000  
G21  20198906.115 9                      -624.955          38.000  
G 7  19940929.966 2 104790297.224 1      1029.156          38.000  
G30  22268327.786 9                      2958.119          23.000  
G 8  21704363.648 9                     -2112.755          27.000  
J 3  38648359.759 9                      -630.563          27.000  
E13  25854455.441 9                      2926.677          18.000  
E15  22764646.135 1 119629026.607 1       968.458          39.000  
E27  25197360.390 9                      1961.170          30.000  
E30  22775732.974 9                       435.798          24.000  
G 1  19965824.499 2 104921115.582 1      2018.358          41.000  
> 2021  5 18  3 10 53.9990000  0 12                     
J 2  37615336.883 8 197669928.98534      1323.605          31.000  
E 7  27301695.680 9                     -1632.060          16.000  
G21  20199019.175 8 106146590.96933      -623.824          34.000  
G 7  19940735.981 2 104789268.043 1      1028.729          41.000  
G30  22267766.246 9                      2952.443          21.000  
G 8  21704775.648 9                     -2119.285          31.000  
J 3  38648477.643 9                      -633.241          25.000  
E13  25853898.579 9                      2934.115          18.000  
E15  22764461.861 1 119628058.109 1       968.202          39.000  
E27  25196988.954 9                      1960.400          30.000  
E30  22775649.937 9                       435.438          25.000  
G 1  19965440.428 2 104919096.831 1      2018.956          40.000  
> 2021  5 18  3 10 54.9990000  0 12                     
J 2  37615085.600 9                      1320.996          27.000  
E 7  27302006.102 9                     -1632.060          14.000  
G21  20199137.313 4 106147215.37622      -624.186          34.000  
G 7  19940537.528 2 104788239.759 1      1027.617          40.000  
G30  22267204.070 9                      2947.782          22.000  
G 8  21705182.796 9                     -2118.681          25.000  
J 3  38648600.685 9 203099766.97135      -629.163          35.000  
E13  25853341.167 9                      2898.564          17.000  
E15  22764277.700 1 119627090.113 1       967.418          39.000  
E27  25196617.657 9                      1958.191          21.000  
E30  22775569.073 9                       430.234          25.000  
G 1  19965056.489 1 104917078.750 1      2017.527          42.000  
> 2021  5 18  3 10 55.9990000  0 12                     
J 2  37614837.571 8 197667285.57335      1322.003          32.000  
E 7  27302316.009 9                     -1638.273          15.000  
G21  20199258.374 9                      -624.353          34.000  
G 7  19940343.455 2 104787212.737 1      1026.093          39.000  
G30  22266642.819 9                      2956.079          22.000  
G 8  21705591.210 9                     -2114.008          25.000  
J 3  38648721.615 8 203100396.68523      -630.133          36.000  
E13  25852788.073 9                      2911.918          16.000  
E15  22764093.626 1 119626123.399 1       966.768          39.000  
E27  25196242.608 9                      1959.706          20.000  
E30  22775482.310 9                       429.683          25.000  
G 1  19964672.933 2 104915062.176 1      2017.314          40.000  
> 2021  5 18  3 10 56.9990000  0 14                     
J 2  37614583.592 8 197665962.85523      1324.120          31.000  
E 7  27302628.124 9                     -1638.273          13.000  
G21  20199378.545 8 106148445.25633      -627.347          34.000  
G 7  19940148.467 2 104786186.655 1      1026.505          41.000  
G30  22266084.098 9                      2948.555          24.000  
G 8  21705994.973 9                     -2117.859          23.000  
J 3  38648839.413 4 203101026.87222      -630.475          36.000  
E13  25852233.017 9                      2910.933          17.000  
E15  22763909.771 1 119625156.892 1       966.899          38.000  
G27  24262065.960 9                     -2867.127          14.000  
E27  25195874.469 9                      1963.462          22.000  
E30  22775396.656 9                       435.407          31.000  
G 1  19964289.281 2 104913045.701 1      2016.890          41.000  
E 2  26105259.298 9                     -1129.138          29.000  
> 2021  5 18  3 10 57.9990000  0 12                     
J 2  37614334.054 8                      1325.322          28.000  
G21  20199502.555 4 106149071.49222      -626.869          32.000  
G 7  19939953.365 1 104785160.160 1      1026.695          40.000  
G30  22265523.885 9                      2956.001          23.000  
G 8  21706392.314 9                     -2118.787          22.000  
J 3  38648961.774 4 203101656.16222      -629.047          36.000  
E13  25851679.182 9                      2930.061          17.000  
E15  22763725.758 1 119624189.702 1       967.091          38.000  
G27  24262610.547 9                     -2806.336          15.000  
E27  25195503.198 9                      1955.703          23.000  
E30  22775317.667 9                       434.733          25.000  
G 1  19963905.481 2 104911028.522 1      2017.435          40.000  
> 2021  5 18  3 10 58.9990000  0 13                     
J 2  37614077.160 9                      1324.250          28.000  
G21  20199624.226 9                      -625.781          25.000  
G 7  19939758.289 2 104784134.458 1      1025.210          39.000  
G30  22264962.817 9                      2952.876          21.000  
G 8  21706796.549 9                     -2112.789          21.000  
J 3  38649082.922 4 203102285.58021      -630.078          35.000  
G 9  23671578.783 9                     -2124.798          28.000  
E13  25851121.237 9                      2930.061          16.000  
E15  22763542.034 1 119623222.907 1       966.666          37.000  
G27  24263146.347 9                     -2853.211          13.000  
E27  25195124.965 9                      1954.189          25.000  
E30  22775232.441 9                       432.353          26.000  
G 1  19963521.506 2 104909011.972 1      2016.116          40.000  
> 2021  5 18  3 10 59.9990000  0 13                     
J 2  37613823.582 9 197661976.93734      1322.584          33.000  
G21  20199740.550 9                      -634.089          25.000  
G 7  19939563.396 2 104783110.197 1      1023.735          37.000  
G30  22264402.534 9                      2930.024          23.000  
G 8  21707194.012 9                     -2116.569          22.000  
J 3  38649202.272 4 203102915.98322      -630.634          31.000  
G 9  23671982.912 9                     -2124.615          27.000  
E13  25850566.006 9                      2927.085          15.000  
E15  22763358.265 1 119622256.783 1       966.250          38.000  
G27  24263688.612 9                     -2806.336          13.000  
E27  25194751.818 9                      1954.889          25.000  
E30  22775147.982 8 119684232.00415       431.302          31.000  
G 1  19963137.576 2 104906995.902 1      2015.824          39.000  
> 2021  5 18  3 11  0.9990000  0 14                     
J 2  37613571.497 8 197660653.60822      1323.910          33.000  
E 7  27303875.998 9                     -1630.367          14.000  
G21  20199858.626 9 106150972.77835      -627.490          32.000  
G 7  19939368.913 2 104782086.427 1      1024.112          39.000  
G30  22263842.417 9                      2952.239          22.000  
G 8  21707595.158 9                     -2113.123          22.000  
J 3  38649319.660 8 203103545.87324      -627.760          26.000  
E13  25850009.955 9                      2925.108          16.000  
E15  22763174.741 1 119621291.243 1       966.038          38.000  
G27  24264225.555 9                     -2806.336          11.000  
E27  25194376.927 9                      1947.906          23.000  
E30  22775069.133 8 119683799.841 5       430.683          30.000  
G 1  19962754.055 2 104904980.724 1      2015.972          42.000  
E 2  26106122.630 9                     -1127.218          25.000  
> 2021  5 18  3 11  1.9990000  0 12                     
J 2  37613319.131 9                      1322.621          18.000  
E 7  27304186.332 9                     -1630.367          12.000  
G21  20199975.246 9                      -626.475          31.000  
G 7  19939174.256 1 104781061.964 1      1025.137          42.000  
G30  22263279.891 9                      2940.966          21.000  
G 8  21707998.188 9                     -2107.592          21.000  
J 3  38649440.974 8 203104174.63325      -628.558          26.000  
E13  25849454.541 9                      2923.052          17.000  
E15  22762990.956 1 119620325.418 1       966.031          38.000  
E27  25194005.141 9                      1970.060          21.000  
E30  22774984.813 9                       437.606          22.000  
G 1  19962370.708 2 104902965.676 1      2015.766          41.000  
> 2021  5 18  3 11  2.9990000  0 13                     
J 2  37613067.447 9                      1325.035          33.000  
E 7  27304496.204 9                     -1630.367          12.000  
G21  20200091.596 8 106152197.26434      -627.522          37.000  
G 7  19938979.040 1 104780037.107 1      1024.879          41.000  
G30  22262718.658 9                      2950.395          22.000  
G 8  21708401.114 9                     -2117.572          20.000  
J 3  38649559.662 9                      -624.719          32.000  
E13  25848898.629 9                      2937.721          17.000  
E15  22762807.039 1 119619359.786 1       965.714          38.000  
E27  25193632.291 9                      1968.107          21.000  
E30  22774909.917 9                       435.028          25.000  
G 1  19961987.353 2 104900951.430 1      2013.242          40.000  
E 2  26106552.865 9                     -1135.890          24.000  
> 2021  5 18  3 11  3.9990000  0 12                     
J 2  37612811.156 9 197656656.61234      1323.668          32.000  
E 7  27304806.897 9                     -1630.367          10.000  
G21  20200214.908 4 106152826.20022      -629.982          37.000  
G 7  19938784.060 4 104779013.041 2      1022.182          35.000  
G30  22262156.359 9                      2952.925          23.000  
G 8  21708802.931 9                     -2125.757          19.000  
J 3  38649678.541 9                      -625.525          23.000  
E13  25848343.241 9                      2921.215          17.000  
E15  22762623.367 2 119618394.946 1       965.157          35.000  
E27  25193259.100 9                      1958.428          20.000  
E30  22774824.908 9                       432.812          31.000  
G 1  19961604.138 2 104898938.253 1      2013.478          38.000  
> 2021  5 18  3 11  4.9990000  0 12                     
J 2  37612560.693 8 197655332.68824      1322.503          30.000  
G21  20200331.684 4 106153456.39222      -630.718          35.000  
G 7  19938593.670 8 104777990.444 4      1021.828          31.000  
G30  22261594.811 9                      2950.999          22.000  
G 8  21709204.495 9                     -2110.608          18.000  
J 3  38649799.367 9                      -627.772          29.000  
G 9  23674007.931 9                     -2128.258          16.000  
E13  25847787.975 9                      2921.215          16.000  
E15  22762439.546 2 119617430.693 1       963.448          35.000  
E27  25192886.338 9                      1958.424          20.000  
E30  22774734.115 9                       429.203          25.000  
G 1  19961221.079 2 104896925.455 1      2011.343          35.000  
> 2021  5 18  3 11  5.9990000  0 12                     
J 2  37612310.570 9                      1326.085          25.000  
G21  20200452.370 8 106154087.67023      -630.242          32.000  
G 7  19938400.400 9                      1009.988          23.000  
G30  22261031.911 9                      2945.958          22.000  
G 8  21709607.910 9                     -2114.449          18.000  
J 3  38649918.674 9                      -627.995          27.000  
G 9  23674413.440 9                     -2128.258          16.000  
E13  25847232.971 9                      2919.274          16.000  
E15  22762256.258 2 119616467.247 1       963.234          38.000  
E27  25192514.857 9                      1969.657          22.000  
E30  22774662.918 9                       426.341          25.000  
G 1  19960838.082 2 104894913.574 1      2011.931          39.000  
> 2021  5 18  3 11  6.9990000  0 12                     
J 2  37612064.382 9                      1323.876          24.000  
G21  20200576.851 8 106154719.08323      -630.894          33.000  
G 7  19938204.635 9                      1021.329          30.000  
G30  22260469.804 9                      2947.936          22.000  
G 8  21710010.373 9                     -2111.914          19.000  
J 3  38650037.492 9                      -630.327          31.000  
G 9  23674820.204 9                     -2128.258          17.000  
E13  25846677.103 9                      2922.441          15.000  
E15  22762072.813 2 119615503.714 1       963.741          38.000  
E27  25192143.334 9                      1960.688          30.000  
E30  22774582.909 9                       432.550          34.000  
G 1  19960455.172 2 104892901.949 1      2012.893          39.000  
> 2021  5 18  3 11  7.9990000  0 12                     
J 2  37611817.209 9                      1321.172          24.000  
G21  20200701.376 9                      -640.076          21.000  
G 7  19938008.145 9                      1021.416          30.000  
G30  22259908.379 9                      2940.714          23.000  
G 8  21710413.665 9                     -2128.983          19.000  
J 3  38650159.609 9                      -626.781          27.000  
G 9  23675224.438 9                     -2128.258          16.000  
E13  25846121.069 9                      2932.561          17.000  
E15  22761889.297 2 119614540.161 1       963.861          38.000  
E27  25191760.336 9 132383655.60815      1961.574          30.000  
E30  22774507.864 9                       433.363          27.000  
G 1  19960072.331 2 104890890.406 1      2011.187          39.000  
> 2021  5 18  3 11  8.9990000  0 12                     
J 2  37611561.127 9                      1324.020          26.000  
G21  20200822.925 9                      -638.029          23.000  
G 7  19937812.781 8 104773931.01334      1020.139          30.000  
G30  22259346.377 9                      2955.042          23.000  
G 8  21710817.454 9                     -2112.971          18.000  
J 3  38650285.992 9                      -628.583          28.000  
G 9  23675630.147 9                     -2128.258          16.000  
E13  25845565.280 9                      2932.561          16.000  
E15  22761705.756 1 119613576.789 1       962.865          37.000  
E27  25191385.418 9                      1972.448          22.000  
E30  22774417.437 8 119680424.77914       431.096          32.000  
G 1  19959689.543 2 104888878.796 1      2010.377          39.000  
> 2021  5 18  3 11  9.9990000  0 12                     
J 2  37611309.015 9                      1325.505          26.000  
G21  20200936.169 9 106156635.62033      -631.582          35.000  
G 7  19937622.574 8 104772911.55024      1018.794          30.000  
G30  22258785.684 9                      2948.199          26.000  
G 8  21711218.818 9                     -2111.627          19.000  
J 3  38650405.168 9                      -641.553          25.000  
G 9  23676034.565 9                     -2128.258          17.000  
E13  25845011.445 9                      2921.901          16.000  
E15  22761522.520 1 119612614.187 1       961.822          37.000  
E27  25191016.364 9                      1961.539          24.000  
E30  22774324.933 8 119679992.246 3       432.871          30.000  
G 1  19959307.070 2 104886868.351 1      2009.424          39.000  
> 2021  5 18  3 11 10.9990000  0 12                     
J 2  37611058.683 9                      1320.825          25.000  
G21  20201060.798 8 106157269.02622      -634.892          36.000  
G30  22258220.061 9 116967735.57635      2948.052          29.000  
G 8  21711622.162 9                     -2111.627          18.000  
J 3  38650523.219 9                      -627.483          25.000  
G 9  23676438.878 9                     -2128.258          18.000  
E13  25844455.708 9                      2929.825          16.000  
E15  22761339.441 2 119611651.829 1       962.408          38.000  
E27  25190644.508 9                      1961.026          28.000  
E30  22774245.544 9                       431.335          21.000  
G 1  19958924.779 1 104884858.296 1      2009.172          40.000  
G27  24269350.763 9                     -2719.000          12.000  
> 2021  5 18  3 11 11.9990000  0 12                     
J 2  37610808.298 9                      1332.655          24.000  
G21  20201178.648 9                      -633.283          29.000  
G30  22257655.320 9                      2947.832          30.000  
G 8  21712024.389 9                     -2118.330          18.000  
J 3  38650640.528 9                      -628.585          25.000  
G 9  23676844.979 9                     -2128.258          15.000  
E13  25843898.479 9                      2941.116          15.000  
E15  22761156.537 1 119610690.028 1       961.204          38.000  
E27  25190271.606 8 132375781.02215      1959.481          29.000  
E30  22774162.175 9                       432.853          28.000  
G 1  19958542.401 2 104882848.947 1      2009.201          39.000  
G27  24269867.359 9                     -2719.000          11.000  
> 2021  5 18  3 11 12.9990000  0 13                     
J 2  37610555.340 9                      1331.047          25.000  
G21  20201305.119 9                      -635.486          29.000  
G 7  19937039.780 9                      1016.515          26.000  
G30  22257097.471 9                      2922.405          22.000  
G 8  21712427.804 9                     -2108.913          19.000  
J 3  38650760.315 9                      -631.830          25.000  
G 9  23677249.894 9                     -2128.258          13.000  
E13  25843343.178 9                      2927.615          16.000  
E15  22760973.903 1 119609728.673 1       960.646          39.000  
E27  25189894.480 9                      1963.737          21.000  
E30  22774092.557 9                       420.046          20.000  
G 1  19958160.102 2 104880840.135 1      2008.221          40.000  
G27  24270384.758 9                     -2719.000          10.000  
> 2021  5 18  3 11 13.9990000  0 13                     
J 2  37610298.542 9                      1327.412          25.000  
G21  20201424.234 9                      -639.401          28.000  
G 7  19936842.558 9                      1016.358          25.000  
G30  22256535.347 9                      2955.875          23.000  
G 8  21712830.651 9                     -2116.166          18.000  
J 3  38650881.655 9                      -628.430          34.000  
G 9  23677655.193 9                     -2128.258          14.000  
E13  25842789.980 9                      2917.113          17.000  
E15  22760791.042 1 119608768.359 1       959.934          39.000  
E27  25189522.895 9                      1961.314          30.000  
E30  22774005.507 9                       432.661          35.000  
G 1  19957778.047 2 104878832.872 1      2005.611          39.000  
G27  24270901.302 9                     -2719.000          11.000  
> 2021  5 18  3 11 14.9990000  0 12                     
J 2  37610047.460 9                      1328.392          23.000  
G21  20201545.216 9                      -638.753          27.000  
G 7  19936647.726 9                      1018.725          24.000  
G30  22255970.632 9                      2948.395          24.000  
G 8  21713233.306 9                     -2116.654          17.000  
J 3  38651002.114 9 203112381.23833      -627.740          33.000  
G 9  23678061.573 9                     -2128.258          13.000  
E13  25842235.263 9                      2914.065          16.000  
E15  22760608.425 2 119607808.127 1       960.003          35.000  
E27  25189155.603 9                      1956.935          27.000  
E30  22773922.898 9                       430.032          32.000  
G 1  19957395.861 2 104876825.538 2      2007.415          38.000  
> 2021  5 18  3 11 15.9990000  0 12                     
J 2  37609797.582 9                      1328.728          23.000  
G21  20201667.560 9                      -636.386          25.000  
G 7  19936454.971 9                      1016.460          31.000  
G30  22255412.112 9                      2948.194          24.000  
G 8  21713637.453 9                     -2116.654          15.000  
J 3  38651119.257 8 203113009.26824      -629.321          29.000  
G 9  23678466.209 9                     -2128.258          12.000  
E13  25841680.329 9                      2920.931          16.000  
E15  22760425.765 2 119606848.453 1       959.424          36.000  
E27  25188777.928 9                      1959.916          28.000  
E30  22773839.713 8 119677351.61613       430.762          32.000  
G 1  19957013.779 2 104874819.013 1      2005.900          38.000  
> 2021  5 18  3 11 16.9990000  0 12                     
J 2  37609545.819 9                      1326.557          30.000  
G21  20201789.196 9                      -637.738          26.000  
G 7  19936262.513 9                      1014.050          31.000  
G30  22254850.616 9                      2952.077          25.000  
G 8  21714039.907 9                     -2113.034          16.000  
J 3  38651242.063 8 203113637.70123      -628.064          33.000  
G 9  23678872.729 9                     -2128.258          13.000  
E13  25841126.468 9                      2920.931          16.000  
E15  22760243.053 1 119605889.177 1       959.439          40.000  
E27  25188402.112 9 132365971.82315      1957.442          29.000  
E30  22773762.853 8 119676921.166 2       430.186          35.000  
G 1  19956632.457 1 104872812.812 1      2006.850          43.000  
> 2021  5 18  3 11 17.9990000  0 12                     
J 2  37609297.912 9 197638172.44635      1323.868          29.000  
G21  20201911.060 9 106161756.67235      -639.640          29.000  
G 7  19936077.418 9 104764793.70734      1014.084          31.000  
G30  22254287.035 9                      2941.646          22.000  
G 8  21714442.309 9                     -2115.584          18.000  
J 3  38651364.756 4 203114266.41722      -628.363          33.000  
G 9  23679276.039 9                     -2126.195          14.000  
E13  25840571.691 9                      2920.931          14.000  
E15  22760060.462 1 119604929.768 1       959.087          40.000  
E27  25188025.928 8 132364013.791 4      1957.702          29.000  
E30  22773670.009 8 119676491.184 3       430.004          31.000  
G 1  19956250.760 1 104870806.186 1      2006.413          42.000  
> 2021  5 18  3 11 18.9990000  0 12                     
J 2  37609048.400 8 197636848.14925      1325.229          27.000  
G21  20202031.423 8 106162395.59224      -638.996          29.000  
G 7  19935885.832 8 104763780.80224      1013.023          30.000  
G30  22253730.330 9                      2941.646          20.000  
G 8  21714845.357 9                     -2115.584          18.000  
J 3  38651483.321 4 203114895.46722      -629.242          32.000  
G 9  23679679.497 9                     -2126.195          15.000  
E13  25840017.175 9                      2920.931          12.000  
E15  22759878.334 1 119603970.919 1       959.089          37.000  
E27  25187654.134 8 132362056.382 4      1957.193          29.000  
E30  22773585.794 4 119676061.829 3       430.132          29.000  
G 1  19955869.158 1 104868800.263 1      2005.995          39.000  
> 2021  5 18  3 11 19.9990000  0 12                     
J 2  37608800.118 8                      1324.747          26.000  
G21  20202155.127 8 106163035.37124      -639.824          29.000  
G 7  19935691.751 8 104762768.66924      1012.174          30.000  
G30  22253169.715 9                      2942.695          18.000  
G 8  21715246.773 9                     -2111.642          17.000  
J 3  38651603.187 4 203115524.57922      -628.943          32.000  
G 9  23680082.544 9                     -2116.623          14.000  
E13  25839462.197 9                      2913.744          12.000  
E15  22759695.901 1 119603012.716 1       958.025          37.000  
E27  25187278.614 8 132360099.064 3      1957.313          28.000  
E30  22773507.216 4 119675632.848 3       428.927          28.000  
G 1  19955487.566 1 104866795.123 1      2004.894          39.000  
> 2021  5 18  3 11 20.9990000  0 12                     
J 2  37608550.868 9                      1333.035          24.000  
G21  20202275.595 8 106163675.86824      -641.876          29.000  
G 7  19935499.860 9                      1013.340          30.000  
G30  22252608.952 9                      2944.854          16.000  
G 8  21715649.096 9                     -2111.642          15.000  
J 3  38651722.817 4 203116153.67023      -628.375          32.000  
G 9  23680484.423 9                     -2116.623          14.000  
E13  25838907.472 9                      2913.744          10.000  
E15  22759513.738 1 119602054.980 1       957.746          37.000  
E27  25186911.950 8 132358141.662 3      1958.069          28.000  
E30  22773419.529 4 119675204.000 3       428.580          28.000  
G 1  19955106.209 2 104864790.617 1      2004.116          37.000  
> 2021  5 18  3 11 21.9990000  0 12                     
J 2  37608297.133 9                      1318.455          22.000  
G21  20202401.812 8 106164316.84424      -641.640          28.000  
G 7  19935309.949 9 104760759.90635      1010.706          28.000  
G30  22252049.184 9                      2944.854          14.000  
G 8  21716051.245 9                     -2111.642          14.000  
J 3  38651845.457 8 203116782.82724      -630.343          30.000  
G 9  23680887.627 9                     -2116.623          12.000  
E13  25838350.871 9                      2913.744          10.000  
E15  22759331.724 2 119601097.714 1       956.754          35.000  
E27  25186536.552 8 132356184.357 4      1957.360          27.000  
E30  22773345.034 8 119674775.287 4       428.651          27.000  
G 1  19954724.922 2 104862786.755 1      2003.056          37.000  
> 2021  5 18  3 11 22.9990000  0 11                     
J 2  37608045.047 9                      1319.007          21.000  
G21  20202523.126 4 106164958.37323      -641.846          27.000  
G 7  19935116.269 8 104759749.46925      1010.100          28.000  
G30  22251487.636 9                      2944.854          14.000  
G 8  21716454.529 9                     -2115.545          14.000  
J 3  38651964.031 8 203117411.66223      -628.858          30.000  
G 9  23681289.044 9                     -2116.623          10.000  
E15  22759149.439 2 119600140.699 1       956.712          35.000  
E27  25186160.334 8 132354226.682 4      1958.057          26.000  
E30  22773265.408 8 119674346.599 4       428.442          26.000  
G 1  19954343.748 2 104860783.304 1      2002.944          36.000  
> 2021  5 18  3 11 23.9990000  0 10                     
J 2  37607793.380 9                      1332.304          22.000  
G21  20202646.290 4 106165600.58823      -642.643          28.000  
G 7  19934925.590 8 104758739.83624      1009.608          28.000  
G30  22250926.690 9                      2945.875          15.000  
G 8  21716857.393 9                     -2115.545          14.000  
J 3  38652082.998 4 203118040.53223      -628.669          30.000  
E15  22758967.459 2 119599184.188 1       956.376          35.000  
E27  25185786.821 8 132352269.134 4      1958.055          27.000  
E30  22773184.902 4 119673918.089 4       428.041          26.000  
G 1  19953962.670 2 104858780.532 1      2002.486          37.000  
> 2021  5 18  3 11 24.9990000  0 10                     
J 2  37607540.282 9                      1330.129          22.000  
G21  20202768.956 8 106166242.83615      -643.077          27.000  
G 7  19934735.566 4 104757730.81124      1008.234          28.000  
G30  22250365.797 9                      2940.513          16.000  
G 8  21717258.835 9                     -2115.545          14.000  
J 3  38652202.811 8 203118668.82713      -628.168          30.000  
E15  22758785.829 2 119598228.113 1       955.694          35.000  
E27  25185416.039 4 132350311.491 4      1957.774          27.000  
E30  22773105.826 4 119673489.729 5       427.851          26.000  
G 1  19953581.836 2 104856778.333 1      2002.073          37.000  
> 2021  5 18  3 11 25.9990000  0 10                     
J 2  37607288.816 9                      1325.670          22.000  
G21  20202887.033 8 106166886.361 5      -644.132          28.000  
G 7  19934544.399 8 104756722.38925      1007.860          27.000  
G30  22249805.688 9                      2941.088          16.000  
G 8  21717660.906 9                     -2110.104          16.000  
J 3  38652319.449 4 203119297.750 3      -628.735          33.000  
E15  22758603.683 2 119597272.584 2       955.362          37.000  
E27  25185043.215 8                      1957.669          27.000  
E30  22773023.461 8                       428.257          27.000  
G 1  19953200.881 2 104854776.890 1      2001.346          36.000  
> 2021  5 18  3 11 26.9990000  0 11                     
J 2  37607036.268 9                      1331.172          22.000  
G21  20203005.730 8 106167530.283 4      -644.107          28.000  
G 7  19934351.400 4 104755714.55924      1007.603          28.000  
G30  22249246.959 9                      2941.088          16.000  
G 8  21718063.753 9                     -2110.104          15.000  
J 3  38652441.225 8 203119926.445 3      -628.718          31.000  
G 9  23682900.903 9                     -2126.590          13.000  
E15  22758421.808 2 119596317.357 1       955.248          36.000  
E27  25184671.848 8 132346347.07915      1958.186          27.000  
E30  22772941.515 8 119672633.486 5       428.062          26.000  
G 1  19952820.134 2 104852775.886 1      2000.548          37.000  
> 2021  5 18  3 11 27.9990000  0 11                     
J 2  37606784.191 9                      1331.144          22.000  
G21  20203129.923 4 106168174.743 4      -645.210          28.000  
G 7  19934159.779 4 104754707.24024      1006.383          28.000  
G30  22248688.290 9                      2944.060          16.000  
G 8  21718464.794 9                     -2110.104          14.000  
J 3  38652558.961 8 203120554.971 4      -628.651          30.000  
G 9  23683306.044 9                     -2126.590          14.000  
E15  22758240.134 2 119595362.441 1       954.468          35.000  
E27  25184299.661 8 132344389.155 5      1957.403          27.000  
E30  22772860.808 4 119672205.398 4       428.131          26.000  
G 1  19952439.362 2 104850775.396 1      1999.604          37.000  
> 2021  5 18  3 11 28.9990000  0 12                     
J 2  37606532.672 9                      1321.449          22.000  
G21  20203254.509 4 106168819.822 4      -645.125          27.000  
G 7  19933968.263 4 104753700.36324      1007.082          27.000  
G30  22248128.129 9                      2946.912          17.000  
G 8  21718866.236 9                     -2110.104          14.000  
J 3  38652676.419 8 203121183.431 4      -627.545          30.000  
G 9  23683709.947 9                     -2126.590          13.000  
E13  25834471.103 9                      2933.752          10.000  
E15  22758058.835 2 119594407.966 1       954.082          35.000  
E27  25183927.815 8                      1958.110          26.000  
E30  22772777.649 4 119671777.515 4       427.086          26.000  
G 1  19952058.860 2 104848775.494 1      1999.413          37.000  
> 2021  5 18  3 11 29.9990000  0 11                     
J 2  37606279.940 9                      1324.711          23.000  
G21  20203378.641 9                      -645.586          32.000  
G 7  19933779.861 8 104752694.37224      1005.386          29.000  
G 8  21719270.584 9                     -2111.726          16.000  
J 3  38652795.647 8 203121811.924 3      -628.387          34.000  
G 9  23684115.036 9                     -2126.590          13.000  
E13  25833913.385 9                      2933.752          12.000  
E15  22757877.335 1 119593453.957 1       954.008          39.000  
E27  25183556.683 8                      1957.396          27.000  
E30  22772697.919 4 119671349.746 4       427.968          28.000  
G 1  19951678.410 2 104846776.229 1      1998.977          41.000  
> 2021  5 18  3 11 30.9990000  0 11                     
J 2  37606028.666 9                      1322.282          24.000  
G21  20203497.128 9 106170117.06735      -647.355          31.000  
G 7  19933585.466 9                      1005.054          29.000  
G 8  21719672.864 9                     -2117.147          18.000  
J 3  38652923.828 8 203122440.516 2      -629.205          33.000  
G 9  23684521.112 9                     -2120.737          12.000  
E13  25833353.844 9                      2933.752          13.000  
E15  22757695.993 1 119592500.565 1       953.059          37.000  
E27  25183185.517 8                      1957.897          28.000  
E30  22772616.670 8 119670922.225 4       427.851          28.000  
G 1  19951298.336 2 104844777.708 1      1998.481          39.000  
> 2021  5 18  3 11 31.9990000  0 10                     
J 2  37605776.528 9                      1323.594          24.000  
G21  20203624.191 8 106170764.68924      -648.296          31.000  
G 7  19933392.039 9 104750681.87535      1003.017          29.000  
G 8  21720076.583 9                     -2120.645          19.000  
J 3  38653037.708 8 203123069.557 3      -629.364          33.000  
G 9  23684924.718 9                     -2120.737          13.000  
E15  22757514.999 1 119591548.075 1       952.055          39.000  
E27  25182815.110 8 132336577.65314      1957.611          29.000  
E30  22772533.276 8 119670495.533 4       425.836          29.000  
G 1  19950918.157 1 104842780.346 1      1996.303          40.000  
> 2021  5 18  3 11 32.9990000  0 10                     
J 2  37605524.756 9                      1324.793          24.000  
G21  20203748.646 8 106171413.14523      -648.321          30.000  
G 7  19933200.087 9 104749678.46124      1003.675          29.000  
G 8  21720479.238 9                     -2121.858          18.000  
J 3  38653158.935 4 203123698.745 2      -628.748          32.000  
G 9  23685329.162 9                     -2120.737          13.000  
E15  22757334.119 1 119590596.283 1       952.163          38.000  
E27  25182440.044 8 132334620.383 4      1957.380          28.000  
E30  22772455.308 8 119670069.044 3       426.797          28.000  
G 1  19950538.405 1 104840783.819 1      1996.271          40.000  
> 2021  5 18  3 11 33.9990000  0  9                     
J 2  37605273.342 9                      1322.523          22.000  
G21  20203866.976 8 106172061.80024      -648.549          28.000  
G 7  19933008.466 8 104748675.29424      1003.346          27.000  
G 8  21720882.303 9                     -2121.858          16.000  
J 3  38653275.982 4 203124327.527 3      -628.861          28.000  
E15  22757152.837 1 119589644.516 1       951.547          35.000  
E27  25182068.511 8 132332662.606 4      1957.962          27.000  
E30  22772374.741 4 119669642.396 3       426.633          27.000  
G 1  19950158.479 2 104838787.449 1      1995.673          38.000  
> 2021  5 18  3 11 34.9990000  0  9                     
J 2  37605020.305 9                      1317.049          23.000  
G21  20203994.790 4 106172711.74623      -650.881          29.000  
G 7  19932818.276 8 104747673.44324      1000.794          28.000  
G 8  21721287.044 9                     -2121.858          16.000  
J 3  38653393.858 4 203124956.882 2      -629.816          32.000  
E15  22756971.887 1 119588693.832 1       950.094          38.000  
E27  25181697.642 8 132330705.417 4      1956.699          28.000  
E30  22772288.170 8 119669216.471 4       425.845          28.000  
G 1  19949778.928 1 104836792.336 1      1994.318          40.000  
> 2021  5 18  3 11 35.9990000  0  9                     
J 2  37604766.928 9                      1333.631          23.000  
G21  20204114.979 4 106173362.12023      -649.341          29.000  
G 7  19932626.603 8 104746672.08324      1001.916          28.000  
G 8  21721692.107 9                     -2121.410          16.000  
J 3  38653514.265 4 203125586.069 2      -628.510          32.000  
E15  22756790.920 1 119587743.508 1       950.701          38.000  
E27  25181324.644 8 132328748.097 4      1958.027          29.000  
E30  22772211.363 4 119668790.668 3       426.419          29.000  
G 1  19949399.368 1 104834797.755 1      1994.629          40.000  
> 2021  5 18  3 11 36.9990000  0  9                     
J 2  37604512.993 9                      1324.666          23.000  
G21  20204242.226 4 106174012.18223      -650.691          29.000  
G 7  19932428.909 8 104745670.28624      1001.023          28.000  
G 8  21722094.884 9                     -2119.240          15.000  
J 3  38653636.216 8 203126214.164 2      -627.686          32.000  
E15  22756610.135 1 119586792.518 1       950.657          38.000  
E27  25180952.125 8 132326789.662 4      1958.371          29.000  
E30  22772129.146 4 119668363.835 3       427.157          29.000  
G 1  19949019.896 1 104832802.696 1      1994.385          40.000  
> 2021  5 18  3 11 37.9990000  0  9                     
J 2  37604257.582 9                      1326.130          24.000  
G21  20204363.775 4 106174663.53423      -652.059          29.000  
G 7  19932241.180 4 104744669.83224       999.773          27.000  
G 8  21722500.061 9                     -2119.240          15.000  
J 3  38653754.092 4 203126842.984 2      -628.046          33.000  
E15  22756430.049 1 119585842.790 1       949.112          38.000  
E27  25180580.749 8 132324831.956 3      1958.042          29.000  
E30  22772046.005 4 119667937.992 3       426.258          30.000  
G 1  19948640.685 1 104830809.023 1      1993.266          40.000  
> 2021  5 18  3 11 38.9990000  0 10                     
J 2  37604004.781 9                      1326.196          24.000  
G21  20204487.201 4 106175314.97923      -650.776          29.000  
G 7  19932051.156 4 104743669.58125      1000.758          27.000  
G 8  21722903.143 9                     -2116.354          14.000  
J 3  38653872.352 8 203127471.243 3      -627.264          32.000  
G 9  23687727.328 9                     -2120.737          13.000  
E15  22756249.265 1 119584892.941 1       950.160          37.000  
E27  25180211.058 8 132322873.613 3      1959.951          29.000  
E30  22771959.984 8 119667511.844 4       426.980          29.000  
G 1  19948261.125 1 104828815.420 1      1994.123          39.000  
> 2021  5 18  3 11 39.9990000  0 10                     
J 2  37603751.133 9                      1324.488          23.000  
G21  20204610.495 4 106175966.82024      -652.562          28.000  
G 7  19931859.988 4 104742669.60124       999.053          27.000  
G 8  21723307.761 9                     -2116.354          14.000  
J 3  38653992.052 8 203128099.164 3      -627.607          31.000  
G 9  23688132.303 9                     -2120.737          13.000  
E15  22756068.734 1 119583943.249 1       949.164          37.000  
E27  25179835.869 8 132320915.025 4      1958.926          28.000  
E30  22771874.452 4 119667085.474 3       426.134          28.000  
G 1  19947881.792 1 104826822.183 1      1992.744          38.000  
> 2021  5 18  3 11 40.9990000  0 10                     
J 2  37603499.231 9                      1325.240          23.000  
G21  20204736.154 4 106176619.61624      -653.249          28.000  
G 7  19931669.589 9                       996.312          26.000  
G 8  21723709.849 9                     -2116.354          14.000  
J 3  38654111.752 8 203128727.397 3      -627.783          31.000  
G 9  23688537.140 9                     -2122.600          13.000  
E15  22755888.220 1 119582994.359 1       948.615          37.000  
E27  25179465.044 4 132318956.735 3      1958.186          28.000  
E30  22771796.170 4 119666659.654 3       425.341          28.000  
G 1  19947502.529 1 104824829.889 1      1992.059          38.000  
> 2021  5 18  3 11 41.9990000  0 11                     
J 2  37603246.787 9                      1325.848          23.000  
G21  20204857.992 4 106177272.59824      -653.553          28.000  
G 7  19931480.298 8                       998.637          27.000  
G 8  21724111.431 9                     -2116.354          15.000  
J 3  38654229.235 8 203129355.182 3      -627.783          31.000  
G 9  23688942.028 9                     -2122.600          13.000  
E15  22755707.654 1 119582045.496 1       948.671          38.000  
G30  22240865.436 9                      2928.663          19.000  
E27  25179091.452 4 132316997.933 3      1958.906          28.000  
E30  22771713.822 4 119666233.525 3       426.124          28.000  
G 1  19947123.389 1 104822837.798 1      1992.175          39.000  
> 2021  5 18  3 11 42.9990000  0 11                     
J 2  37602992.546 9                      1324.974          23.000  
G21  20204987.350 4 106177926.248 3      -653.782          28.000  
G 7  19931291.548 8 104739637.81135       997.042          27.000  
G 8  21724515.142 9                     -2119.376          13.000  
J 3  38654352.442 8 203129983.043 3      -628.687          31.000  
G 9  23689346.193 9                     -2122.600          14.000  
E15  22755527.035 1 119581097.173 1       947.521          38.000  
G30  22240307.709 9                      2928.663          18.000  
E27  25178719.640 4 132315039.243 3      1958.296          28.000  
E30  22771633.813 4 119665807.636 3       425.316          29.000  
G 1  19946744.413 1 104820846.413 1      1990.991          39.000  
> 2021  5 18  3 11 43.9990000  0 11                     
J 2  37602739.361 9                      1325.346          22.000  
G21  20205105.828 4 106178581.649 3      -655.683          27.000  
G 7  19931102.684 4 104738641.44525       996.173          26.000  
G 8  21724920.598 9                     -2119.376          13.000  
J 3  38654470.572 4 203130611.875 2      -628.723          31.000  
G 9  23689751.849 9                     -2122.600          13.000  
E15  22755346.975 1 119580150.373 1       946.666          38.000  
G30  22239750.123 9                      2928.663          17.000  
E27  25178348.814 4 132313081.507 3      1957.388          28.000  
E30  22771554.502 4 119665383.025 3       424.084          28.000  
G 1  19946365.578 1 104818856.761 1      1989.172          38.000  
> 2021  5 18  3 11 44.9990000  0 11                     
J 2  37602487.729 9                      1323.204          22.000  
G21  20205230.946 4 106179237.887 3      -656.627          27.000  
G 7  19930912.686 4 104737645.82325       996.674          26.000  
G 8  21725323.750 9                     -2119.376          14.000  
J 3  38654587.270 8 203131240.851 3      -628.546          31.000  
G 9  23690155.743 9                     -2122.600          12.000  
E15  22755166.941 1 119579204.168 1       946.791          38.000  
G30  22239192.213 9                      2928.663          17.000  
E27  25177973.399 4 132311123.898 3      1958.410          28.000  
E30  22771471.500 4 119664958.728 2       424.301          29.000  
G 1  19945987.039 1 104816867.834 1      1988.868          39.000  
> 2021  5 18  3 11 45.9990000  0 11                     
J 2  37602235.757 9                      1318.215          22.000  
G21  20205356.352 8                      -655.137          27.000  
G 7  19930722.950 8                       996.477          25.000  
G 8  21725728.054 9                     -2115.141          16.000  
J 3  38654709.779 4 203131868.724 2      -627.045          32.000  
G 9  23690559.568 9                     -2122.600          11.000  
E15  22754986.820 1 119578257.563 1       947.199          38.000  
G30  22238636.659 9                      2928.663          16.000  
E27  25177600.357 4 132309165.061 3      1960.329          29.000  
E30  22771395.487 2 119664533.312 2       426.734          33.000  
G 1  19945608.465 1 104814878.805 1      1989.429          39.000  
> 2021  5 18  3 11 46.9990000  0 11                     
J 2  37601984.927 9                      1315.828          23.000  
G21  20205482.491 9                      -657.191          25.000  
G 7  19930531.940 8                       995.685          26.000  
G 8  21726131.084 9                     -2111.252          18.000  
J 3  38654831.687 8 203132495.265 4      -627.570          31.000  
G 9  23690963.741 9                     -2119.446          13.000  
E15  22754806.350 1 119577310.873 1       946.233          38.000  
G30  22238080.512 9                      2928.663          18.000  
E27  25177224.628 4 132307203.429 3      1964.899          28.000  
E30  22771322.798 4 119664106.748 2       426.558          33.000  
G 1  19945230.110 1 104812890.190 1      1987.774          38.000  
> 2021  5 18  3 11 47.9990000  0 11                     
J 2  37601731.454 9                      1327.055          25.000  
G21  20205607.766 9                      -657.335          26.000  
G 7  19930341.357 9                       996.729          26.000  
G 8  21726535.101 9                     -2115.528          18.000  
J 3  38654944.214 8 203133121.184 3      -625.507          31.000  
G 9  23691367.181 9                     -2119.446          13.000  
E15  22754625.967 2 119576364.722 1       946.349          37.000  
G30  22237522.314 9                      2928.663          21.000  
E27  25176852.903 8                      1962.140          29.000  
E30  22771232.833 8 119663679.682 3       427.779          28.000  
G 1  19944851.606 2 104810902.682 1      1987.204          38.000  
> 2021  5 18  3 11 48.9990000  0 11                     
J 2  37601478.731 9                      1323.593          24.000  
G21  20205733.574 9                      -657.689          25.000  
G 7  19930153.366 9                       992.861          31.000  
G 8  21726938.715 9                     -2114.392          18.000  
J 3  38655060.860 4 203133747.019 2      -625.867          34.000  
G 9  23691771.660 9                     -2124.885          14.000  
E15  22754445.689 4 119575419.063 2       945.314          36.000  
G30  22236964.021 9                      2928.663          22.000  
E27  25176479.111 9                      1954.757          27.000  
E30  22771157.570 9                       422.314          26.000  
G 1  19944473.433 2 104808915.723 1      1987.187          35.000  
> 2021  5 18  3 11 49.9990000  0 11                     
J 2  37601231.383 9                      1345.103          24.000  
G21  20205856.781 9 106182493.75934      -657.878          35.000  
G 7  19929964.293 8 104732669.21535       994.513          34.000  
G 8  21727341.301 9                     -2115.325          18.000  
J 3  38655182.715 4 203134373.209 2      -627.039          37.000  
G 9  23692176.357 9                     -2124.885          14.000  
E15  22754265.681 2 119574473.984 1       944.685          40.000  
G30  22236407.088 9                      2928.663          21.000  
E27  25176104.036 9                      1958.854          25.000  
E30  22771076.881 9                       430.604          26.000  
G 1  19944095.444 2 104806929.559 2      1984.661          41.000  
> 2021  5 18  3 11 50.9990000  0 11                     
J 2  37600973.382 9 197594448.47835      1323.985          37.000  
G21  20205983.871 8 106183152.01722      -660.060          34.000  
G 7  19929771.546 8 104731674.72123       995.210          37.000  
G 8  21727748.004 9                     -2116.546          18.000  
J 3  38655302.153 4 203134999.288 2      -626.294          34.000  
G 9  23692583.959 9                     -2124.404          16.000  
E15  22754086.049 1 119573529.728 1       943.822          40.000  
G30  22235849.536 9                      2936.109          29.000  
E27  25175725.279 9                      1964.243          31.000  
E30  22771001.548 9                       417.932          25.000  
G 1  19943717.813 2 104804944.563 1      1983.003          39.000  
> 2021  5 18  3 11 51.9990000  0 10                     
J 2  37600721.671 8 197593123.30624      1324.635          37.000  
G21  20206109.181 4 106183810.80521      -658.761          40.000  
G 7  19929582.011 4 104730680.90821       994.427          40.000  
G 8  21728153.111 9                     -2108.072          19.000  
J 3  38655417.866 9                      -630.301          28.000  
G 9  23692989.851 9                     -2138.074          17.000  
E15  22753906.538 2 119572586.332 1       943.177          40.000  
E27  25175360.281 9                      1961.180          25.000  
E30  22770918.625 9                       428.366          25.000  
G 1  19943340.478 4 104802960.846 2      1984.241          42.000  
> 2021  5 18  3 11 52.9990000  0 11                     
J 2  37600472.264 8 197591798.43322      1323.756          38.000  
G21  20206233.147 9                      -657.611          27.000  
G 7  19929393.775 2 104729687.82021       992.467          42.000  
G 8  21728556.307 9                     -2120.792          19.000  
J 3  38655538.089 8 203136223.07435      -627.344          31.000  
G 9  23693396.807 9                     -2128.515          17.000  
E15  22753727.106 1 119571643.885 1       942.100          40.000  
G30  22234731.204 9                      2931.502          28.000  
E27  25174992.352 9                      1964.858          31.000  
E30  22770832.272 9                       425.370          26.000  
G 1  19942963.082 4 104800978.580 2      1980.704          40.000  
> 2021  5 18  3 11 53.9990000  0 11                     
J 2  37600216.295 4 197590474.23722      1323.974          40.000  
G21  20206355.753 8 106185115.53833      -663.707          38.000  
G 7  19929206.473 8 104728696.24424       992.330          35.000  
G 8  21728958.796 9                     -2116.663          18.000  
J 3  38655658.234 9                      -627.338          32.000  
G 9  23693801.801 9                     -2124.938          18.000  
E15  22753548.058 1 119570702.938 1       939.690          40.000  
G30  22234167.109 9                      2929.102          27.000  
E27  25174615.017 9                      1953.536          28.000  
E30  22770751.722 9                       421.627          34.000  
G 1  19942586.533 2 104798998.228 1      1978.638          42.000  
> 2021  5 18  3 11 54.9990000  0 10                     
J 2  37599967.848 8 197589150.75825      1324.257          29.000  
G21  20206482.467 8 106185778.42822      -663.615          34.000  
G 7  19929018.657 4 104727705.69822       988.813          36.000  
G 8  21729363.414 9                     -2113.536          18.000  
J 3  38655779.434 9                      -617.871          30.000  
G 9  23694207.824 9                     -2124.938          18.000  
E15  22753369.551 1 119569763.390 1       939.241          40.000  
E27  25174236.976 9                      1967.042          27.000  
E30  22770669.837 9                       426.453          29.000  
G 1  19942209.529 2 104797019.505 1      1978.815          39.000  
> 2021  5 18  3 11 55.9990000  0 10                     
J 2  37599716.940 9                      1329.112          21.000  
G21  20206605.343 9                      -660.717          22.000  
G 7  19928832.699 4 104726715.53622       989.904          35.000  
G 8  21729763.120 9                     -2113.815          18.000  
J 3  38655898.898 9                      -624.823          30.000  
G 9  23694611.587 9                     -2115.401          15.000  
E15  22753190.818 2 119568824.380 1       938.943          36.000  
E27  25173860.461 9                      1964.805          26.000  
E30  22770589.234 9                       421.588          20.000  
G 1  19941833.268 2 104795041.745 1      1977.436          38.000  
> 2021  5 18  3 11 56.9990000  0 10                     
J 2  37599463.807 9                      1324.400          21.000  
G21  20206736.708 9                      -658.945          22.000  
G 7  19928642.334 4 104725726.17122       989.753          36.000  
G 8  21730162.809 9                     -2108.382          17.000  
J 3  38656017.132 9                      -625.971          25.000  
G 9  23695014.329 9                     -2115.401          11.000  
E15  22753012.127 1 119567885.518 1       939.052          36.000  
E27  25173492.986 9                      1961.552          25.000  
E30  22770505.927 9                       423.228          22.000  
G 1  19941456.989 2 104793063.958 1      1978.167          38.000  
> 2021  5 18  3 11 57.9990000  0 10                     
J 2  37599215.499 9                      1331.357          21.000  
G21  20206862.830 9 106187780.87834      -664.129          36.000  
G 7  19928452.197 4 104724737.68622       987.922          33.000  
G 8  21730563.824 9                     -2121.203          17.000  
J 3  38656133.403 9                      -628.206          31.000  
G 9  23695416.888 9                     -2115.401          11.000  
E15  22752833.393 1 119566945.929 1       939.831          36.000  
E27  25173124.891 9                      1968.481          24.000  
E30  22770425.385 9                       423.117          30.000  
G 1  19941080.369 2 104791084.883 1      1978.750          39.000  
> 2021  5 18  3 11 58.9990000  0 10                     
J 2  37598959.661 9                      1326.284          30.000  
G21  20206989.867 9                      -664.487          28.000  
G 7  19928264.249 4 104723749.90722       986.739          33.000  
G 8  21730967.779 9                     -2117.376          18.000  
J 3  38656254.228 9 203139986.95834      -627.692          31.000  
G 9  23695819.883 9                     -2115.401          10.000  
E15  22752654.607 2 119566006.146 1       938.804          36.000  
E27  25172753.350 9                      1961.152          23.000  
E30  22770341.939 8 119658979.59313       422.950          33.000  
G 1  19940703.645 2 104789105.351 1      1979.024          39.000  
> 2021  5 18  3 11 59.9990000  0 10                     
J 2  37598704.094 9                      1324.718          25.000  
G21  20207116.085 8 106189112.70434      -665.749          29.000  
G 7  19928075.551 4 104722762.34023       986.919          34.000  
G 8  21731371.786 9                     -2118.630          19.000  
J 3  38656370.473 8 203140613.51925      -625.077          24.000  
G 9  23696224.388 9                     -2115.401          12.000  
E15  22752475.821 2 119565066.891 1       939.371          36.000  
E27  25172378.074 9                      1965.980          30.000  
E30  22770257.619 8 119658555.691 2       423.302          39.000  
G 1  19940327.235 2 104787126.845 1      1978.629          38.000  
> 2021  5 18  3 12  0.9990000  0 11                     
J 2  37598453.256 9                      1331.661          23.000  
G21  20207240.505 9                      -665.001          30.000  
G 7  19927884.279 8 104721773.68313       988.771          36.000  
G 8  21731769.651 9                     -2109.350          22.000  
J 3  38656491.691 8 203141234.37134      -625.153          39.000  
G 9  23696628.308 9                     -2122.610          15.000  
E15  22752296.982 2 119564127.382 1       939.501          40.000  
G30  22230261.741 9                      2934.991          29.000  
E27  25172001.202 9 132279769.39115      1964.648          31.000  
E30  22770171.249 4 119658130.590 1       425.718          43.000  
G 1  19939950.913 2 104785148.560 1      1977.827          42.000  
> 2021  5 18  3 12  1.9990000  0 11                     
J 2  37598201.100 9                      1326.014          23.000  
G21  20207368.677 9                      -669.148          28.000  
G 7  19927699.909 4 104720785.646 2       987.709          39.000  
G 8  21732169.898 9                     -2111.642          21.000  
J 3  38656607.429 4 203141859.26621      -625.525          40.000  
G 9  23697028.939 9                     -2091.360          15.000  
E15  22752118.310 2 119563188.248 1       938.881          40.000  
G30  22229700.106 9                      2932.791          28.000  
E27  25171624.957 9                      1961.854          25.000  
E30  22770093.081 4 119657705.169 1       425.465          37.000  
G 1  19939574.581 2 104783171.050 1      1975.567          40.000  
> 2021  5 18  3 12  2.9990000  0  9                     
J 2  37597947.121 9                      1323.303          29.000  
G21  20207487.521 9                      -664.813          27.000  
G 7  19927510.827 2 104719798.913 1       986.787          40.000  
G 8  21732570.468 9                     -2121.120          21.000  
J 3  38656728.325 2 203142484.69121      -625.378          41.000  
E15  22751940.283 1 119562250.602 1       937.385          40.000  
E27  25171257.212 9                      1965.286          26.000  
E30  22770015.907 4 119657280.489 2       422.864          36.000  
G 1  19939198.407 2 104781195.391 1      1974.644          41.000  
> 2021  5 18  3 12  3.9990000  0 11                     
J 2  37597692.584 9 197577208.03935      1323.862          39.000  
G21  20207614.288 9 106191729.36635      -667.315          40.000  
G 7  19927324.974 2 104718812.379 1       986.763          43.000  
G 8  21732968.935 9                     -2114.602          21.000  
J 3  38656844.709 2 203143109.43421      -625.153          43.000  
G 9  23697832.679 9                     -2109.575          15.000  
E15  22751761.671 1 119561313.197 1       936.877          41.000  
G30  22228587.471 9                      2935.877          26.000  
E27  25170881.622 9                      1957.032          24.000  
E30  22769933.115 8 119656855.497 4       424.028          33.000  
G 1  19938822.337 2 104779220.261 2      1974.812          44.000  
> 2021  5 18  3 12  4.9990000  0 10                     
J 2  37597440.515 8 197575882.30322      1326.992          39.000  
G21  20207743.211 4 106192395.83522      -665.579          41.000  
G 7  19927136.729 4 104717825.768 1       987.977          41.000  
G 8  21733369.443 9                     -2123.153          20.000  
J 3  38656965.726 4 203143733.54822      -623.035          38.000  
G 9  23698236.913 9                     -2116.273          16.000  
E15  22751583.129 1 119560375.684 1       937.574          39.000  
E27  25170507.646 9                      1967.873          25.000  
E30  22769857.067 9                       423.052          30.000  
G 1  19938446.329 4 104777245.250 2      1974.473          41.000  
> 2021  5 18  3 12  5.9990000  0 10                     
J 2  37597185.035 4 197574556.53421      1325.047          39.000  
G21  20207870.667 4 106193062.85922      -667.267          37.000  
G 7  19926948.860 4 104716839.698 2       985.566          38.000  
G 8  21733768.068 9                     -2107.432          21.000  
J 3  38657083.166 9                      -621.948          29.000  
G 9  23698640.493 9                     -2108.761          16.000  
E15  22751404.413 1 119559438.487 1       937.140          37.000  
E27  25170135.983 9                      1953.511          24.000  
E30  22769769.824 9                       420.417          30.000  
G 1  19938070.338 2 104775270.741 1      1975.201          39.000  
> 2021  5 18  3 12  6.9990000  0 10                     
J 2  37596931.876 4 197573230.92121      1324.765          36.000  
G21  20207998.996 4 106193730.71021      -668.378          40.000  
G 7  19926760.974 4 104715854.581 2       984.171          38.000  
G 8  21734167.058 9                     -2112.231          20.000  
J 3  38657203.590 9                      -626.433          23.000  
G 9  23699043.898 9                     -2108.761          13.000  
E15  22751226.063 2 119558501.746 1       936.178          37.000  
E27  25169761.440 9                      1961.559          23.000  
E30  22769690.923 9                       423.321          21.000  
G 1  19937694.731 4 104773296.675 2      1973.770          38.000  
> 2021  5 18  3 12  7.9990000  0 10                     
J 2  37596680.288 2 197571906.60321      1323.302          38.000  
G21  20208126.705 2 106194400.40221      -670.284          38.000  
G 7  19926575.269 2 104714871.728 1       981.661          38.000  
G 8  21734568.858 9                     -2112.231          18.000  
J 3  38657325.619 9                      -628.827          23.000  
G 9  23699446.161 9                     -2108.761          13.000  
E15  22751047.835 1 119557566.536 1       935.287          37.000  
E27  25169386.147 9                      1961.556          23.000  
E30  22769614.151 9                       417.771          20.000  
G 1  19937319.324 2 104771324.067 1      1972.930          38.000  
> 2021  5 18  3 12  8.9990000  0 10                     
J 2  37596427.504 2 197570581.67521      1325.321          37.000  
G21  20208253.490 2 106195070.23921      -670.173          37.000  
G 7  19926388.682 2 104713889.241 1       982.270          37.000  
G 8  21734970.728 9                     -2108.978          26.000  
J 3  38657445.249 9                      -624.539          24.000  
G 9  23699849.392 9                     -2122.229          14.000  
E15  22750869.581 1 119556630.689 1       936.256          38.000  
E27  25169012.354 9                      1961.389          23.000  
E30  22769536.079 9                       425.662          21.000  
G 1  19936943.630 2 104769350.404 1      1974.428          39.000  
> 2021  5 18  3 12  9.9990000  0 10                     
J 2  37596176.832 2 197569255.88721      1325.746          39.000  
G21  20208380.536 2 106195739.88521      -670.107          37.000  
G 7  19926201.843 1 104712907.171 1       981.937          38.000  
G 8  21735371.289 9                     -2116.825          19.000  
J 3  38657565.856 9                      -632.576          22.000  
G 9  23700254.385 9                     -2122.229          14.000  
E15  22750691.597 1 119555694.066 1       935.891          35.000  
E27  25168641.223 9                      1958.238          22.000  
E30  22769454.604 9                       425.662          19.000  
G 1  19936567.691 1 104767375.733 1      1974.568          39.000  
> 2021  5 18  3 12 10.9990000  0 11                     
J 2  37595923.673 2 197567930.17121      1325.869          37.000  
G21  20208507.958 2 106196410.20821      -671.136          36.000  
G 7  19926014.977 1 104711925.660 1       981.720          39.000  
G 8  21735771.440 9                     -2120.557          21.000  
J 3  38657685.460 9                      -622.195          20.000  
G 9  23700658.820 9                     -2122.229          13.000  
E15  22750513.247 1 119554757.891 1       935.720          38.000  
G30  22224684.503 9                      2925.509          25.000  
E27  25168268.836 9                      1957.120          22.000  
E30  22769381.435 9                       420.755          19.000  
G 1  19936192.084 1 104765401.688 1      1973.145          38.000  
> 2021  5 18  3 12 11.9990000  0 10                     
J 2  37595672.189 2 197566604.56721      1325.725          39.000  
G21  20208635.929 1 106197081.19921      -671.234          40.000  
G 7  19925828.181 1 104710944.836 1       980.351          37.000  
G 8  21736176.730 9                     -2129.690          19.000  
J 3  38657805.535 9                      -621.642          20.000  
G 9  23701066.632 9                     -2117.314          15.000  
E15  22750335.395 1 119553822.325 1       935.059          38.000  
E27  25167892.260 9                      1964.399          21.000  
E30  22769298.389 9                       421.002          28.000  
G 1  19935816.756 1 104763428.380 1      1973.442          41.000  
> 2021  5 18  3 12 12.9990000  0 10                     
J 2  37595419.998 1 197565278.64311      1325.896          39.000  
G21  20208764.040 2 106197753.010 1      -671.678          39.000  
G 7  19925641.726 2 104709965.059 1       979.416          37.000  
G 8  21736578.896 9                     -2116.779          21.000  
J 3  38657925.026 9                      -627.113          20.000  
G 9  23701470.866 9                     -2113.393          16.000  
E15  22750157.141 1 119552887.128 1       935.510          38.000  
E27  25167520.230 9                      1959.496          21.000  
E30  22769217.089 9                       423.019          21.000  
G 1  19935441.672 1 104761455.508 1      1973.175          41.000  
> 2021  5 18  3 12 13.9990000  0  9                     
J 2  37595168.008 1 197563953.152 1      1325.515          39.000  
G21  20208892.072 1 106198425.470 1      -673.131          39.000  
G 7  19925455.087 1 104708985.899 1       979.068          38.000  
G 8  21736982.546 9                     -2118.485          19.000  
G 9  23701875.196 9                     -2113.393          15.000  
E15  22749979.358 1 119551952.356 1       934.435          38.000  
E27  25167146.237 9                      1955.974          23.000  
E30  22769135.588 9                       421.625          22.000  
G 1  19935066.736 1 104759483.070 1      1971.790          41.000  
> 2021  5 18  3 12 14.9990000  0 10                     
J 2  37594915.783 1 197562627.758 1      1324.723          42.000  
G21  20209020.165 2 106199098.699 1      -673.334          44.000  
G 7  19925268.849 2 104708007.061 1       979.280          44.000  
G 8  21737382.156 9                     -2115.705          21.000  
J 3  38658166.484 9                      -629.908          19.000  
G 9  23702278.724 9                     -2114.897          15.000  
E15  22749801.610 1 119551018.707 1       933.065          44.000  
E27  25166773.143 9                      1963.031          22.000  
E30  22769056.154 9                       421.671          25.000  
G 1  19934691.461 1 104757512.590 1      1968.868          46.000  
> 2021  5 18  3 12 15.9990000  0 10                     
J 2  37594663.854 1 197561302.722 1      1324.947          42.000  
G21  20209148.381 1 106199772.616 1      -673.664          43.000  
G 7  19925082.708 2 104707028.855 1       977.652          39.000  
G 8  21737786.207 9                     -2122.614          21.000  
J 3  38658286.044 9                      -627.440          20.000  
G 9  23702685.096 9                     -2114.897          15.000  
E15  22749624.010 1 119550085.906 1       932.136          40.000  
E27  25166401.113 9                      1962.949          22.000  
E30  22768973.239 9                       420.244          26.000  
G 1  19934316.534 2 104755543.314 1      1967.929          40.000  
> 2021  5 18  3 12 16.9990000  0 11                     
J 2  37594411.559 1 197559977.985 1      1323.863          43.000  
G21  20209276.797 1 106200447.691 1      -675.358          40.000  
G 7  19924896.531 2 104706051.589 1       978.037          35.000  
G30  22221372.112 9                      2927.653          30.000  
G 8  21738189.944 9                     -2113.367          21.000  
J 3  38658405.971 9                      -634.875          22.000  
G 9  23703091.285 9                     -2120.073          14.000  
E15  22749446.690 1 119549154.174 1       931.171          40.000  
E27  25166030.034 9                      1960.468          20.000  
E30  22768890.499 9                       424.565          31.000  
G 1  19933941.939 2 104753575.390 1      1965.767          40.000  
> 2021  5 18  3 12 17.9990000  0 11                     
J 2  37594159.717 2 197558654.539 1      1323.377          35.000  
G21  20209405.815 2 106201124.706 1      -677.907          38.000  
G 7  19924711.149 2 104705075.977 1       974.576          42.000  
G30  22220797.511 9                      2923.085          26.000  
G 8  21738588.472 9                     -2126.213          22.000  
J 3  38658525.304 9                      -608.461          21.000  
G 9  23703497.168 9                     -2121.899          15.000  
E15  22749269.457 1 119548223.675 1       929.801          40.000  
E27  25165658.745 9                      1959.179          22.000  
E30  22768811.424 9                       419.038          31.000  
G 1  19933567.597 2 104751608.692 1      1967.329          44.000  
> 2021  5 18  3 12 18.9990000  0 10                     
J 2  37593902.100 4 197557330.465 2      1324.672          33.000  
G21  20209535.427 4 106201801.376 2      -675.348          35.000  
G 7  19924525.880 1 104704100.714 1       975.799          41.000  
G30  22220238.275 9                      2920.665          30.000  
G 8  21738991.668 9                     -2118.137          29.000  
J 3  38658643.311 9                      -626.798          29.000  
G 9  23703903.016 9                     -2120.513          17.000  
E15  22749092.843 1 119547292.407 1       931.340          43.000  
E30  22768737.356 8                       421.389          26.000  
G 1  19933193.107 1 104749641.108 1      1968.223          44.000  
> 2021  5 18  3 12 19.9990000  0 10                     
J 2  37593655.362 9                      1326.280          23.000  
G21  20209666.792 8 106202515.15435      -678.329          27.000  
G 7  19924340.821 1 104703124.953 1       974.729          42.000  
G30  22219677.032 9                      2925.171          24.000  
G 8  21739382.998 9                     -2112.368          29.000  
J 3  38658763.692 9 203153166.66034      -624.316          33.000  
G 9  23704308.324 9                     -2118.468          18.000  
E15  22748915.933 1 119546360.979 1       931.403          41.000  
E30  22768652.531 9                       414.907          27.000  
G 1  19932818.817 1 104747673.698 1      1966.804          43.000  
> 2021  5 18  3 12 20.9990000  0 10                     
J 2  37593408.424 9                      1334.250          23.000  
G21  20209792.678 8 106203192.21625      -677.266          28.000  
G 7  19924154.784 1 104702149.826 1       974.401          40.000  
G30  22219114.455 9                      2923.009          30.000  
G 8  21739777.067 9                     -2118.348          27.000  
J 3  38658881.551 8 203153791.62925      -626.267          28.000  
G 9  23704710.115 9                     -2118.468          16.000  
E15  22748739.023 1 119545430.064 1       930.899          43.000  
E30  22768579.624 9                       419.426          27.000  
G 1  19932444.466 1 104745707.050 1      1966.644          43.000  
> 2021  5 18  3 12 21.9990000  0 10                     
J 2  37593158.720 9                      1322.369          29.000  
G21  20209925.535 9                      -679.309          27.000  
G 7  19923969.122 2 104701175.690 1       973.503          40.000  
G30  22218562.042 9                      2921.230          23.000  
G 8  21740175.596 9                     -2117.761          31.000  
J 3  38659003.781 9                      -625.424          26.000  
G 9  23705115.213 9                     -2119.788          16.000  
E15  22748561.598 1 119544499.593 1       929.971          41.000  
E30  22768491.517 9                       420.039          26.000  
G 1  19932070.403 1 104743740.632 1      1966.423          42.000  
> 2021  5 18  3 12 22.9990000  0 10                     
J 2  37592906.539 9                      1323.809          29.000  
G21  20210057.799 9                      -676.935          27.000  
G 7  19923783.696 1 104700202.265 1       973.797          41.000  
G30  22217995.346 8 116756353.47735      2922.768          35.000  
G 8  21740570.363 9                     -2117.096          26.000  
J 3  38659119.205 9                      -626.746          32.000  
G 9  23705518.069 9                     -2121.804          15.000  
E15  22748384.504 1 119543569.649 1       929.529          40.000  
E30  22768420.862 9                       419.474          26.000  
G 1  19931696.515 1 104741775.122 1      1965.049          44.000  
> 2021  5 18  3 12 23.9990000  0 10                     
J 2  37592654.767 9                      1320.834          18.000  
G21  20210190.316 9                      -682.009          25.000  
G 7  19923598.322 1 104699229.544 1       972.568          42.000  
G30  22217443.352 9                      2920.817          32.000  
G 8  21740976.325 9                     -2117.350          25.000  
J 3  38659233.862 9                      -622.577          26.000  
G 9  23705923.699 9                     -2121.773          17.000  
E15  22748207.733 1 119542640.067 1       929.448          42.000  
E30  22768338.261 9                       420.073          28.000  
G 1  19931322.792 1 104739810.023 1      1964.426          43.000  
> 2021  5 18  3 12 24.9990000  0 10                     
J 2  37592406.197 9                      1325.128          30.000  
G21  20210328.556 9                      -678.183          23.000  
G 7  19923413.874 1 104698257.667 1       971.228          42.000  
G30  22216888.488 8                      2919.996          32.000  
G 8  21741388.063 9                     -2119.374          23.000  
J 3  38659361.083 9                      -630.150          26.000  
G 9  23706329.836 9                     -2121.773          15.000  
E15  22748031.504 1 119541711.044 1       928.721          42.000  
E30  22768255.433 8 119647999.84615       420.122          28.000  
G 1  19930949.209 1 104737845.581 1      1963.901          43.000  
> 2021  5 18  3 12 25.9990000  0  9                     
J 2  37592151.049 9                      1326.780          23.000  
G21  20210455.812 9                      -681.375          22.000  
G 7  19923228.657 1 104697286.496 1       970.789          40.000  
G 8  21741787.298 9                     -2125.272          23.000  
J 3  38659469.030 9 203156879.98935      -625.708          27.000  
G 9  23706734.401 9                     -2121.773          14.000  
E15  22747855.317 1 119540782.634 1       928.343          43.000  
E30  22768178.469 9                       406.940          25.000  
G 1  19930575.670 1 104735881.924 1      1963.734          44.000  
> 2021  5 18  3 12 26.9990000  0 10                     
J 2  37591900.560 9 197546770.45135      1324.831          27.000  
G21  20210584.525 9                      -674.056          22.000  
G 7  19923044.330 2 104696316.096 1       969.760          40.000  
G30  22215774.160 9                      2919.493          30.000  
G 8  21742191.113 9                     -2107.449          25.000  
J 3  38659590.056 8 203157506.19223      -626.416          30.000  
G 9  23707139.212 9                     -2121.773          14.000  
E15  22747678.809 1 119539854.349 1       927.902          43.000  
E30  22768089.639 9                       413.106          23.000  
G 1  19930201.843 1 104733918.425 1      1963.198          43.000  
> 2021  5 18  3 12 27.9990000  0  9                     
J 2  37591645.970 8 197545445.44623      1325.189          31.000  
G21  20210714.861 9                      -684.962          19.000  
G 7  19922860.405 1 104695346.364 1       969.326          41.000  
G 8  21742588.193 9                     -2121.056          26.000  
J 3  38659708.211 9                      -626.644          29.000  
G 9  23707545.706 9                     -2123.728          13.000  
E15  22747502.029 1 119538926.500 1       927.713          41.000  
E30  22768023.538 9                       415.423          20.000  
G 1  19929828.600 1 104731955.379 1      1962.981          44.000  
> 2021  5 18  3 12 28.9990000  0  9                     
J 2  37591386.136 8 197544120.56523      1323.747          32.000  
G21  20210846.767 9                      -697.224          19.000  
G 7  19922676.174 1 104694377.486 1       968.612          39.000  
G 8  21742986.189 9                     -2117.330          27.000  
J 3  38659827.248 9 203158763.22535      -626.267          29.000  
G 9  23707951.048 9                     -2123.728          13.000  
E15  22747325.721 1 119537998.983 1       927.527          41.000  
E30  22767956.084 9                       425.437          22.000  
G 1  19929454.659 1 104729992.721 1      1962.419          41.000  
> 2021  5 18  3 12 29.9990000  0  9                     
J 2  37591136.170 8 197542795.52622      1325.580          33.000  
G21  20210979.563 9                      -687.630          18.000  
G 7  19922492.040 1 104693409.228 1       967.896          39.000  
G 8  21743386.889 9 114262281.71035     -2117.879          28.000  
J 3  38659946.607 8 203159389.41225      -626.497          28.000  
G 9  23708354.165 9                     -2123.728          13.000  
E15  22747149.290 1 119537071.856 1       927.211          42.000  
E30  22767881.240 9                       418.253          24.000  
G 1  19929080.797 1 104728030.613 1      1961.856          40.000  
> 2021  5 18  3 12 30.9990000  0 10                     
J 2  37590886.100 4 197541470.43322      1324.969          32.000  
G21  20211113.109 9                      -684.117          18.000  
G 7  19922307.757 1 104692441.451 1       967.933          39.000  
G30  22213539.459 9                      2918.621          26.000  
G 8  21743791.281 8 114264399.68124     -2117.905          28.000  
J 3  38660064.763 8 203160015.31824      -625.588          28.000  
G 9  23708757.074 9                     -2120.584          13.000  
E15  22746973.087 1 119536145.095 1       926.574          42.000  
E30  22767802.941 9                       418.768          25.000  
G 1  19928706.917 1 104726069.088 1      1961.144          40.000  
> 2021  5 18  3 12 31.9990000  0 10                     
J 2  37590636.483 8 197540145.37723      1326.333          27.000  
G21  20211237.852 9                      -687.502          24.000  
G 7  19922123.875 1 104691473.919 1       967.184          40.000  
G30  22212996.426 9                      2920.804          26.000  
G 8  21744194.128 9                     -2119.534          26.000  
J 3  38660183.686 8 203160640.44524      -625.736          29.000  
G 9  23709160.017 9                     -2120.584          12.000  
E15  22746796.604 1 119535219.049 1       925.555          40.000  
E30  22767720.357 9                       418.952          22.000  
G 1  19928333.570 1 104724108.736 1      1959.055          42.000  
> 2021  5 18  3 12 32.9990000  0 10                     
J 2  37590386.474 9                      1326.330          27.000  
G21  20211358.922 9                      -683.848          32.000  
G 7  19921939.828 1 104690506.808 1       966.390          41.000  
G30  22212443.612 9                      2919.916          27.000  
G 8  21744595.570 9                     -2106.822          25.000  
J 3  38660301.047 8 203161265.75825      -626.538          29.000  
G 9  23709564.233 9                     -2120.584          11.000  
E15  22746619.982 1 119534294.117 1       924.069          42.000  
E30  22767638.839 9                       426.078          22.000  
G 1  19927960.842 2 104722150.119 1      1957.161          42.000  
> 2021  5 18  3 12 33.9990000  0 10                     
J 2  37590137.617 9                      1322.375          26.000  
G21  20211490.898 9                      -687.557          26.000  
G 7  19921755.867 2 104689540.313 1       967.528          40.000  
G30  22211890.545 9                      2918.365          28.000  
G 8  21744997.003 9                     -2118.963          24.000  
J 3  38660422.867 8 203161890.62323      -623.511          34.000  
G 9  23709967.778 9                     -2120.584          11.000  
E15  22746443.988 1 119533370.064 1       923.893          42.000  
E30  22767559.929 9                       419.748          21.000  
G 1  19927588.830 2 104720192.980 1      1955.996          41.000  
> 2021  5 18  3 12 34.9990000  0 10                     
J 2  37589887.956 9                      1326.270          27.000  
G21  20211617.831 9                      -684.892          31.000  
G 7  19921571.811 2 104688574.233 1       966.745          41.000  
G30  22211339.990 9                      2917.311          28.000  
G 8  21745400.487 9                     -2115.309          29.000  
J 3  38660541.162 8 203162515.24423      -623.267          30.000  
G 9  23710371.777 9                     -2120.584          10.000  
E15  22746268.438 1 119532446.750 1       923.405          42.000  
E30  22767474.807 9                       417.012          22.000  
G 1  19927216.712 2 104718236.905 1      1955.500          41.000  
> 2021  5 18  3 12 35.9990000  0  9                     
J 2  37589633.776 9                      1325.995          28.000  
G21  20211749.754 9                      -687.532          25.000  
G 7  19921387.755 2 104687608.653 1       964.497          41.000  
G30  22210779.576 9                      2919.922          33.000  
G 8  21745804.783 9                     -2111.715          23.000  
J 3  38660661.211 8                      -622.253          31.000  
E15  22746092.322 1 119531524.039 1       922.593          42.000  
E30  22767392.477 9                       429.123          22.000  
G 1  19926844.831 1 104716281.871 1      1953.673          44.000  
> 2021  5 18  3 12 36.9990000  0  9                     
J 2  37589378.933 8 197533518.94835      1323.655          32.000  
G21  20211880.526 9                      -686.071          27.000  
G 7  19921203.873 2 104686643.611 1       964.966          39.000  
G30  22210220.306 9                      2922.086          30.000  
G 8  21746208.031 9                     -2121.417          25.000  
J 3  38660783.406 9                      -623.889          30.000  
E15  22745916.511 1 119530602.044 1       922.256          42.000  
E30  22767308.672 9                       415.512          24.000  
G 1  19926473.176 1 104714327.790 1      1953.110          44.000  
> 2021  5 18  3 12 37.9990000  0  9                     
J 2  37589122.895 9                      1323.083          29.000  
G21  20212012.886 9                      -686.237          28.000  
G 7  19921020.856 2 104685679.259 1       963.912          40.000  
G30  22209660.965 9                      2918.301          29.000  
G 8  21746611.262 9                     -2116.419          25.000  
J 3  38660899.188 9                      -614.148          29.000  
E15  22745741.346 1 119529680.780 1       920.569          42.000  
E30  22767215.732 9 119642536.43015       417.777          31.000  
G 1  19926101.478 2 104712374.859 1      1952.750          42.000  
> 2021  5 18  3 12 38.9990000  0  9                     
J 2  37588870.495 9                      1326.293          30.000  
G21  20212140.631 9                      -688.125          29.000  
G 7  19920837.436 2 104684715.259 1       964.389          44.000  
G30  22209115.201 9                      2912.839          23.000  
G 8  21747014.222 9                     -2113.569          25.000  
J 3  38661016.183 9                      -624.011          29.000  
E15  22745566.434 1 119528760.267 1       920.024          43.000  
E30  22767133.978 9                       417.284          24.000  
G 1  19925730.015 1 104710423.064 1      1951.035          44.000  
> 2021  5 18  3 12 39.9990000  0  9                     
J 2  37588619.465 9                      1298.621          30.000  
G21  20212271.115 9                      -684.028          32.000  
G 7  19920653.546 2 104683751.651 1       963.097          43.000  
G 8  21747413.789 9                     -2108.614          27.000  
J 3  38661139.635 9                      -643.318          23.000  
G 9  23712396.072 9                     -2120.584          11.000  
E15  22745391.129 1 119527840.822 1       919.164          44.000  
E30  22767054.073 9                       427.727          22.000  
G 1  19925359.032 2 104708473.103 1      1949.404          43.000  
> 2021  5 18  3 12 40.9990000  0 10                     
J 2  37588367.510 9                      1325.093          32.000  
G21  20212403.012 9                      -687.371          25.000  
G 7  19920470.467 2 104682788.905 1       962.259          45.000  
G30  22207998.570 9                      2909.069          27.000  
G 8  21747814.917 9                     -2112.971          26.000  
J 3  38661255.557 9                      -623.138          34.000  
G 9  23712800.708 9                     -2120.584          13.000  
E15  22745215.928 1 119526922.246 1       917.943          43.000  
E30  22766975.451 9                       419.561          30.000  
G 1  19924987.918 2 104706524.307 1      1948.708          44.000  
> 2021  5 18  3 12 41.9990000  0 10                     
J 2  37588113.575 9                      1322.955          35.000  
G21  20212533.801 9                      -690.503          31.000  
G 7  19920287.126 2 104681827.847 1       959.300          44.000  
G30  22207447.335 9                      2916.810          26.000  
G 8  21748210.636 9                     -2112.390          30.000  
J 3  38661377.883 9                      -634.621          29.000  
G 9  23713204.314 9                     -2113.654          13.000  
E15  22745041.531 1 119526004.617 1       917.599          43.000  
E30  22766901.593 9                       426.344          28.000  
G 1  19924617.084 1 104704576.342 1      1947.052          44.000  
> 2021  5 18  3 12 42.9990000  0  9                     
J 2  37587860.869 9                      1324.561          31.000  
G21  20212665.367 9                      -692.820          27.000  
G 7  19920104.274 2 104680868.109 1       959.077          42.000  
G 8  21748611.371 9                     -2118.854          26.000  
J 3  38661497.207 9                      -630.590          27.000  
G 9  23713607.187 9                     -2113.654          13.000  
E15  22744866.872 1 119525087.542 1       917.169          43.000  
E30  22766818.286 9                       415.223          26.000  
G 1  19924246.389 1 104702628.674 1      1947.685          44.000  
> 2021  5 18  3 12 43.9990000  0  9                     
J 2  37587610.406 9                      1327.418          27.000  
G21  20212794.682 9 106218952.18135      -692.513          31.000  
G 7  19919921.841 2 104679909.166 1       957.919          42.000  
G 8  21749015.919 9                     -2113.922          26.000  
J 3  38661616.689 9                      -625.281          27.000  
G 9  23714008.045 9                     -2113.654          12.000  
E15  22744692.396 1 119524170.144 1       917.637          44.000  
E30  22766735.947 9                       411.607          25.000  
G 1  19923875.772 1 104700680.425 1      1949.097          45.000  
> 2021  5 18  3 12 44.9990000  0  9                     
J 2  37587364.585 9                      1325.144          25.000  
G21  20212935.174 9                      -692.078          31.000  
G 7  19919739.189 2 104678950.781 1       958.872          38.000  
G 8  21749417.719 9                     -2117.535          31.000  
J 3  38661735.202 9                      -623.797          27.000  
G 9  23714409.949 9                     -2113.654          12.000  
E15  22744517.684 1 119523252.189 1       918.214          44.000  
E30  22766664.829 9                       414.227          30.000  
G 1  19923505.199 1 104698731.229 1      1949.467          46.000  
> 2021  5 18  3 12 45.9990000  0  9                     
J 2  37587108.966 9                      1326.351          26.000  
G21  20213063.119 9                      -694.067          26.000  
G 7  19919556.756 1 104677993.057 1       957.104          41.000  
G 8  21749822.861 9                     -2122.578          25.000  
J 3  38661856.891 9                      -631.436          26.000  
G 9  23714812.090 9                     -2107.770          12.000  
E15  22744342.432 1 119522333.789 1       918.157          41.000  
E30  22766578.529 9                       421.337          20.000  
G 1  19923134.487 1 104696781.254 1      1950.302          44.000  
> 2021  5 18  3 12 46.9990000  0  8                     
J 2  37586859.977 9                      1318.170          26.000  
G21  20213194.798 9                      -697.786          26.000  
G 7  19919374.462 1 104677035.523 1       957.971          41.000  
G 8  21750226.162 9                     -2113.722          24.000  
J 3  38661971.495 9                      -616.966          26.000  
E15  22744167.642 1 119521415.951 1       917.538          43.000  
E30  22766500.448 9                       415.077          22.000  
G 1  19922763.748 1 104694832.358 1      1947.902          44.000  
> 2021  5 18  3 12 47.9990000  0  9                     
J 2  37586607.883 9                      1324.341          25.000  
G21  20213330.299 9                      -686.871          27.000  
G 7  19919192.055 2 104676078.364 1       956.525          37.000  
G 8  21750638.650 9                     -2115.342          23.000  
J 3  38662087.400 9                      -625.447          31.000  
G 9  23715619.110 9                     -2107.770          11.000  
E15  22743993.043 1 119520498.806 1       917.366          43.000  
E30  22766422.969 9                       417.777          25.000  
G 1  19922392.949 1 104692884.649 1      1946.967          45.000  
> 2021  5 18  3 12 48.9990000  0  9                     
J 2  37586352.420 9                      1321.611          24.000  
G21  20213460.181 9                      -693.459          27.000  
G 7  19919008.968 8 104675120.715 3       957.248          34.000  
G 8  21751042.780 9                     -2111.667          30.000  
J 3  38662203.993 9                      -626.253          25.000  
G 9  23716021.529 9                     -2107.770          11.000  
E15  22743818.794 1 119519581.603 1       916.859          42.000  
E30  22766348.308 9                       415.475          31.000  
G 1  19922022.184 2 104690937.283 1      1946.376          45.000  
> 2021  5 18  3 12 49.9990000  0  9                     
J 2  37586104.897 9                      1325.067          23.000  
G21  20213590.063 9                      -694.211          31.000  
G 7  19918826.796 8 104674163.708 3       957.368          37.000  
G 8  21751442.346 9                     -2118.879          26.000  
J 3  38662325.491 9                      -626.054          28.000  
G 9  23716422.378 9                     -2107.770          11.000  
E15  22743644.152 1 119518665.150 1       916.461          41.000  
E30  22766274.258 9                       413.748          21.000  
G 1  19921652.012 1 104688991.057 1      1945.496          45.000  
> 2021  5 18  3 12 50.9990000  0  9                     
J 2  37585852.454 9                      1318.065          23.000  
G21  20213725.730 9                      -675.138          31.000  
G 7  19918644.398 9                       955.495          29.000  
G 8  21751840.455 9                     -2115.639          27.000  
J 3  38662446.377 9                      -624.174          29.000  
G 9  23716824.623 9                     -2107.770          11.000  
E15  22743469.580 1 119517748.814 1       916.186          43.000  
E30  22766187.382 9                       417.521          29.000  
G 1  19921281.413 1 104687045.267 1      1945.171          44.000  
> 2021  5 18  3 12 51.9990000  0  9                     
J 2  37585598.928 9                      1325.550          35.000  
G21  20213854.486 9                      -694.750          24.000  
G 7  19918460.542 8 104672215.92335       957.354          31.000  
G 8  21752233.722 9                     -2110.777          32.000  
J 3  38662561.409 9                      -624.130          29.000  
G 9  23717226.231 9                     -2107.770          11.000  
E15  22743295.506 1 119516832.889 1       915.799          44.000  
E30  22766112.494 9                       415.013          29.000  
G 1  19920911.277 1 104685100.129 1      1944.628          44.000  
> 2021  5 18  3 12 52.9990000  0  8                     
J 2  37585344.469 9                      1325.734          25.000  
G21  20213991.933 9                      -688.516          26.000  
G 7  19918279.740 8 104671260.66023       954.123          38.000  
G 8  21752636.604 9 114310876.65235     -2114.050          35.000  
J 3  38662679.137 9                      -623.358          33.000  
E15  22743121.545 1 119515918.157 1       914.650          43.000  
E30  22766025.147 9                       413.053          24.000  
G 1  19920540.791 2 104683156.409 1      1942.886          43.000  
> 2021  5 18  3 12 53.9990000  0  9                     
J 2  37585090.822 9                      1320.318          26.000  
G21  20214124.336 9                      -701.409          24.000  
G 7  19918100.509 8 104670306.44023       954.113          34.000  
E27  25152187.457 9                      1951.022          25.000  
G 8  21753035.568 9 114312973.32824     -2117.166          35.000  
J 3  38662798.549 9 203174373.36935      -623.785          29.000  
E15  22742947.138 1 119515003.308 1       915.184          43.000  
E30  22765947.110 9                       416.095          31.000  
G 1  19920170.751 2 104681212.264 1      1945.094          43.000  
> 2021  5 18  3 12 54.9990000  0  9                     
J 2  37584839.425 9                      1326.350          26.000  
G21  20214247.107 9                      -698.243          29.000  
G 7  19917919.367 4 104669353.54422       952.258          35.000  
E27  25151812.172 9 132173675.10815      1961.940          28.000  
G 8  21753435.676 9                     -2122.064          25.000  
J 3  38662920.386 8 203175017.91433      -625.171          35.000  
E15  22742772.994 1 119514087.283 1       916.011          44.000  
E30  22765853.961 9                       414.288          26.000  
G 1  19919799.890 1 104679265.851 1      1946.128          41.000  
> 2021  5 18  3 12 55.9990000  0  9                     
J 2  37584585.996 9                      1325.704          25.000  
G21  20214368.221 9                      -699.226          26.000  
G 7  19917741.331 4 104668401.21821       952.906          35.000  
E27  25151435.265 9 132171712.975 4      1962.633          30.000  
G 8  21753843.662 9                     -2114.969          22.000  
J 3  38663038.393 4 203175642.45022      -623.834          35.000  
E15  22742599.286 1 119513171.258 1       916.064          44.000  
E30  22765771.578 9 119634947.01015       414.561          28.000  
G 1  19919428.698 1 104677319.325 1      1946.203          41.000  
> 2021  5 18  3 12 56.9990000  0  9                     
J 2  37584329.111 9                      1327.160          25.000  
G21  20214494.796 9                      -698.521          25.000  
G 7  19917558.261 4 104667449.36222       951.979          31.000  
E27  25151064.718 8 132169750.602 4      1962.631          29.000  
G 8  21754250.575 9                     -2120.704          19.000  
J 3  38663158.983 4 203176266.79722      -624.603          34.000  
E15  22742425.106 1 119512255.443 1       915.973          42.000  
E30  22765696.926 8 119634532.223 4       415.186          28.000  
G 1  19919058.081 1 104675373.225 1      1945.773          39.000  
> 2021  5 18  3 12 57.9990000  0  9                     
J 2  37584073.552 9                      1328.477          23.000  
G21  20214625.760 9                      -702.806          23.000  
G 7  19917378.096 4 104666498.22522       950.739          31.000  
E27  25150690.149 8 132167788.282 3      1961.837          28.000  
G 8  21754656.746 9                     -2116.182          18.000  
J 3  38663277.793 4 203176891.16822      -624.597          32.000  
E15  22742251.102 1 119511340.230 1       914.626          42.000  
E30  22765618.496 8 119634117.775 4       413.684          27.000  
G 1  19918687.788 1 104673427.832 1      1944.918          39.000  
> 2021  5 18  3 12 58.9990000  0  9                     
J 2  37583818.352 9                      1326.558          22.000  
G21  20214759.908 9                      -697.526          22.000  
G 7  19917193.787 4 104665547.52323       950.658          27.000  
E27  25150317.151 8 132165825.725 3      1962.142          27.000  
G 8  21755059.069 9                     -2117.477          17.000  
J 3  38663395.817 8 203177515.31923      -624.109          32.000  
E15  22742076.870 1 119510425.222 1       914.790          40.000  
E30  22765538.557 8 119633703.199 5       414.585          26.000  
G 1  19918317.372 2 104671482.856 1      1944.662          37.000  
> 2021  5 18  3 12 59.9990000  0  9                     
J 2  37583569.852 9                      1334.216          23.000  
G21  20214896.901 9                      -700.702          26.000  
G 7  19917010.141 4 104664597.23422       950.206          34.000  
E27  25149943.315 8 132163862.843 3      1963.652          31.000  
G 8  21755460.582 9                     -2121.524          19.000  
J 3  38663515.657 4 203178139.18022      -623.499          36.000  
E15  22741902.734 1 119509510.467 1       914.805          44.000  
E30  22765458.033 8 119633288.634 4       414.793          30.000  
G 1  19917947.349 1 104669538.326 1      1944.553          41.000  
> 2021  5 18  3 13  0.9990000  0  9                     
J 2  37583315.375 9                      1327.181          25.000  
G21  20215040.857 9 106230699.86634      -701.330          28.000  
G 7  19916828.580 4 104663646.31112       951.032          34.000  
E27  25149569.357 8 132161899.210 3      1964.601          31.000  
G 8  21755866.578 9                     -2112.624          21.000  
J 3  38663635.304 4 203178762.29121      -622.681          36.000  
E15  22741728.485 1 119508595.414 1       915.235          44.000  
E30  22765383.259 8 119632873.436 3       416.088          29.000  
G 1  19917577.081 1 104667593.676 1      1944.551          41.000  
> 2021  5 18  3 13  1.9990000  0  9                     
J 2  37583062.016 9                      1327.061          26.000  
G21  20215179.551 8 106231400.61924      -701.981          29.000  
G 7  19916647.726 4 104662696.256 2       949.848          34.000  
E27  25149198.889 8 132159935.322 3      1963.427          30.000  
G 8  21756269.818 9                     -2113.214          22.000  
J 3  38663753.014 4 203179385.08821      -622.986          36.000  
E15  22741554.454 1 119507680.525 1       914.499          44.000  
E30  22765310.290 8 119632458.155 3       415.474          29.000  
G 1  19917207.145 1 104665649.329 1      1943.897          42.000  
> 2021  5 18  3 13  2.9990000  0  9                     
J 2  37582808.028 9                      1327.031          26.000  
G21  20215319.825 8 106232102.08523      -702.322          30.000  
G 7  19916470.127 4 104661746.989 2       949.107          34.000  
E27  25148817.977 8 132157971.541 3      1962.984          30.000  
G 8  21756674.096 9                     -2113.853          23.000  
J 3  38663867.819 4 203180007.97321      -623.547          35.000  
E15  22741380.353 1 119506766.225 1       913.993          44.000  
E30  22765225.273 8 119632043.191 3       414.983          29.000  
G 1  19916837.515 1 104663705.774 1      1943.067          42.000  
> 2021  5 18  3 13  3.9990000  0  9                     
J 2  37582555.322 9                      1327.373          26.000  
G21  20215450.684 8 106232804.43323      -702.371          31.000  
G 7  19916290.660 4 104660798.531 1       948.443          34.000  
E27  25148448.852 8 132156007.783 3      1963.835          30.000  
G 8  21757077.833 9                     -2121.977          22.000  
J 3  38663987.345 4 203180631.01521      -622.943          35.000  
E15  22741206.383 1 119505852.598 1       913.415          44.000  
E30  22765148.710 8 119631628.562 3       414.838          29.000  
G 1  19916468.207 1 104661763.052 1      1942.141          42.000  
> 2021  5 18  3 13  4.9990000  0  9                     
J 2  37582302.067 8 197496334.21835      1327.465          26.000  
G21  20215589.457 8 106233507.44823      -703.113          32.000  
G 7  19916110.102 4 104659850.834 2       947.656          34.000  
E27  25148075.915 8 132154044.146 3      1964.020          30.000  
G 8  21757482.556 9                     -2125.459          22.000  
J 3  38664106.809 2 203181254.09721      -622.876          36.000  
E15  22741032.701 1 119504939.488 1       912.841          44.000  
E30  22765069.844 4 119631214.203 2       414.603          28.000  
G 1  19916099.004 1 104659821.015 1      1941.541          42.000  
> 2021  5 18  3 13  5.9990000  0  9                     
J 2  37582050.749 8 197495007.32525      1326.463          26.000  
G21  20215723.771 8 106234211.11222      -704.641          32.000  
G 7  19915929.606 4 104658903.685 2       946.801          34.000  
E27  25147701.145 8 132152080.460 3      1963.818          30.000  
G 8  21757885.490 9                     -2117.690          21.000  
J 3  38664225.235 2 203181877.14021      -623.071          35.000  
E15  22740859.211 1 119504026.801 1       912.437          44.000  
E30  22764988.892 4 119630799.968 3       413.798          28.000  
G 1  19915730.124 1 104657879.582 1      1941.189          42.000  
> 2021  5 18  3 13  6.9990000  0  9                     
J 2  37581796.779 4 197493680.71124      1326.326          26.000  
G21  20215862.666 4 106234915.724 2      -705.526          33.000  
G 7  19915749.040 4 104657957.586 2       945.442          34.000  
E27  25147324.953 8 132150117.111 3      1963.065          30.000  
G 8  21758287.526 9                     -2120.372          21.000  
J 3  38664344.271 2 203182500.504 1      -623.859          35.000  
E15  22740685.520 1 119503114.922 1       911.513          44.000  
E30  22764918.140 4 119630386.242 3       413.193          28.000  
G 1  19915361.357 1 104655939.145 1      1939.920          43.000  
> 2021  5 18  3 13  7.9990000  0  9                     
J 2  37581546.098 4 197492354.36024      1325.805          26.000  
G21  20215994.407 4 106235621.098 2      -705.226          34.000  
G 7  19915569.198 4 104657012.279 2       944.669          34.000  
E27  25146953.587 8 132148153.889 3      1962.763          30.000  
G 8  21758690.852 9                     -2110.461          21.000  
J 3  38664462.732 2 203183123.961 1      -622.815          35.000  
E15  22740512.467 1 119502203.658 1       911.117          44.000  
E30  22764841.892 4 119629972.819 3       412.991          28.000  
G 1  19914992.774 1 104653999.488 1      1939.521          43.000  
> 2021  5 18  3 13  8.9990000  0 10                     
J 2  37581292.991 4 197491027.93925      1326.689          26.000  
G21  20216131.609 4 106236327.291 2      -706.382          34.000  
G 7  19915389.321 4 104656067.745 2       943.718          34.000  
E27  25146584.043 8 132146190.717 3      1963.375          30.000  
G 8  21759097.521 9                     -2121.426          22.000  
J 3  38664581.455 2 203183747.562 1      -624.133          35.000  
E13  25779123.698 9                      2900.760          14.000  
E15  22740339.369 1 119501292.997 1       910.469          44.000  
E30  22764763.558 4 119629559.692 3       413.111          28.000  
G 1  19914624.347 1 104652060.635 1      1938.220          43.000  
> 2021  5 18  3 13  9.9990000  0 10                     
J 2  37581042.519 9                      1319.367          23.000  
G21  20216262.739 4 106237034.576 2      -707.015          34.000  
G 7  19915209.907 4 104655124.144 2       942.685          35.000  
E27  25146214.456 8 132144227.211 3      1964.612          30.000  
G 8  21759501.057 9                     -2120.421          30.000  
J 3  38664700.570 4 203184371.628 3      -623.069          31.000  
E13  25778582.331 9                      2891.742          16.000  
E15  22740165.853 1 119500383.525 1       909.382          43.000  
E30  22764683.479 4 119629147.270 2       412.641          33.000  
G 1  19914256.087 1 104650123.317 1      1936.328          43.000  
> 2021  5 18  3 13 10.9990000  0 10                     
J 2  37580793.836 9                      1316.182          24.000  
G21  20216390.125 8 106237741.983 3      -707.435          31.000  
G 7  19915030.309 4 104654180.353 2       943.855          33.000  
E27  25145828.135 8                      1966.622          26.000  
G 8  21759901.583 9                     -2118.868          25.000  
J 3  38664817.460 9                      -622.162          31.000  
E13  25778039.123 9                      2899.624          17.000  
E15  22739992.616 1 119499474.483 1       908.900          42.000  
E30  22764600.581 9                       446.714          22.000  
G 1  19913887.172 1 104648186.995 1      1936.183          43.000  
> 2021  5 18  3 13 11.9990000  0 10                     
J 2  37580543.051 9                      1327.326          26.000  
G21  20216525.783 9                      -705.087          31.000  
G 7  19914851.348 2 104653237.578 1       942.019          38.000  
E27  25145455.817 8                      1968.853          28.000  
G 8  21760296.595 9 114351129.80835     -2112.929          30.000  
J 3  38664933.286 9 203185609.11134      -624.200          37.000  
E13  25777500.618 9                      2886.685          21.000  
E15  22739819.780 1 119498566.643 1       907.085          42.000  
E30  22764527.151 9                       412.004          29.000  
G 1  19913518.597 2 104646252.449 1      1934.889          43.000  
> 2021  5 18  3 13 12.9990000  0 10                     
J 2  37580292.055 9                      1327.026          26.000  
G21  20216658.902 9 106239259.18135      -706.055          31.000  
G 7  19914672.431 2 104652294.571 1       943.670          36.000  
E27  25145072.715 8                      1969.254          27.000  
G 8  21760696.205 9                     -2116.140          33.000  
J 3  38665053.719 8                      -622.284          36.000  
E13  25776954.993 9                      2891.715          22.000  
E15  22739646.726 1 119497659.107 1       907.479          42.000  
E30  22764448.424 9 119627994.17915       416.906          29.000  
G 1  19913150.807 2 104644318.810 1      1934.094          43.000  
> 2021  5 18  3 13 13.9990000  0 10                     
J 2  37580039.795 9                      1326.545          26.000  
G21  20216798.303 9                      -714.765          25.000  
G 7  19914493.593 4 104651351.712 2       944.214          32.000  
E27  25144711.173 9                      1968.620          27.000  
G 8  21761093.302 9                     -2115.403          30.000  
J 3  38665176.053 9                      -621.523          27.000  
E13  25776411.253 9                      2896.339          22.000  
E15  22739474.152 1 119496751.843 1       906.943          40.000  
E30  22764373.022 9                       413.100          29.000  
G 1  19912782.843 1 104642385.651 1      1933.251          41.000  
> 2021  5 18  3 13 14.9990000  0 10                     
J 2  37579788.695 9                      1325.123          26.000  
G21  20216931.274 9                      -711.628          31.000  
G 7  19914314.493 4 104650410.567 2       940.511          33.000  
E27  25144331.787 9 132134392.12015      1965.497          28.000  
G 8  21761499.831 9                     -2120.082          25.000  
J 3  38665290.126 9 203187470.20635      -623.395          31.000  
E13  25775863.980 9                      2902.083          22.000  
E15  22739301.875 1 119495845.031 1       907.041          41.000  
E30  22764285.361 8 119627184.62114       410.989          33.000  
G 1  19912414.556 1 104640452.719 1      1933.696          40.000  
> 2021  5 18  3 13 15.9990000  0 10                     
J 2  37579543.895 9 197481835.27233      1327.049          34.000  
G21  20217065.771 9 106241400.51333      -709.571          31.000  
G 7  19914135.541 2 104649469.957 1       940.375          37.000  
E27  25143954.217 8 132132427.300 4      1964.456          29.000  
G 8  21761908.149 9                     -2118.333          25.000  
J 3  38665407.792 8 203188092.86523      -622.144          31.000  
E13  25775313.984 9                      2906.022          23.000  
E15  22739128.970 1 119494937.641 1       907.849          41.000  
E30  22764209.121 8 119626771.998 3       412.125          31.000  
G 1  19912046.488 1 104638518.653 1      1934.877          40.000  
> 2021  5 18  3 13 16.9990000  0  9                     
J 2  37579294.400 8 197480508.15524      1327.236          25.000  
G21  20217201.517 8 106242110.78323      -710.427          31.000  
G 7  19913956.152 2 104648529.612 1       940.645          36.000  
E27  25143577.938 8 132130462.656 4      1964.360          29.000  
J 3  38665517.659 8 203188715.28424      -622.061          29.000  
E13  25774769.066 9                      2901.398          24.000  
E15  22738956.134 1 119494029.909 1       907.835          40.000  
E30  22764132.662 4 119626359.278 2       412.663          31.000  
G 1  19911678.785 1 104636584.182 1      1934.362          41.000  
> 2021  5 18  3 13 17.9990000  0 10                     
J 2  37579042.053 8 197479197.88833      1327.156          32.000  
G21  20217337.401 4 106242821.83022      -711.833          36.000  
G 7  19913777.366 2 104647590.108 1       938.657          37.000  
E27  25143208.552 8 132128498.032 3      1964.502          30.000  
G 8  21762709.795 9                     -2119.650          23.000  
J 3  38665636.565 4 203189337.84523      -622.805          28.000  
E13  25774218.826 9                      2899.573          23.000  
E15  22738783.787 1 119493122.755 1       906.519          41.000  
E30  22764053.805 8 119625946.824 3       413.185          30.000  
G 1  19911310.333 1 104634650.551 1      1932.617          40.000  
> 2021  5 18  3 13 18.9990000  0 10                     
J 2  37578786.564 8 197477871.96925      1324.016          26.000  
G21  20217472.946 4 106243534.42121      -714.268          33.000  
G 7  19913598.781 2 104646651.932 1       937.023          37.000  
E27  25142832.177 8 132126534.000 3      1963.387          30.000  
G 8  21763117.920 9                     -2118.943          25.000  
J 3  38665762.721 4 203189960.80123      -623.578          33.000  
E13  25773665.086 9                      2896.824          23.000  
E15  22738611.387 1 119492216.871 1       905.341          41.000  
E30  22763975.706 8 119625535.299 2       411.209          34.000  
G 1  19910942.604 1 104632718.347 1      1931.951          42.000  
> 2021  5 18  3 13 19.9990000  0 10                     
J 2  37578532.183 9                      1327.166          31.000  
G21  20217608.744 8 106244247.36023      -712.983          31.000  
G 7  19913420.274 4 104645714.205 2       937.677          34.000  
E27  25142457.861 8 132124569.930 3      1965.428          29.000  
G 8  21763514.354 9                     -2117.910          25.000  
J 3  38665885.745 4 203190584.02722      -622.968          30.000  
E13  25773113.721 9                      2894.293          23.000  
E15  22738439.005 1 119491311.340 1       905.498          41.000  
E30  22763901.491 4 119625123.856 2       411.673          37.000  
G 1  19910574.780 1 104630786.714 1      1931.606          41.000  
> 2021  5 18  3 13 20.9990000  0 10                     
J 2  37578279.452 8 197475192.82233      1326.428          31.000  
G21  20217745.021 9                      -713.013          27.000  
G 7  19913241.924 2 104644776.597 1       937.552          38.000  
E27  25142089.199 8 132122603.767 4      1966.440          29.000  
G 8  21763920.386 9                     -2118.126          31.000  
J 3  38666002.993 8 203191216.70034      -621.851          34.000  
E13  25772564.606 9                      2898.664          23.000  
E15  22738266.981 1 119490406.311 1       904.495          41.000  
E30  22763822.528 8 119624711.942 3       411.796          28.000  
G 1  19910207.261 1 104628856.123 1      1930.485          40.000  
> 2021  5 18  3 13 21.9990000  0 10                     
J 2  37578028.823 9                      1338.955          24.000  
G21  20217881.351 8 106245680.80035      -715.644          31.000  
G 7  19913063.652 2 104643839.056 1       937.394          36.000  
E27  25141717.247 8 132120635.827 4      1967.953          30.000  
G 8  21764329.489 9                     -2116.936          30.000  
J 3  38666116.830 4 203191838.22723      -622.479          34.000  
E13  25772014.052 9                      2897.550          22.000  
E15  22738095.027 1 119489502.036 1       903.562          41.000  
E30  22763742.694 9                       412.468          29.000  
G 1  19909840.213 2 104626926.947 1      1928.122          38.000  
> 2021  5 18  3 13 22.9990000  0 10                     
J 2  37577774.129 9                      1327.614          34.000  
G21  20218017.864 9 106246400.08735      -713.111          31.000  
G 7  19912885.616 2 104642902.257 1       936.154          38.000  
E27  25141339.782 8 132118667.125 4      1968.012          29.000  
G 8  21764732.825 9                     -2121.366          25.000  
J 3  38666234.802 9                      -628.228          29.000  
E13  25771465.487 9                      2897.053          21.000  
E15  22737923.090 1 119488598.536 1       903.680          41.000  
E30  22763665.363 8 119623879.38714       412.615          34.000  
G 1  19909473.732 2 104624998.922 1      1927.705          40.000  
